$GPRMC,174649.00,A,4505.93882,N,06839.73009,W,1.074,45.29,180924,,,D*4B
$GPVTG,45.29,T,,M,1.074,N,1.989,K,D*09
$GPGGA,174649.00,4505.93882,N,06839.73009,W,2,11,0.79,36.7,M,-29.0,M,,0000*5B
$GPGSA,A,3,18,24,12,15,25,21,23,10,28,32,48,,1.36,0.79,1.10*03
$GPGSV,4,1,13,10,65,307,39,12,21,118,32,15,15,085,23,18,12,186,33*72
$GPGSV,4,2,13,21,10,326,26,22,02,023,10,23,71,139,37,24,51,060,28*78
$GPGSV,4,3,13,25,10,154,27,28,09,215,32,32,41,275,31,46,12,248,27*77
$GPGSV,4,4,13,48,15,245,29*4B
$GPGLL,4505.93882,N,06839.73009,W,174649.00,A,D*72
$GPRMC,174650.00,A,4505.93910,N,06839.72983,W,1.207,36.39,180924,,,D*40
$GPVTG,36.39,T,,M,1.207,N,2.235,K,D*05
$GPGGA,174650.00,4505.93910,N,06839.72983,W,2,11,0.82,36.7,M,-29.0,M,,0000*57
$GPGSA,A,3,18,24,12,15,25,21,23,10,28,32,48,,1.39,0.82,1.12*0A
$GPGSV,4,1,13,10,65,307,39,12,21,118,31,15,15,085,24,18,11,186,32*74
$GPGSV,4,2,13,21,10,326,25,22,02,023,08,23,71,139,36,24,51,060,29*72
$GPGSV,4,3,13,25,10,154,25,28,09,215,31,32,41,275,35,46,12,248,27*72
$GPGSV,4,4,13,48,15,245,29*4B
$GPGLL,4505.93910,N,06839.72983,W,174650.00,A,D*7A
$RDENS,4860,4960878,PC
$GPRMC,174651.00,A,4505.93938,N,06839.72961,W,1.230,28.86,180924,,,D*48
$GPVTG,28.86,T,,M,1.230,N,2.278,K,D*03
$GPGGA,174651.00,4505.93938,N,06839.72961,W,2,11,0.79,36.7,M,-29.0,M,,0000*54
$GPGSA,A,3,18,24,12,15,25,21,23,10,28,32,48,,1.36,0.79,1.10*03
$GPGSV,4,1,13,10,65,307,40,12,21,118,32,15,15,085,25,18,11,186,32*78
$GPGSV,4,2,13,21,10,326,25,22,02,023,08,23,71,139,36,24,51,060,31*7B
$GPGSV,4,3,13,25,10,154,23,28,09,215,30,32,41,275,36,46,12,248,27*76
$GPGSV,4,4,13,48,15,245,29*4B
$GPGLL,4505.93938,N,06839.72961,W,174651.00,A,D*7D
$RDENS,4861,4960957,PC
$GPRMC,174652.00,A,4505.93968,N,06839.72941,W,1.215,21.80,180924,,,D*44
$GPVTG,21.80,T,,M,1.215,N,2.250,K,D*01
$GPGGA,174652.00,4505.93968,N,06839.72941,W,2,11,0.82,36.7,M,-29.0,M,,0000*54
$GPGSA,A,3,18,24,12,15,25,21,23,10,28,32,48,,1.39,0.82,1.12*0A
$GPGSV,4,1,13,10,65,307,39,12,21,118,36,15,15,085,28,18,11,186,32*7F
$GPGSV,4,2,13,21,10,326,26,22,02,023,08,23,71,139,37,24,51,060,31*79
$GPGSV,4,3,13,25,10,154,22,28,09,215,21,32,41,275,38,46,12,248,29*77
$GPGSV,4,4,13,48,15,245,33*40
$GPGLL,4505.93968,N,06839.72941,W,174652.00,A,D*79
$RDENS,4862,4961036,PC
$RDENS,4863,4961115,PC
$GPRMC,174653.00,A,4505.94002,N,06839.72926,W,1.287,15.01,180924,,,D*43
$GPVTG,15.01,T,,M,1.287,N,2.384,K,D*0C
$GPGGA,174653.00,4505.94002,N,06839.72926,W,2,11,0.82,36.7,M,-29.0,M,,0000*56
$GPGSA,A,3,18,24,12,15,25,21,23,10,28,32,48,,1.39,0.82,1.12*0A
$GPGSV,4,1,13,10,65,307,40,12,21,118,34,15,15,085,35,18,11,186,31*7C
$GPGSV,4,2,13,21,10,326,25,22,02,023,08,23,71,139,39,24,51,060,33*76
$GPGSV,4,3,13,25,10,154,21,28,09,215,20,32,41,275,38,46,12,248,31*7C
$GPGSV,4,4,13,48,15,245,34*47
$GPGLL,4505.94002,N,06839.72926,W,174653.00,A,D*7B
$RDENS,4864,4961193,PC
$GPRMC,174654.00,A,4505.94037,N,06839.72920,W,1.213,5.85,180924,,,D*74
$GPVTG,5.85,T,,M,1.213,N,2.246,K,D*33
$GPGGA,174654.00,4505.94037,N,06839.72920,W,2,11,0.79,36.6,M,-29.0,M,,0000*54
$GPGSA,A,3,18,24,12,15,25,21,23,10,28,32,48,,1.36,0.79,1.10*03
$GPGSV,4,1,13,10,65,307,40,12,21,118,35,15,15,085,36,18,11,186,29*77
$GPGSV,4,2,13,21,10,326,21,22,02,023,08,23,71,139,39,24,51,060,34*75
$GPGSV,4,3,13,25,10,154,22,28,09,215,18,32,41,275,40,46,12,248,30*7A
$GPGSV,4,4,13,48,15,245,33*40
$GPGLL,4505.94037,N,06839.72920,W,174654.00,A,D*7C
$RDENS,4865,4961272,PC
$GPRMC,174655.00,A,4505.94073,N,06839.72920,W,1.275,0.69,180924,,,D*72
$GPVTG,0.69,T,,M,1.275,N,2.361,K,D*30
$GPGGA,174655.00,4505.94073,N,06839.72920,W,2,11,0.79,36.6,M,-29.0,M,,0000*55
$GPGSA,A,3,18,24,12,15,25,21,23,10,28,32,48,,1.36,0.79,1.10*03
$GPGSV,4,1,13,10,65,307,40,12,21,118,35,15,15,085,36,18,11,186,27*79
$GPGSV,4,2,13,21,10,326,19,22,02,023,08,23,71,139,39,24,51,060,35*7F
$GPGSV,4,3,13,25,10,154,21,28,09,215,15,32,41,275,40,46,12,248,28*7D
$GPGSV,4,4,13,48,15,245,31*42
$GPGLL,4505.94073,N,06839.72920,W,174655.00,A,D*7D
$RDENS,4866,4961350,PC
$GPRMC,174656.00,A,4505.94111,N,06839.72921,W,1.212,356.76,180924,,,D*7A
$GPVTG,356.76,T,,M,1.212,N,2.244,K,D*39
$GPGGA,174656.00,4505.94111,N,06839.72921,W,2,09,1.24,36.5,M,-29.0,M,,0000*51
$GPGSA,A,3,18,24,12,15,23,10,28,32,48,,,,2.00,1.24,1.56*0A
$GPGSV,4,1,13,10,65,307,40,12,21,118,35,15,15,085,35,18,11,186,25*78
$GPGSV,4,2,13,21,10,326,,22,02,023,,23,71,139,38,24,51,060,35*7E
$GPGSV,4,3,13,25,10,154,19,28,09,215,13,32,41,275,40,46,12,248,28*70
$GPGSV,4,4,13,48,15,245,29*4B
$GPGLL,4505.94111,N,06839.72921,W,174656.00,A,D*7A
$RDENS,4867,4961429,PC
$RDENS,4868,4961507,PC
$GPRMC,174657.00,A,4505.94144,N,06839.72928,W,1.139,351.64,180924,,,D*7C
$GPVTG,351.64,T,,M,1.139,N,2.110,K,D*35
$GPGGA,174657.00,4505.94144,N,06839.72928,W,2,10,1.17,36.4,M,-29.0,M,,0000*50
$GPGSA,A,3,18,24,12,15,25,23,10,28,32,48,,,1.95,1.17,1.56*02
$GPGSV,4,1,13,10,65,307,40,12,21,118,36,15,15,085,35,18,11,186,25*7B
$GPGSV,4,2,13,21,10,326,18,22,02,023,,23,71,139,38,24,51,060,35*77
$GPGSV,4,3,13,25,10,153,20,28,09,215,15,32,41,275,40,46,12,248,27*74
$GPGSV,4,4,13,48,15,245,28*4A
$GPGLL,4505.94144,N,06839.72928,W,174657.00,A,D*72
$RDENS,4869,4961586,PC
$GPRMC,174658.00,A,4505.94179,N,06839.72940,W,1.261,345.60,180924,,,D*7C
$GPVTG,345.60,T,,M,1.261,N,2.335,K,D*3F
$GPGGA,174658.00,4505.94179,N,06839.72940,W,2,10,1.17,36.4,M,-29.0,M,,0000*5F
$GPGSA,A,3,18,24,12,15,25,23,10,28,32,48,,,1.95,1.17,1.56*02
$GPGSV,4,1,13,10,65,307,39,12,21,118,37,15,15,085,35,18,11,186,29*78
$GPGSV,4,2,13,21,10,326,18,22,02,023,,23,71,139,38,24,51,060,36*74
$GPGSV,4,3,13,25,10,153,20,28,09,215,23,32,41,275,40,46,12,248,27*71
$GPGSV,4,4,13,48,15,245,28*4A
$GPGLL,4505.94179,N,06839.72940,W,174658.00,A,D*7D
$RDENS,4870,4961665,PC
$GPRMC,174659.00,A,4505.94215,N,06839.72955,W,1.283,340.29,180924,,,D*74
$GPVTG,340.29,T,,M,1.283,N,2.376,K,D*3C
$GPGGA,174659.00,4505.94215,N,06839.72955,W,2,10,1.17,36.3,M,-29.0,M,,0000*54
$GPGSA,A,3,18,24,12,15,25,23,10,28,32,48,,,1.95,1.17,1.56*02
$GPGSV,4,1,13,10,65,307,38,12,21,118,37,15,15,085,33,18,11,186,29*7F
$GPGSV,4,2,13,21,10,326,20,22,02,023,,23,71,139,38,24,51,060,38*71
$GPGSV,4,3,13,25,10,153,22,28,09,215,27,32,41,275,40,46,12,248,27*77
$GPGSV,4,4,13,48,15,245,29*4B
$GPGLL,4505.94215,N,06839.72955,W,174659.00,A,D*71
$RDENS,4871,4961744,PC
$RDENS,4872,4961822,PC
$GPRMC,174700.00,A,4505.94250,N,06839.72977,W,1.317,334.54,180924,,,D*7D
$GPVTG,334.54,T,,M,1.317,N,2.440,K,D*3B
$GPGGA,174700.00,4505.94250,N,06839.72977,W,2,11,0.79,36.2,M,-29.0,M,,0000*51
$GPGSA,A,3,18,24,12,15,25,21,23,10,28,32,48,,1.36,0.79,1.10*03
$GPGSV,4,1,13,10,65,307,38,12,21,118,34,15,15,085,32,18,11,186,28*7C
$GPGSV,4,2,13,21,10,326,20,22,02,023,,23,71,139,37,24,51,060,38*7E
$GPGSV,4,3,13,25,10,153,25,28,09,215,28,32,41,275,39,46,12,248,*74
$GPGSV,4,4,13,48,15,245,30*43
$GPGLL,4505.94250,N,06839.72977,W,174700.00,A,D*7D
$RDENS,4873,4961901,PC
$GPRMC,174701.00,A,4505.94282,N,06839.73003,W,1.304,330.29,180924,,,D*74
$GPVTG,330.29,T,,M,1.304,N,2.414,K,D*36
$GPGGA,174701.00,4505.94282,N,06839.73003,W,2,11,0.79,36.1,M,-29.0,M,,0000*57
$GPGSA,A,3,18,24,12,15,25,21,23,10,28,32,48,,1.36,0.79,1.10*03
$GPGSV,4,1,13,10,65,307,38,12,21,118,34,15,15,085,32,18,11,186,28*7C
$GPGSV,4,2,13,21,10,326,18,22,02,023,,23,71,139,38,24,51,060,39*7B
$GPGSV,4,3,13,25,10,153,28,28,09,215,30,32,41,275,38,46,12,248,*71
$GPGSV,4,4,13,48,15,245,29*4B
$GPGLL,4505.94282,N,06839.73003,W,174701.00,A,D*78
$RDENS,4874,4961979,PC
$GPRMC,174702.00,A,4505.94314,N,06839.73031,W,1.391,328.62,180924,,,D*72
$GPVTG,328.62,T,,M,1.391,N,2.576,K,D*39
$GPGGA,174702.00,4505.94314,N,06839.73031,W,2,11,0.79,36.0,M,-29.0,M,,0000*5A
$GPGSA,A,3,18,24,12,15,25,21,23,10,28,32,48,,1.36,0.79,1.10*03
$GPGSV,4,1,13,10,65,307,38,12,21,118,36,15,15,085,32,18,11,186,28*7E
$GPGSV,4,2,13,21,10,326,18,22,02,023,,23,71,139,38,24,51,060,38*7A
$GPGSV,4,3,13,25,10,153,28,28,09,215,30,32,41,275,40,46,12,248,*7E
$GPGSV,4,4,13,48,15,245,29*4B
$GPGLL,4505.94314,N,06839.73031,W,174702.00,A,D*74
$RDENS,4875,4962058,PC
$GPRMC,174703.00,A,4505.94346,N,06839.73060,W,1.383,327.79,180924,,,D*76
$GPVTG,327.79,T,,M,1.383,N,2.562,K,D*3A
$GPGGA,174703.00,4505.94346,N,06839.73060,W,2,11,0.79,36.0,M,-29.0,M,,0000*58
$GPGSA,A,3,18,24,12,15,25,21,23,10,28,32,48,,1.36,0.79,1.10*03
$GPGSV,4,1,13,10,65,307,38,12,21,118,37,15,15,085,32,18,11,186,29*7E
$GPGSV,4,2,13,21,10,326,17,22,02,023,,23,71,139,38,24,51,060,38*75
$GPGSV,4,3,13,25,10,153,26,28,09,215,30,32,41,275,40,46,12,248,30*73
$GPGSV,4,4,13,48,15,245,29*4B
$GPGLL,4505.94346,N,06839.73060,W,174703.00,A,D*76
$RDENS,4876,4962137,PC
$RDENS,4877,4962215,PC
$GPRMC,174704.00,A,4505.94379,N,06839.73090,W,1.425,326.88,180924,,,D*76
$GPVTG,326.88,T,,M,1.425,N,2.640,K,D*3D
$GPGGA,174704.00,4505.94379,N,06839.73090,W,2,11,0.79,36.0,M,-29.0,M,,0000*5C
$GPGSA,A,3,18,24,12,15,25,21,23,10,28,32,48,,1.36,0.79,1.10*03
$GPGSV,4,1,13,10,65,307,39,12,21,118,37,15,15,085,33,18,11,186,29*7E
$GPGSV,4,2,13,21,10,326,18,22,02,023,,23,71,139,38,24,51,060,37*75
$GPGSV,4,3,13,25,10,153,24,28,09,215,30,32,41,275,41,46,12,248,29*78
$GPGSV,4,4,13,48,15,245,28*4A
$GPGLL,4505.94379,N,06839.73090,W,174704.00,A,D*72
$RDENS,4878,4962295,PC
$GPRMC,174705.00,A,4505.94416,N,06839.73119,W,1.459,327.78,180924,,,D*7C
$GPVTG,327.78,T,,M,1.459,N,2.702,K,D*3F
$GPGGA,174705.00,4505.94416,N,06839.73119,W,2,11,0.79,35.9,M,-29.0,M,,0000*59
$GPGSA,A,3,18,24,12,15,25,21,23,10,28,32,48,,1.36,0.79,1.10*03
$GPGSV,4,1,13,10,65,307,40,12,21,118,37,15,15,085,34,18,11,186,29*77
$GPGSV,4,2,13,21,10,326,17,22,02,023,,23,71,139,37,24,51,060,37*75
$GPGSV,4,3,13,25,10,153,22,28,09,215,31,32,41,275,41,46,12,248,27*71
$GPGSV,4,4,13,48,15,245,28*4A
$GPGLL,4505.94416,N,06839.73119,W,174705.00,A,D*7D
$RDENS,4879,4962374,PC
$GPRMC,174706.00,A,4505.94453,N,06839.73148,W,1.492,328.38,180924,,,D*76
$GPVTG,328.38,T,,M,1.492,N,2.764,K,D*33
$GPGGA,174706.00,4505.94453,N,06839.73148,W,2,11,0.79,35.9,M,-29.0,M,,0000*5F
$GPGSA,A,3,18,24,12,15,25,21,23,10,28,32,48,,1.36,0.79,1.10*03
$GPGSV,4,1,13,10,65,307,39,12,21,118,37,15,15,085,34,18,11,186,31*70
$GPGSV,4,2,13,21,10,326,19,22,02,023,,23,71,139,38,24,51,060,37*74
$GPGSV,4,3,13,25,10,153,21,28,09,215,31,32,41,275,41,46,12,248,27*72
$GPGSV,4,4,13,48,15,245,27*45
$GPGLL,4505.94453,N,06839.73148,W,174706.00,A,D*7B
$RDENS,4880,4962451,PC
$GPRMC,174707.00,A,4505.94489,N,06839.73175,W,1.457,328.98,180924,,,D*7D
$GPVTG,328.98,T,,M,1.457,N,2.698,K,D*32
$GPGGA,174707.00,4505.94489,N,06839.73175,W,2,11,0.79,35.9,M,-29.0,M,,0000*57
$GPGSA,A,3,18,24,12,15,25,21,23,10,28,32,48,,1.36,0.79,1.10*03
$GPGSV,4,1,13,10,65,307,39,12,21,118,37,15,15,085,34,18,11,186,31*70
$GPGSV,4,2,13,21,10,326,17,22,02,023,,23,71,139,38,24,51,060,37*7A
$GPGSV,4,3,13,25,10,153,21,28,09,215,31,32,41,275,41,46,12,248,26*73
$GPGSV,4,4,13,48,15,245,27*45
$GPGLL,4505.94489,N,06839.73175,W,174707.00,A,D*73
$RDENS,4881,4962530,PC
$RDENS,4882,4962609,PC
$GPRMC,174708.00,A,4505.94524,N,06839.73201,W,1.368,329.95,180924,,,D*73
$GPVTG,329.95,T,,M,1.368,N,2.533,K,D*37
$GPGGA,174708.00,4505.94524,N,06839.73201,W,2,11,0.79,36.0,M,-29.0,M,,0000*54
$GPGSA,A,3,18,24,12,15,25,21,23,10,28,32,48,,1.36,0.79,1.10*03
$GPGSV,4,1,13,10,65,307,39,12,21,118,37,15,15,085,35,18,11,186,32*72
$GPGSV,4,2,13,21,10,326,17,22,02,023,,23,71,139,37,24,51,060,36*74
$GPGSV,4,3,13,25,10,153,23,28,09,215,29,32,41,275,41,46,12,248,*7C
$GPGSV,4,4,13,48,15,245,27*45
$GPGLL,4505.94524,N,06839.73201,W,174708.00,A,D*7A
$RDENS,4883,4962687,PC
$GPRMC,174709.00,A,4505.94560,N,06839.73227,W,1.399,330.04,180924,,,D*78
$GPVTG,330.04,T,,M,1.399,N,2.590,K,D*30
$GPGGA,174709.00,4505.94560,N,06839.73227,W,2,11,0.79,35.9,M,-29.0,M,,0000*5B
$GPGSA,A,3,18,24,12,15,25,21,23,10,28,32,48,,1.36,0.79,1.10*03
$GPGSV,4,1,13,10,65,307,41,12,21,118,37,15,15,085,35,18,11,186,31*7E
$GPGSV,4,2,13,21,10,326,16,22,02,023,,23,71,139,38,24,51,060,37*7B
$GPGSV,4,3,13,25,10,153,26,28,09,215,18,32,41,275,42,46,12,248,31*7A
$GPGSV,4,4,13,48,15,245,30*43
$GPGLL,4505.94560,N,06839.73227,W,174709.00,A,D*7F
$RDENS,4884,4962767,PC
$GPRMC,174710.00,A,4505.94596,N,06839.73253,W,1.424,330.96,180924,,,D*70
$GPVTG,330.96,T,,M,1.424,N,2.638,K,D*3B
$GPGGA,174710.00,4505.94596,N,06839.73253,W,2,10,1.17,35.9,M,-29.0,M,,0000*51
$GPGSA,A,3,18,24,12,15,25,23,10,28,32,48,,,1.95,1.17,1.56*02
$GPGSV,4,1,13,10,65,307,41,12,21,118,37,15,15,085,36,18,11,186,24*79
$GPGSV,4,2,13,21,10,326,,22,02,023,,23,71,139,38,24,51,060,37*7C
$GPGSV,4,3,13,25,10,153,27,28,09,215,20,32,41,275,42,46,12,248,30*71
$GPGSV,4,4,13,48,15,245,34*47
$GPGLL,4505.94596,N,06839.73253,W,174710.00,A,D*7D
$RDENS,4885,4962846,PC
$RDENS,4886,4962924,PC
$GPRMC,174711.00,A,4505.94636,N,06839.73279,W,1.527,333.44,180924,,,D*7E
$GPVTG,333.44,T,,M,1.527,N,2.828,K,D*3A
$GPGGA,174711.00,4505.94636,N,06839.73279,W,2,10,1.17,35.8,M,-29.0,M,,0000*50
$GPGSA,A,3,18,24,12,15,25,23,10,28,32,48,,,1.95,1.17,1.56*02
$GPGSV,4,1,13,10,65,307,41,12,21,118,36,15,15,085,35,18,11,186,26*79
$GPGSV,4,2,13,21,10,326,,22,02,023,,23,71,139,38,24,51,060,35*7E
$GPGSV,4,3,13,25,10,153,27,28,09,215,20,32,41,275,41,46,12,248,29*7A
$GPGSV,4,4,13,48,15,245,30*43
$GPGLL,4505.94636,N,06839.73279,W,174711.00,A,D*7D
$RDENS,4887,4963002,PC
$GPRMC,174712.00,A,4505.94678,N,06839.73301,W,1.495,336.67,180924,,,D*75
$GPVTG,336.67,T,,M,1.495,N,2.769,K,D*3C
$GPGGA,174712.00,4505.94678,N,06839.73301,W,2,10,1.17,35.7,M,-29.0,M,,0000*58
$GPGSA,A,3,18,24,12,15,25,23,10,28,32,48,,,1.95,1.17,1.56*02
$GPGSV,4,1,13,10,65,307,41,12,21,118,35,15,15,085,35,18,11,186,26*7A
$GPGSV,4,2,13,21,10,326,,22,02,023,,23,71,139,38,24,51,060,36*7D
$GPGSV,4,3,13,25,10,153,26,28,09,215,23,32,41,275,41,46,12,248,28*79
$GPGSV,4,4,13,48,15,245,30*43
$GPGLL,4505.94678,N,06839.73301,W,174712.00,A,D*7A
$RDENS,4888,4963082,PC
$GPRMC,174713.00,A,4505.94719,N,06839.73319,W,1.404,339.10,180924,,,D*7C
$GPVTG,339.10,T,,M,1.404,N,2.599,K,D*36
$GPGGA,174713.00,4505.94719,N,06839.73319,W,2,10,1.17,35.6,M,-29.0,M,,0000*57
$GPGSA,A,3,18,24,12,15,25,23,10,28,32,48,,,1.95,1.17,1.56*02
$GPGSV,4,1,13,10,65,307,41,12,21,118,36,15,15,085,36,18,11,186,27*7B
$GPGSV,4,2,13,21,10,326,,22,02,023,,23,71,139,38,24,51,060,36*7D
$GPGSV,4,3,13,25,10,153,26,28,09,215,24,32,41,275,39,46,12,248,29*70
$GPGSV,4,4,13,48,15,245,31*42
$GPGLL,4505.94719,N,06839.73319,W,174713.00,A,D*74
$RDENS,4889,4963160,PC
$GPRMC,174714.00,A,4505.94759,N,06839.73334,W,1.431,342.17,180924,,,D*7D
$GPVTG,342.17,T,,M,1.431,N,2.650,K,D*3D
$GPGGA,174714.00,4505.94759,N,06839.73334,W,2,10,1.17,35.6,M,-29.0,M,,0000*5B
$GPGSA,A,3,18,24,12,15,25,23,10,28,32,48,,,1.95,1.17,1.56*02
$GPGSV,4,1,13,10,65,307,41,12,21,118,36,15,15,085,35,18,11,186,31*7F
$GPGSV,4,2,13,21,10,326,,22,02,023,,23,71,139,38,24,51,060,36*7D
$GPGSV,4,3,13,25,10,153,26,28,09,215,21,32,41,275,38,46,12,248,30*7C
$GPGSV,4,4,13,48,15,245,33*40
$GPGLL,4505.94759,N,06839.73334,W,174714.00,A,D*78
$RDENS,4890,4963238,PC
$RDENS,4891,4963318,PC
$GPRMC,174715.00,A,4505.94801,N,06839.73343,W,1.466,345.84,180924,,,D*71
$GPVTG,345.84,T,,M,1.466,N,2.716,K,D*31
$GPGGA,174715.00,4505.94801,N,06839.73343,W,2,10,1.17,35.6,M,-29.0,M,,0000*58
$GPGSA,A,3,18,24,12,15,25,23,10,28,32,48,,,1.95,1.17,1.56*02
$GPGSV,4,1,13,10,65,307,41,12,21,118,37,15,15,085,34,18,11,186,33*7D
$GPGSV,4,2,13,21,10,326,25,22,02,023,,23,71,139,37,24,51,060,37*74
$GPGSV,4,3,13,25,10,153,27,28,09,215,18,32,41,275,38,46,12,248,30*77
$GPGSV,4,4,13,48,15,245,33*40
$GPGLL,4505.94801,N,06839.73343,W,174715.00,A,D*7B
$RDENS,4892,4963396,PC
$GPRMC,174716.00,A,4505.94844,N,06839.73351,W,1.427,348.92,180924,,,D*7F
$GPVTG,348.92,T,,M,1.427,N,2.643,K,D*3F
$GPGGA,174716.00,4505.94844,N,06839.73351,W,2,10,1.17,35.6,M,-29.0,M,,0000*59
$GPGSA,A,3,18,24,12,15,25,23,10,28,32,48,,,1.95,1.17,1.56*02
$GPGSV,4,1,13,10,65,307,41,12,21,118,38,15,15,085,33,18,11,186,33*75
$GPGSV,4,2,13,21,10,326,26,22,02,023,,23,71,139,37,24,51,060,36*76
$GPGSV,4,3,13,25,10,153,27,28,09,215,15,32,41,275,39,46,12,248,29*73
$GPGSV,4,4,13,48,15,245,33*40
$GPGLL,4505.94844,N,06839.73351,W,174716.00,A,D*7A
$RDENS,4893,4963475,PC
$GPRMC,174717.00,A,4505.94886,N,06839.73360,W,1.392,349.58,180924,,,D*7C
$GPVTG,349.58,T,,M,1.392,N,2.579,K,D*3B
$GPGGA,174717.00,4505.94886,N,06839.73360,W,2,11,0.79,35.5,M,-29.0,M,,0000*5F
$GPGSA,A,3,18,24,12,15,25,21,23,10,28,32,48,,1.36,0.79,1.11*02
$GPGSV,4,1,13,10,65,307,41,12,21,118,38,15,15,085,34,18,11,186,33*72
$GPGSV,4,2,13,21,10,326,26,22,02,023,,23,71,139,38,24,51,060,36*79
$GPGSV,4,3,13,25,10,153,27,28,09,215,12,32,41,275,38,46,12,248,29*75
$GPGSV,4,4,13,48,15,245,33*40
$GPGLL,4505.94886,N,06839.73360,W,174717.00,A,D*77
$RDENS,4894,4963553,PC
$GPRMC,174718.00,A,4505.94927,N,06839.73369,W,1.421,349.70,180924,,,D*75
$GPVTG,349.70,T,,M,1.421,N,2.632,K,D*32
$GPGGA,174718.00,4505.94927,N,06839.73369,W,2,11,0.79,35.5,M,-29.0,M,,0000*53
$GPGSA,A,3,18,24,12,15,25,21,23,10,28,32,48,,1.36,0.79,1.11*02
$GPGSV,4,1,13,10,65,307,41,12,21,118,38,15,15,085,35,18,11,186,33*73
$GPGSV,4,2,13,21,10,326,24,22,02,023,,23,71,139,38,24,51,060,36*7B
$GPGSV,4,3,13,25,10,153,27,28,09,215,11,32,41,275,38,46,12,248,28*77
$GPGSV,4,4,13,48,15,245,34*47
$GPGLL,4505.94927,N,06839.73369,W,174718.00,A,D*7B
$RDENS,4895,4963633,PC
$RDENS,4896,4963710,PC
$GPRMC,174719.00,A,4505.94968,N,06839.73378,W,1.437,349.83,180924,,,D*74
$GPVTG,349.83,T,,M,1.437,N,2.662,K,D*3C
$GPGGA,174719.00,4505.94968,N,06839.73378,W,2,11,0.79,35.5,M,-29.0,M,,0000*59
$GPGSA,A,3,18,24,12,15,25,21,23,10,28,32,48,,1.36,0.79,1.11*02
$GPGSV,4,1,13,10,65,307,41,12,21,118,37,15,15,085,37,18,11,186,31*7C
$GPGSV,4,2,13,21,10,326,22,22,02,023,,23,71,139,38,24,51,060,36*7D
$GPGSV,4,3,13,25,10,153,26,28,09,215,13,32,41,275,38,46,12,248,27*7B
$GPGSV,4,4,13,48,15,245,34*47
$GPGLL,4505.94968,N,06839.73378,W,174719.00,A,D*71
$RDENS,4897,4963789,PC
$GPRMC,174720.00,A,4505.95008,N,06839.73389,W,1.414,348.54,180924,,,D*74
$GPVTG,348.54,T,,M,1.414,N,2.618,K,D*3B
$GPGGA,174720.00,4505.95008,N,06839.73389,W,2,11,0.79,35.5,M,-29.0,M,,0000*53
$GPGSA,A,3,18,24,12,15,25,21,23,10,28,32,48,,1.36,0.79,1.11*02
$GPGSV,4,1,13,10,65,307,39,12,21,118,37,15,15,085,36,18,11,186,29*7B
$GPGSV,4,2,13,21,10,326,21,22,02,023,,23,71,139,38,24,51,060,35*7D
$GPGSV,4,3,13,25,10,153,24,28,09,215,15,32,41,275,38,46,12,248,*7A
$GPGSV,4,4,13,48,15,245,31*42
$GPGLL,4505.95008,N,06839.73389,W,174720.00,A,D*7B
$RDENS,4898,4963869,PC
$GPRMC,174721.00,A,4505.95047,N,06839.73401,W,1.326,347.57,180924,,,D*73
$GPVTG,347.57,T,,M,1.326,N,2.455,K,D*3A
$GPGGA,174721.00,4505.95047,N,06839.73401,W,2,11,0.79,35.5,M,-29.0,M,,0000*5E
$GPGSA,A,3,18,24,12,15,25,21,23,10,28,32,48,,1.36,0.79,1.11*02
$GPGSV,4,1,13,10,65,307,39,12,21,118,36,15,15,085,34,18,11,186,28*79
$GPGSV,4,2,13,21,10,326,18,22,02,023,,23,71,139,38,24,51,060,35*77
$GPGSV,4,3,13,25,10,153,22,28,09,215,17,32,41,275,37,46,12,248,*71
$GPGSV,4,4,13,48,15,245,31*42
$GPGLL,4505.95047,N,06839.73401,W,174721.00,A,D*76
$RDENS,4899,4963947,PC
$RDENS,4900,4964026,PC
$GPRMC,174722.00,A,4505.95085,N,06839.73412,W,1.402,347.60,180924,,,D*79
$GPVTG,347.60,T,,M,1.402,N,2.597,K,D*30
$GPGGA,174722.00,4505.95085,N,06839.73412,W,2,11,0.79,35.5,M,-29.0,M,,0000*51
$GPGSA,A,3,18,24,12,15,25,21,23,10,28,32,48,,1.36,0.79,1.11*02
$GPGSV,4,1,13,10,65,307,39,12,21,118,36,15,15,085,35,18,11,186,30*71
$GPGSV,4,2,13,21,10,326,17,22,02,023,,23,71,139,38,24,51,060,35*78
$GPGSV,4,3,13,25,10,153,20,28,09,215,17,32,41,275,38,46,12,248,*7C
$GPGSV,4,4,13,48,15,245,30*43
$GPGLL,4505.95085,N,06839.73412,W,174722.00,A,D*79
$RDENS,4901,4964104,PC
$GPRMC,174723.00,A,4505.95129,N,06839.73424,W,1.520,348.30,180924,,,D*71
$GPVTG,348.30,T,,M,1.520,N,2.815,K,D*3C
$GPGGA,174723.00,4505.95129,N,06839.73424,W,2,11,0.79,35.5,M,-29.0,M,,0000*52
$GPGSA,A,3,18,24,12,15,25,21,23,10,28,32,48,,1.36,0.79,1.11*02
$GPGSV,4,1,13,10,65,307,39,12,21,118,36,15,15,085,35,18,11,186,30*71
$GPGSV,4,2,13,21,10,326,15,22,02,023,,23,71,139,38,24,51,060,35*7A
$GPGSV,4,3,13,25,10,153,21,28,09,215,16,32,41,275,38,46,12,248,*7C
$GPGSV,4,4,13,48,15,245,30*43
$GPGLL,4505.95129,N,06839.73424,W,174723.00,A,D*7A
$RDENS,4902,4964183,PC
$GPRMC,174724.00,A,4505.95171,N,06839.73435,W,1.394,347.96,180924,,,D*71
$GPVTG,347.96,T,,M,1.394,N,2.582,K,D*35
$GPGGA,174724.00,4505.95171,N,06839.73435,W,2,10,1.16,35.5,M,-29.0,M,,0000*51
$GPGSA,A,3,18,24,12,15,25,23,10,28,32,48,,,1.95,1.16,1.56*03
$GPGSV,4,1,13,10,65,307,40,12,21,118,36,15,15,085,34,18,11,186,29*76
$GPGSV,4,2,13,21,10,326,16,22,02,023,,23,71,139,37,24,51,060,35*76
$GPGSV,4,3,13,25,10,153,20,28,09,215,14,32,41,275,38,46,12,248,*7F
$GPGSV,4,4,13,48,15,245,30*43
$GPGLL,4505.95171,N,06839.73435,W,174724.00,A,D*70
$RDENS,4903,4964262,PC
$GPRMC,174725.00,A,4505.95211,N,06839.73446,W,1.361,348.56,180924,,,D*78
$GPVTG,348.56,T,,M,1.361,N,2.521,K,D*35
$GPGGA,174725.00,4505.95211,N,06839.73446,W,2,11,0.79,35.5,M,-29.0,M,,0000*58
$GPGSA,A,3,18,24,12,15,25,21,23,10,28,32,48,,1.36,0.79,1.11*02
$GPGSV,4,1,13,10,65,307,37,12,21,118,38,15,15,085,34,18,11,186,33*73
$GPGSV,4,2,13,21,10,326,20,22,02,023,,23,71,139,37,24,51,060,31*77
$GPGSV,4,3,13,25,10,153,22,28,09,215,15,32,41,275,39,46,12,248,*7D
$GPGSV,4,4,13,48,15,245,34*47
$GPGLL,4505.95211,N,06839.73446,W,174725.00,A,D*70
$RDENS,4904,4964340,PC
$RDENS,4905,4964419,PC
$GPRMC,174726.00,A,4505.95251,N,06839.73457,W,1.301,348.10,180924,,,D*7B
$GPVTG,348.10,T,,M,1.301,N,2.409,K,D*3A
$GPGGA,174726.00,4505.95251,N,06839.73457,W,2,11,0.79,35.4,M,-29.0,M,,0000*5E
$GPGSA,A,3,18,24,12,15,25,21,23,10,28,32,48,,1.36,0.79,1.11*02
$GPGSV,4,1,13,10,65,307,39,12,21,118,36,15,15,085,29,18,11,186,33*7F
$GPGSV,4,2,13,21,10,326,24,22,02,023,,23,71,139,37,24,51,060,34*76
$GPGSV,4,3,13,25,10,153,22,28,09,215,17,32,41,275,39,46,12,248,27*7A
$GPGSV,4,4,13,48,15,245,33*40
$GPGLL,4505.95251,N,06839.73457,W,174726.00,A,D*77
$RDENS,4906,4964498,PC
$GPRMC,174727.00,A,4505.95291,N,06839.73469,W,1.415,349.15,180924,,,D*7D
$GPVTG,349.15,T,,M,1.415,N,2.621,K,D*34
$GPGGA,174727.00,4505.95291,N,06839.73469,W,2,11,0.79,35.3,M,-29.0,M,,0000*59
$GPGSA,A,3,18,24,12,15,25,21,23,10,28,32,48,,1.36,0.79,1.11*02
$GPGSV,4,1,13,10,65,307,38,12,21,118,37,15,15,085,31,18,11,186,33*76
$GPGSV,4,2,13,21,10,326,25,22,02,023,,23,71,139,36,24,51,060,34*76
$GPGSV,4,3,13,25,10,153,23,28,09,215,22,32,41,275,39,46,12,248,33*78
$GPGSV,4,4,13,48,15,245,34*47
$GPGLL,4505.95291,N,06839.73469,W,174727.00,A,D*77
$RDENS,4907,4964576,PC
$GPRMC,174728.00,A,4505.95332,N,06839.73480,W,1.394,348.58,180924,,,D*7B
$GPVTG,348.58,T,,M,1.394,N,2.581,K,D*3B
$GPGGA,174728.00,4505.95332,N,06839.73480,W,2,11,0.79,35.3,M,-29.0,M,,0000*59
$GPGSA,A,3,18,24,12,15,25,21,23,10,28,32,48,,1.36,0.79,1.11*02
$GPGSV,4,1,13,10,65,307,36,12,21,118,36,15,15,085,33,18,11,186,33*7B
$GPGSV,4,2,13,21,10,326,24,22,02,023,,23,71,139,36,24,51,060,33*70
$GPGSV,4,3,13,25,10,153,23,28,09,215,23,32,41,275,39,46,12,248,34*7E
$GPGSV,4,4,13,48,15,245,35*46
$GPGLL,4505.95332,N,06839.73480,W,174728.00,A,D*77
$RDENS,4908,4964655,PC
$GPRMC,174729.00,A,4505.95371,N,06839.73492,W,1.298,348.28,180924,,,D*74
$GPVTG,348.28,T,,M,1.298,N,2.403,K,D*3A
$GPGGA,174729.00,4505.95371,N,06839.73492,W,2,11,0.79,35.2,M,-29.0,M,,0000*5D
$GPGSA,A,3,18,24,12,15,25,21,23,10,28,32,48,,1.36,0.79,1.11*02
$GPGSV,4,1,13,10,65,307,39,12,21,118,38,15,15,085,35,18,11,186,32*7D
$GPGSV,4,2,13,21,10,326,24,22,02,023,,23,71,139,37,24,51,060,31*73
$GPGSV,4,3,13,25,10,153,24,28,09,215,21,32,41,275,35,46,12,248,33*70
$GPGSV,4,4,13,48,15,245,34*47
$GPGLL,4505.95371,N,06839.73492,W,174729.00,A,D*72
$RDENS,4909,4964734,PC
$RDENS,4910,4964813,PC
$GPRMC,174730.00,A,4505.95417,N,06839.73504,W,1.491,347.38,180924,,,D*74
$GPVTG,347.38,T,,M,1.491,N,2.762,K,D*3F
$GPGGA,174730.00,4505.95417,N,06839.73504,W,2,11,0.79,35.0,M,-29.0,M,,0000*5E
$GPGSA,A,3,18,24,12,15,25,21,23,10,28,32,48,,1.36,0.79,1.11*02
$GPGSV,4,1,13,10,65,307,38,12,21,118,37,15,15,085,35,18,11,186,31*70
$GPGSV,4,2,13,21,10,326,25,22,02,023,,23,71,139,39,24,51,060,35*78
$GPGSV,4,3,13,25,10,153,24,28,09,215,20,32,41,275,37,46,12,248,30*70
$GPGSV,4,4,13,48,15,245,33*40
$GPGLL,4505.95417,N,06839.73504,W,174730.00,A,D*73
$RDENS,4911,4964891,PC
$GPRMC,174731.00,A,4505.95458,N,06839.73516,W,1.450,347.49,180924,,,D*76
$GPVTG,347.49,T,,M,1.450,N,2.685,K,D*3C
$GPGGA,174731.00,4505.95458,N,06839.73516,W,2,11,0.79,34.9,M,-29.0,M,,0000*5F
$GPGSA,A,3,18,24,12,15,25,21,23,10,28,32,48,,1.36,0.79,1.11*02
$GPGSV,4,1,13,10,65,307,38,12,21,118,37,15,15,085,32,18,11,186,32*74
$GPGSV,4,2,13,21,10,326,23,22,02,023,,23,71,139,34,24,51,060,34*72
$GPGSV,4,3,13,25,10,153,25,28,09,215,19,32,41,275,39,46,12,248,31*74
$GPGSV,4,4,13,48,15,245,34*47
$GPGLL,4505.95458,N,06839.73516,W,174731.00,A,D*7A
$RDENS,4912,4964970,PC
$GPRMC,174732.00,A,4505.95498,N,06839.73527,W,1.389,348.30,180924,,,D*79
$GPVTG,348.30,T,,M,1.389,N,2.573,K,D*34
$GPGGA,174732.00,4505.95498,N,06839.73527,W,2,11,0.79,34.9,M,-29.0,M,,0000*52
$GPGSA,A,3,18,24,12,15,25,21,23,10,28,32,48,,1.36,0.79,1.11*02
$GPGSV,4,1,13,10,65,307,34,12,21,118,37,15,15,085,35,18,11,186,32*7F
$GPGSV,4,2,13,21,10,326,24,22,02,023,,23,71,139,35,24,51,060,30*70
$GPGSV,4,3,13,25,10,153,26,28,09,215,19,32,41,275,32,46,12,248,35*78
$GPGSV,4,4,13,48,15,245,35*46
$GPGLL,4505.95498,N,06839.73527,W,174732.00,A,D*77
$RDENS,4913,4965048,PC
$GPRMC,174733.00,A,4505.95539,N,06839.73538,W,1.419,349.02,180924,,,D*72
$GPVTG,349.02,T,,M,1.419,N,2.628,K,D*37
$GPGGA,174733.00,4505.95539,N,06839.73538,W,2,11,0.79,34.9,M,-29.0,M,,0000*57
$GPGSA,A,3,18,24,12,15,25,21,23,10,28,32,48,,1.36,0.79,1.11*02
$GPGSV,4,1,13,10,65,307,37,12,21,118,38,15,15,085,36,18,11,186,33*71
$GPGSV,4,2,13,21,10,326,27,22,02,023,,23,71,139,35,24,51,060,33*70
$GPGSV,4,3,13,25,10,153,26,28,09,215,19,32,41,275,32,46,12,248,35*78
$GPGSV,4,4,13,48,15,245,34*47
$GPGLL,4505.95539,N,06839.73538,W,174733.00,A,D*72
$RDENS,4914,4965127,PC
$RDENS,4915,4965206,PC
$GPRMC,174734.00,A,4505.95579,N,06839.73549,W,1.353,348.77,180924,,,D*7D
$GPVTG,348.77,T,,M,1.353,N,2.505,K,D*31
$GPGGA,174734.00,4505.95579,N,06839.73549,W,2,11,0.79,34.8,M,-29.0,M,,0000*53
$GPGSA,A,3,18,24,12,15,25,21,23,10,28,32,48,,1.36,0.79,1.11*02
$GPGSV,4,1,13,10,65,307,34,12,21,118,37,15,15,085,31,18,11,186,33*7A
$GPGSV,4,2,13,21,10,326,29,22,02,023,,23,71,139,35,24,51,060,33*7E
$GPGSV,4,3,13,25,10,153,27,28,09,215,20,32,41,275,32,46,12,248,35*73
$GPGSV,4,4,13,48,15,245,34*47
$GPGLL,4505.95579,N,06839.73549,W,174734.00,A,D*77
$RDENS,4916,4965285,PC
$GPRMC,174735.00,A,4505.95620,N,06839.73558,W,1.392,350.61,180924,,,D*70
$GPVTG,350.61,T,,M,1.392,N,2.579,K,D*39
$GPGGA,174735.00,4505.95620,N,06839.73558,W,2,11,0.79,34.8,M,-29.0,M,,0000*5D
$GPGSA,A,3,18,24,12,15,25,21,23,10,28,32,48,,1.36,0.79,1.11*02
$GPGSV,4,1,13,10,65,307,34,12,21,118,38,15,15,085,30,18,11,186,33*74
$GPGSV,4,2,13,21,10,326,30,22,02,023,,23,71,139,34,24,51,060,33*77
$GPGSV,4,3,13,25,10,153,26,28,09,215,20,32,41,275,33,46,12,248,34*72
$GPGSV,4,4,13,48,15,245,33*40
$GPGLL,4505.95620,N,06839.73558,W,174735.00,A,D*79
$RDENS,4917,4965364,PC
$GPRMC,174736.00,A,4505.95663,N,06839.73562,W,1.418,352.73,180924,,,D*79
$GPVTG,352.73,T,,M,1.418,N,2.625,K,D*37
$GPGGA,174736.00,4505.95663,N,06839.73562,W,2,11,0.79,34.6,M,-29.0,M,,0000*5E
$GPGSA,A,3,18,24,12,15,25,21,23,10,28,32,48,,1.36,0.79,1.11*02
$GPGSV,4,1,13,10,65,307,39,12,21,118,38,15,15,085,32,18,11,186,34*7C
$GPGSV,4,2,13,21,10,326,28,22,02,023,,23,71,139,37,24,51,060,33*7D
$GPGSV,4,3,13,25,10,153,25,28,09,215,20,32,41,275,37,46,12,248,32*73
$GPGSV,4,4,13,48,15,245,32*41
$GPGLL,4505.95663,N,06839.73562,W,174736.00,A,D*74
$RDENS,4918,4965443,PC
$RDENS,4919,4965521,PC
$GPRMC,174737.00,A,4505.95702,N,06839.73566,W,1.386,353.91,180924,,,D*77
$GPVTG,353.91,T,,M,1.386,N,2.567,K,D*3F
$GPGGA,174737.00,4505.95702,N,06839.73566,W,2,11,0.79,34.6,M,-29.0,M,,0000*5D
$GPGSA,A,3,18,24,12,15,25,21,23,10,28,32,48,,1.36,0.79,1.11*02
$GPGSV,4,1,13,10,65,307,39,12,21,118,39,15,15,085,34,18,11,186,34*7B
$GPGSV,4,2,13,21,11,326,27,22,02,023,,23,71,139,37,24,51,060,33*73
$GPGSV,4,3,13,25,10,153,24,28,09,215,21,32,41,275,35,46,12,248,32*71
$GPGSV,4,4,13,48,15,245,31*42
$GPGLL,4505.95702,N,06839.73566,W,174737.00,A,D*77
$RDENS,4920,4965599,PC
$GPRMC,174738.00,A,4505.95744,N,06839.73569,W,1.433,354.75,180924,,,D*71
$GPVTG,354.75,T,,M,1.433,N,2.653,K,D*3F
$GPGGA,174738.00,4505.95744,N,06839.73569,W,2,11,0.79,34.5,M,-29.0,M,,0000*5C
$GPGSA,A,3,18,24,12,15,25,21,23,10,28,32,48,,1.36,0.79,1.11*02
$GPGSV,4,1,13,10,65,307,38,12,21,118,39,15,15,085,35,18,11,186,34*7B
$GPGSV,4,2,13,21,11,326,28,22,02,023,,23,71,139,36,24,51,060,33*7D
$GPGSV,4,3,13,25,10,153,25,28,09,215,19,32,41,275,34,46,12,248,32*7A
$GPGSV,4,4,13,48,15,245,33*40
$GPGLL,4505.95744,N,06839.73569,W,174738.00,A,D*75
$RDENS,4921,4965679,PC
$GPRMC,174739.00,A,4505.95785,N,06839.73574,W,1.391,353.98,180924,,,D*7A
$GPVTG,353.98,T,,M,1.391,N,2.577,K,D*31
$GPGGA,174739.00,4505.95785,N,06839.73574,W,2,11,0.79,34.5,M,-29.0,M,,0000*5C
$GPGSA,A,3,18,24,12,15,25,21,23,10,28,32,48,,1.36,0.79,1.11*02
$GPGSV,4,1,13,10,65,307,38,12,21,118,39,15,15,085,34,18,11,186,32*7C
$GPGSV,4,2,13,21,11,326,28,22,02,023,,23,70,140,36,24,51,060,34*75
$GPGSV,4,3,13,25,10,153,25,28,09,215,19,32,41,275,35,46,12,248,32*7B
$GPGSV,4,4,13,48,15,245,31*42
$GPGLL,4505.95785,N,06839.73574,W,174739.00,A,D*75
$RDENS,4922,4965757,PC
$GPRMC,174740.00,A,4505.95824,N,06839.73581,W,1.407,353.64,180924,,,D*71
$GPVTG,353.64,T,,M,1.407,N,2.606,K,D*3F
$GPGGA,174740.00,4505.95824,N,06839.73581,W,2,11,0.79,34.5,M,-29.0,M,,0000*5C
$GPGSA,A,3,18,24,12,15,25,21,23,10,28,32,48,,1.36,0.79,1.11*02
$GPGSV,4,1,13,10,65,307,39,12,21,118,39,15,15,085,35,18,11,186,31*7F
$GPGSV,4,2,13,21,11,326,27,22,02,023,,23,70,140,36,24,51,060,34*7A
$GPGSV,4,3,13,25,10,153,25,28,09,215,20,32,41,275,35,46,12,248,31*72
$GPGSV,4,4,13,48,15,245,31*42
$GPGLL,4505.95824,N,06839.73581,W,174740.00,A,D*75
$RDENS,4923,4965836,PC
$RDENS,4924,4965915,PC
$GPRMC,174741.00,A,4505.95864,N,06839.73587,W,1.444,352.86,180924,,,D*78
$GPVTG,352.86,T,,M,1.444,N,2.675,K,D*31
$GPGGA,174741.00,4505.95864,N,06839.73587,W,2,11,0.79,34.5,M,-29.0,M,,0000*5F
$GPGSA,A,3,18,24,12,15,25,21,23,10,28,32,48,,1.36,0.79,1.11*02
$GPGSV,4,1,13,10,65,307,39,12,21,118,39,15,15,085,35,18,11,186,31*7F
$GPGSV,4,2,13,21,11,326,27,22,02,023,,23,70,140,36,24,51,060,34*7A
$GPGSV,4,3,13,25,10,153,25,28,09,215,21,32,41,275,35,46,12,248,30*72
$GPGSV,4,4,13,48,15,245,31*42
$GPGLL,4505.95864,N,06839.73587,W,174741.00,A,D*76
$RDENS,4925,4965994,PC
$GPRMC,174742.00,A,4505.95905,N,06839.73594,W,1.445,352.66,180924,,,D*70
$GPVTG,352.66,T,,M,1.445,N,2.676,K,D*3D
$GPGGA,174742.00,4505.95905,N,06839.73594,W,2,11,0.79,34.5,M,-29.0,M,,0000*58
$GPGSA,A,3,18,24,12,15,25,21,23,10,28,32,48,,1.36,0.79,1.11*02
$GPGSV,4,1,13,10,65,307,40,12,21,118,39,15,15,085,35,18,11,186,31*71
$GPGSV,4,2,13,21,11,326,26,22,02,023,,23,70,140,36,24,51,060,34*7B
$GPGSV,4,3,13,25,10,153,23,28,09,215,21,32,41,275,35,46,12,248,29*7C
$GPGSV,4,4,13,48,15,245,31*42
$GPGLL,4505.95905,N,06839.73594,W,174742.00,A,D*71
$RDENS,4926,4966072,PC
$GPRMC,174743.00,A,4505.95945,N,06839.73598,W,1.422,353.64,180924,,,D*7B
$GPVTG,353.64,T,,M,1.422,N,2.634,K,D*39
$GPGGA,174743.00,4505.95945,N,06839.73598,W,2,11,0.79,34.5,M,-29.0,M,,0000*51
$GPGSA,A,3,18,24,12,15,25,21,23,10,28,32,48,,1.36,0.79,1.11*02
$GPGSV,4,1,13,10,65,307,40,12,21,118,39,15,15,085,34,18,11,186,31*70
$GPGSV,4,2,13,21,11,326,26,22,02,023,,23,70,140,36,24,51,060,35*7A
$GPGSV,4,3,13,25,10,153,22,28,09,215,21,32,41,275,35,46,12,248,30*75
$GPGSV,4,4,13,48,15,245,30*43
$GPGLL,4505.95945,N,06839.73598,W,174743.00,A,D*78
$RDENS,4927,4966151,PC
$GPRMC,174744.00,A,4505.95985,N,06839.73601,W,1.465,354.71,180924,,,D*73
$GPVTG,354.71,T,,M,1.465,N,2.712,K,D*3C
$GPGGA,174744.00,4505.95985,N,06839.73601,W,2,11,0.79,34.5,M,-29.0,M,,0000*59
$GPGSA,A,3,18,24,12,15,25,21,23,10,28,32,48,,1.36,0.79,1.11*02
$GPGSV,4,1,13,10,65,307,39,12,21,118,38,15,15,085,33,18,11,186,31*78
$GPGSV,4,2,13,21,11,326,26,22,02,023,,23,70,140,36,24,51,060,35*7A
$GPGSV,4,3,13,25,10,153,21,28,10,215,21,32,41,275,35,46,12,248,30*7E
$GPGSV,4,4,13,48,15,245,29*4B
$GPGLL,4505.95985,N,06839.73601,W,174744.00,A,D*70
$RDENS,4928,4966230,PC
$RDENS,4929,4966308,PC
$GPRMC,174745.00,A,4505.96026,N,06839.73605,W,1.459,355.09,180924,,,D*74
$GPVTG,355.09,T,,M,1.459,N,2.702,K,D*3C
$GPGGA,174745.00,4505.96026,N,06839.73605,W,2,11,0.79,34.5,M,-29.0,M,,0000*5F
$GPGSA,A,3,18,24,12,15,25,21,23,10,28,32,48,,1.36,0.79,1.11*02
$GPGSV,4,1,13,10,65,307,35,12,21,118,36,15,15,085,29,18,11,186,34*74
$GPGSV,4,2,13,21,11,326,26,22,02,023,,23,70,140,35,24,51,060,35*79
$GPGSV,4,3,13,25,10,153,21,28,10,215,22,32,41,275,36,46,12,248,32*7C
$GPGSV,4,4,13,48,15,245,31*42
$GPGLL,4505.96026,N,06839.73605,W,174745.00,A,D*76
$RDENS,4930,4966387,PC
$GPRMC,174746.00,A,4505.96066,N,06839.73613,W,1.489,353.19,180924,,,D*7E
$GPVTG,353.19,T,,M,1.489,N,2.757,K,D*36
$GPGGA,174746.00,4505.96066,N,06839.73613,W,2,10,0.83,34.5,M,-29.0,M,,0000*5B
$GPGSA,A,3,18,24,12,15,25,21,23,10,28,32,,,1.39,0.83,1.12*07
$GPGSV,4,1,13,10,65,307,36,12,21,118,36,15,15,085,27,18,11,186,32*7F
$GPGSV,4,2,13,21,11,326,26,22,02,023,,23,70,140,36,24,51,060,30*7F
$GPGSV,4,3,13,25,10,153,18,28,10,215,29,32,41,275,36,46,12,248,32*7D
$GPGSV,4,4,13,48,15,245,30*43
$GPGLL,4505.96066,N,06839.73613,W,174746.00,A,D*76
$RDENS,4931,4966465,PC
$GPRMC,174747.00,A,4505.96109,N,06839.73619,W,1.518,352.97,180924,,,D*73
$GPVTG,352.97,T,,M,1.518,N,2.811,K,D*35
$GPGGA,174747.00,4505.96109,N,06839.73619,W,2,11,0.79,34.5,M,-29.0,M,,0000*5C
$GPGSA,A,3,18,24,12,15,25,21,23,10,28,32,48,,1.36,0.79,1.11*02
$GPGSV,4,1,13,10,65,307,38,12,21,118,35,15,15,085,25,18,11,186,31*73
$GPGSV,4,2,13,21,11,326,27,22,02,023,,23,70,140,38,24,51,060,33*73
$GPGSV,4,3,13,25,10,153,17,28,10,215,28,32,41,275,33,46,12,248,31*75
$GPGSV,4,4,13,48,15,245,30*43
$GPGLL,4505.96109,N,06839.73619,W,174747.00,A,D*75
$RDENS,4932,4966544,PC
$RDENS,4933,4966623,PC
$GPRMC,174748.00,A,4505.96145,N,06839.73620,W,1.199,356.23,180924,,,D*78
$GPVTG,356.23,T,,M,1.199,N,2.220,K,D*3B
$GPGGA,174748.00,4505.96145,N,06839.73620,W,2,11,0.79,34.4,M,-29.0,M,,0000*50
$GPGSA,A,3,18,24,12,15,25,21,23,10,28,32,48,,1.36,0.79,1.11*02
$GPGSV,4,1,13,10,65,307,37,12,21,118,35,15,15,085,30,18,11,186,30*79
$GPGSV,4,2,13,21,11,326,25,22,02,023,,23,70,140,37,24,51,060,34*79
$GPGSV,4,3,13,25,10,153,19,28,10,215,28,32,42,276,29,46,12,248,31*70
$GPGSV,4,4,13,48,15,245,31*42
$GPGLL,4505.96145,N,06839.73620,W,174748.00,A,D*78
$RDENS,4934,4966701,PC
$GPRMC,174749.00,A,4505.96178,N,06839.73617,W,1.306,359.92,180924,,,D*72
$GPVTG,359.92,T,,M,1.306,N,2.419,K,D*36
$GPGGA,174749.00,4505.96178,N,06839.73617,W,2,11,0.79,34.4,M,-29.0,M,,0000*5B
$GPGSA,A,3,18,24,12,15,25,21,23,10,28,32,48,,1.36,0.79,1.11*02
$GPGSV,4,1,13,10,65,307,36,12,21,118,32,15,15,085,24,18,11,186,24*7F
$GPGSV,4,2,13,21,11,326,32,22,02,023,,23,70,140,34,24,51,060,34*7C
$GPGSV,4,3,13,25,10,153,23,28,10,215,31,32,42,276,30,46,12,248,30*78
$GPGSV,4,4,13,48,15,245,32*41
$GPGLL,4505.96178,N,06839.73617,W,174749.00,A,D*73
$RDENS,4935,4966780,PC
$GPRMC,174750.00,A,4505.96212,N,06839.73609,W,1.382,4.41,180924,,,D*73
$GPVTG,4.41,T,,M,1.382,N,2.560,K,D*30
$GPGGA,174750.00,4505.96212,N,06839.73609,W,2,11,0.79,34.5,M,-29.0,M,,0000*52
$GPGSA,A,3,18,24,12,15,25,21,23,10,28,32,48,,1.36,0.79,1.11*02
$GPGSV,4,1,13,10,65,307,38,12,21,118,28,15,15,085,22,18,11,186,25*7D
$GPGSV,4,2,13,21,11,326,31,22,02,023,,23,70,140,37,24,51,060,32*7A
$GPGSV,4,3,13,25,10,153,30,28,10,215,32,32,42,276,30,46,12,248,30*79
$GPGSV,4,4,13,48,15,245,31*42
$GPGLL,4505.96212,N,06839.73609,W,174750.00,A,D*7B
$RDENS,4936,4966859,PC
$GPRMC,174751.00,A,4505.96253,N,06839.73599,W,1.407,7.51,180924,,,D*75
$GPVTG,7.51,T,,M,1.407,N,2.605,K,D*38
$GPGGA,174751.00,4505.96253,N,06839.73599,W,2,11,0.79,34.4,M,-29.0,M,,0000*5D
$GPGSA,A,3,18,24,12,15,25,21,23,10,28,32,48,,1.36,0.79,1.11*02
$GPGSV,4,1,13,10,65,307,37,12,21,118,31,15,15,085,21,18,11,186,27*7B
$GPGSV,4,2,13,21,11,326,30,22,02,023,,23,70,140,39,24,51,060,31*76
$GPGSV,4,3,13,25,10,153,30,28,10,215,32,32,42,276,31,46,12,248,30*78
$GPGSV,4,4,13,48,15,245,30*43
$GPGLL,4505.96253,N,06839.73599,W,174751.00,A,D*75
$RDENS,4937,4966938,PC
$RDENS,4938,4967016,PC
$GPRMC,174752.00,A,4505.96291,N,06839.73585,W,1.450,8.75,180924,,,D*7E
$GPVTG,8.75,T,,M,1.450,N,2.686,K,D*38
$GPGGA,174752.00,4505.96291,N,06839.73585,W,2,11,0.79,34.4,M,-29.0,M,,0000*5D
$GPGSA,A,3,18,24,12,15,25,21,23,10,28,32,48,,1.36,0.79,1.11*02
$GPGSV,4,1,13,10,65,307,37,12,21,118,32,15,15,085,21,18,11,186,28*77
$GPGSV,4,2,13,21,11,326,30,22,02,023,,23,70,140,38,24,51,060,31*77
$GPGSV,4,3,13,25,10,153,29,28,10,215,32,32,42,276,31,46,12,248,29*78
$GPGSV,4,4,13,48,15,245,31*42
$GPGLL,4505.96291,N,06839.73585,W,174752.00,A,D*75
$RDENS,4939,4967095,PC
$GPRMC,174753.00,A,4505.96330,N,06839.73572,W,1.394,9.16,180924,,,D*76
$GPVTG,9.16,T,,M,1.394,N,2.582,K,D*34
$GPGGA,174753.00,4505.96330,N,06839.73572,W,2,11,0.79,34.4,M,-29.0,M,,0000*5E
$GPGSA,A,3,18,24,12,15,25,21,23,10,28,32,48,,1.36,0.79,1.11*02
$GPGSV,4,1,13,10,65,307,38,12,21,118,33,15,15,085,23,18,11,186,29*7A
$GPGSV,4,2,13,21,11,326,29,22,02,023,,23,70,140,38,24,51,060,29*76
$GPGSV,4,3,13,25,10,153,30,28,10,215,30,32,42,276,32,46,12,248,28*70
$GPGSV,4,4,13,48,15,245,31*42
$GPGLL,4505.96330,N,06839.73572,W,174753.00,A,D*76
$RDENS,4940,4967174,PC
$GPRMC,174754.00,A,4505.96370,N,06839.73556,W,1.451,10.94,180924,,,D*4F
$GPVTG,10.94,T,,M,1.451,N,2.688,K,D*01
$GPGGA,174754.00,4505.96370,N,06839.73556,W,2,11,0.79,34.3,M,-29.0,M,,0000*5C
$GPGSA,A,3,18,24,12,15,25,21,23,10,28,32,48,,1.36,0.79,1.11*02
$GPGSV,4,1,13,10,65,307,38,12,21,118,33,15,15,085,24,18,11,186,27*73
$GPGSV,4,2,13,21,11,326,30,22,02,023,,23,70,140,38,24,51,060,28*7F
$GPGSV,4,3,13,25,10,153,31,28,10,215,30,32,42,276,31,46,12,248,30*7B
$GPGSV,4,4,13,48,15,245,29*4B
$GPGLL,4505.96370,N,06839.73556,W,174754.00,A,D*73
$RDENS,4941,4967252,PC
$GPRMC,174755.00,A,4505.96413,N,06839.73532,W,1.770,17.54,180924,,,D*45
$GPVTG,17.54,T,,M,1.770,N,3.278,K,D*00
$GPGGA,174755.00,4505.96413,N,06839.73532,W,2,11,0.79,34.4,M,-29.0,M,,0000*5A
$GPGSA,A,3,18,24,12,15,25,21,23,10,28,32,48,,1.36,0.79,1.11*02
$GPGSV,4,1,13,10,65,307,38,12,21,118,34,15,15,085,23,18,11,186,26*72
$GPGSV,4,2,13,21,11,326,31,22,02,023,,23,70,140,38,24,51,060,26*70
$GPGSV,4,3,13,25,10,153,31,28,10,215,29,32,42,276,31,46,12,248,29*7B
$GPGSV,4,4,13,48,15,245,26*44
$GPGLL,4505.96413,N,06839.73532,W,174755.00,A,D*72
$RDENS,4942,4967331,PC
$RDENS,4943,4967409,PC
$GPRMC,174756.00,A,4505.96451,N,06839.73509,W,1.486,17.48,180924,,,D*4F
$GPVTG,17.48,T,,M,1.486,N,2.752,K,D*0B
$GPGGA,174756.00,4505.96451,N,06839.73509,W,2,10,0.83,34.5,M,-29.0,M,,0000*52
$GPGSA,A,3,18,24,12,15,25,21,23,10,28,32,,,1.39,0.83,1.12*07
$GPGSV,4,1,13,10,65,307,38,12,21,118,34,15,15,085,23,18,11,186,26*72
$GPGSV,4,2,13,21,11,326,32,22,02,023,,23,70,140,38,24,51,060,23*76
$GPGSV,4,3,13,25,10,153,30,28,10,215,28,32,42,276,31,46,12,248,*70
$GPGSV,4,4,13,48,15,245,*40
$GPGLL,4505.96451,N,06839.73509,W,174756.00,A,D*7F
$RDENS,4944,4967489,PC
$GPRMC,174757.00,A,4505.96491,N,06839.73488,W,1.492,18.83,180924,,,D*47
$GPVTG,18.83,T,,M,1.492,N,2.764,K,D*03
$GPGGA,174757.00,4505.96491,N,06839.73488,W,2,10,0.83,34.4,M,-29.0,M,,0000*56
$GPGSA,A,3,18,24,12,15,25,21,23,10,28,32,,,1.39,0.83,1.12*07
$GPGSV,4,1,13,10,65,307,38,12,21,118,33,15,15,085,25,18,11,186,26*73
$GPGSV,4,2,13,21,11,326,32,22,02,023,,23,70,140,37,24,51,060,19*70
$GPGSV,4,3,13,25,10,153,29,28,10,215,28,32,42,276,32,46,12,248,*7B
$GPGSV,4,4,13,48,15,245,*40
$GPGLL,4505.96491,N,06839.73488,W,174757.00,A,D*7A
$RDENS,4945,4967568,PC
$GPRMC,174758.00,A,4505.96530,N,06839.73464,W,1.517,20.57,180924,,,D*4E
$GPVTG,20.57,T,,M,1.517,N,2.809,K,D*09
$GPGGA,174758.00,4505.96530,N,06839.73464,W,2,10,0.83,34.5,M,-29.0,M,,0000*50
$GPGSA,A,3,18,24,12,15,25,21,23,10,28,32,,,1.39,0.83,1.12*07
$GPGSV,4,1,13,10,65,307,38,12,21,118,33,15,15,085,27,18,11,186,27*70
$GPGSV,4,2,13,21,11,326,33,22,02,023,,23,70,140,37,24,51,060,14*7C
$GPGSV,4,3,13,25,10,153,27,28,10,215,29,32,42,276,31,46,12,248,*77
$GPGSV,4,4,13,48,15,245,*40
$GPGLL,4505.96530,N,06839.73464,W,174758.00,A,D*7D
$RDENS,4946,4967646,PC
$RDENS,4947,4967724,PC
$GPRMC,174759.00,A,4505.96569,N,06839.73440,W,1.535,21.76,180924,,,D*47
$GPVTG,21.76,T,,M,1.535,N,2.842,K,D*04
$GPGGA,174759.00,4505.96569,N,06839.73440,W,2,10,0.83,34.4,M,-29.0,M,,0000*5A
$GPGSA,A,3,18,24,12,15,25,21,23,10,28,32,,,1.39,0.83,1.12*07
$GPGSV,4,1,13,10,65,307,37,12,21,118,32,15,15,085,27,18,11,186,27*7E
$GPGSV,4,2,13,21,11,326,33,22,02,023,,23,70,140,38,24,51,060,13*74
$GPGSV,4,3,13,25,10,153,26,28,10,215,30,32,42,276,31,46,12,248,*7E
$GPGSV,4,4,13,48,15,245,*40
$GPGLL,4505.96569,N,06839.73440,W,174759.00,A,D*76
$RDENS,4948,4967803,PC
$GPRMC,174800.00,A,4505.96605,N,06839.73413,W,1.556,23.33,180924,,,D*4D
$GPVTG,23.33,T,,M,1.556,N,2.882,K,D*0E
$GPGGA,174800.00,4505.96605,N,06839.73413,W,2,10,0.83,34.5,M,-29.0,M,,0000*57
$GPGSA,A,3,18,24,12,15,25,21,23,10,28,32,,,1.39,0.83,1.12*07
$GPGSV,4,1,13,10,65,307,37,12,21,118,31,15,15,085,27,18,11,186,28*72
$GPGSV,4,2,13,21,11,326,32,22,02,023,,23,70,140,37,24,51,060,13*7A
$GPGSV,4,3,13,25,10,153,24,28,10,215,31,32,42,276,31,46,12,248,*7D
$GPGSV,4,4,13,48,15,245,*40
$GPGLL,4505.96605,N,06839.73413,W,174800.00,A,D*7A
$RDENS,4949,4967882,PC
$GPRMC,174801.00,A,4505.96640,N,06839.73384,W,1.513,24.95,180924,,,D*4E
$GPVTG,24.95,T,,M,1.513,N,2.802,K,D*0C
$GPGGA,174801.00,4505.96640,N,06839.73384,W,2,10,0.83,34.6,M,-29.0,M,,0000*5D
$GPGSA,A,3,18,24,12,15,25,21,23,10,28,32,,,1.39,0.83,1.12*07
$GPGSV,4,1,13,10,65,307,36,12,21,118,29,15,15,085,26,18,11,186,28*7B
$GPGSV,4,2,13,21,11,326,33,22,02,023,,23,70,140,37,24,51,060,13*7B
$GPGSV,4,3,13,25,10,153,21,28,10,215,32,32,42,276,32,46,12,248,*78
$GPGSV,4,4,13,48,15,245,*40
$GPGLL,4505.96640,N,06839.73384,W,174801.00,A,D*73
$RDENS,4950,4967961,PC
$GPRMC,174802.00,A,4505.96678,N,06839.73355,W,1.651,26.34,180924,,,D*46
$GPVTG,26.34,T,,M,1.651,N,3.058,K,D*06
$GPGGA,174802.00,4505.96678,N,06839.73355,W,2,10,0.83,34.7,M,-29.0,M,,0000*58
$GPGSA,A,3,18,24,12,15,25,21,23,10,28,32,,,1.39,0.83,1.12*07
$GPGSV,4,1,13,10,65,307,39,12,21,118,34,15,15,085,29,18,11,186,28*77
$GPGSV,4,2,13,21,11,326,34,22,02,023,,23,70,140,37,24,51,060,30*7D
$GPGSV,4,3,13,25,10,153,24,28,10,215,33,32,42,276,35,46,12,248,*7B
$GPGSV,4,4,13,48,15,245,*40
$GPGLL,4505.96678,N,06839.73355,W,174802.00,A,D*77
$RDENS,4951,4968039,PC
$RDENS,4952,4968119,PC
$GPRMC,174803.00,A,4505.96716,N,06839.73323,W,1.680,27.95,180924,,,D*49
$GPVTG,27.95,T,,M,1.680,N,3.112,K,D*0F
$GPGGA,174803.00,4505.96716,N,06839.73323,W,2,10,0.83,34.8,M,-29.0,M,,0000*5E
$GPGSA,A,3,18,24,12,15,25,21,23,10,28,32,,,1.39,0.83,1.12*07
$GPGSV,4,1,13,10,65,307,39,12,21,118,34,15,15,085,30,18,11,186,27*70
$GPGSV,4,2,13,21,11,326,33,22,02,023,,23,70,140,37,24,51,060,32*78
$GPGSV,4,3,13,25,10,153,27,28,10,215,34,32,42,276,35,46,12,248,*7F
$GPGSV,4,4,13,48,15,245,*40
$GPGLL,4505.96716,N,06839.73323,W,174803.00,A,D*7E
$RDENS,4953,4968196,PC
$GPRMC,174804.00,A,4505.96754,N,06839.73290,W,1.636,29.83,180924,,,D*45
$GPVTG,29.83,T,,M,1.636,N,3.030,K,D*0A
$GPGGA,174804.00,4505.96754,N,06839.73290,W,2,10,0.83,34.9,M,-29.0,M,,0000*57
$GPGSA,A,3,18,24,12,15,25,21,23,10,28,32,,,1.39,0.83,1.12*07
$GPGSV,4,1,13,10,65,307,39,12,21,118,34,15,15,085,29,18,11,186,27*78
$GPGSV,4,2,13,21,11,326,33,22,02,023,,23,70,140,37,24,51,060,33*79
$GPGSV,4,3,13,25,10,153,28,28,10,215,35,32,42,276,36,46,12,248,*72
$GPGSV,4,4,13,48,15,245,*40
$GPGLL,4505.96754,N,06839.73290,W,174804.00,A,D*76
$RDENS,4954,4968276,PC
$GPRMC,174805.00,A,4505.96791,N,06839.73256,W,1.611,30.90,180924,,,D*48
$GPVTG,30.90,T,,M,1.611,N,2.983,K,D*05
$GPGGA,174805.00,4505.96791,N,06839.73256,W,2,10,0.83,35.0,M,-29.0,M,,0000*5D
$GPGSA,A,3,18,24,12,15,25,21,23,10,28,32,,,1.39,0.83,1.12*07
$GPGSV,4,1,13,10,65,307,38,12,21,118,35,15,15,085,29,18,11,186,27*78
$GPGSV,4,2,13,21,11,326,33,22,02,023,,23,70,140,37,24,51,060,32*78
$GPGSV,4,3,13,25,10,153,28,28,10,215,35,32,42,276,34,46,12,248,*70
$GPGSV,4,4,13,48,15,245,*40
$GPGLL,4505.96791,N,06839.73256,W,174805.00,A,D*74
$RDENS,4955,4968355,PC
$GPRMC,174806.00,A,4505.96829,N,06839.73224,W,1.645,31.58,180924,,,D*46
$GPVTG,31.58,T,,M,1.645,N,3.047,K,D*01
$GPGGA,174806.00,4505.96829,N,06839.73224,W,2,10,0.83,35.0,M,-29.0,M,,0000*57
$GPGSA,A,3,18,24,12,15,25,21,23,10,28,32,,,1.39,0.83,1.12*07
$GPGSV,4,1,13,10,65,307,38,12,21,118,36,15,15,085,29,18,11,186,27*7B
$GPGSV,4,2,13,21,11,326,33,22,02,023,,23,70,140,37,24,51,060,32*78
$GPGSV,4,3,13,25,10,153,29,28,10,215,34,32,42,276,33,46,12,248,*77
$GPGSV,4,4,13,48,15,245,*40
$GPGLL,4505.96829,N,06839.73224,W,174806.00,A,D*7E
$RDENS,4956,4968433,PC
$RDENS,4957,4968512,PC
$GPRMC,174807.00,A,4505.96866,N,06839.73195,W,1.660,30.68,180924,,,D*40
$GPVTG,30.68,T,,M,1.660,N,3.074,K,D*04
$GPGGA,174807.00,4505.96866,N,06839.73195,W,2,10,0.83,35.1,M,-29.0,M,,0000*55
$GPGSA,A,3,18,24,12,15,25,21,23,10,28,32,,,1.39,0.83,1.12*07
$GPGSV,4,1,13,10,65,307,38,12,21,118,36,15,15,085,29,18,11,186,26*7A
$GPGSV,4,2,13,21,11,326,34,22,02,023,,23,70,140,37,24,51,060,32*7F
$GPGSV,4,3,13,25,10,153,28,28,10,215,34,32,42,276,33,46,12,248,*76
$GPGSV,4,4,13,48,15,245,*40
$GPGLL,4505.96866,N,06839.73195,W,174807.00,A,D*7D
$RDENS,4958,4968590,PC
$GPRMC,174808.00,A,4505.96902,N,06839.73165,W,1.642,30.72,180924,,,D*48
$GPVTG,30.72,T,,M,1.642,N,3.041,K,D*09
$GPGGA,174808.00,4505.96902,N,06839.73165,W,2,10,0.83,35.2,M,-29.0,M,,0000*55
$GPGSA,A,3,18,24,12,15,25,21,23,10,28,32,,,1.39,0.83,1.12*07
$GPGSV,4,1,13,10,65,307,38,12,21,118,35,15,15,085,30,18,11,186,27*70
$GPGSV,4,2,13,21,11,326,33,22,02,023,,23,70,140,37,24,51,060,32*78
$GPGSV,4,3,13,25,10,153,28,28,10,215,35,32,42,276,34,46,12,248,*70
$GPGSV,4,4,13,48,15,245,*40
$GPGLL,4505.96902,N,06839.73165,W,174808.00,A,D*7E
$RDENS,4959,4968669,PC
$GPRMC,174809.00,A,4505.96941,N,06839.73133,W,1.644,31.38,180924,,,D*44
$GPVTG,31.38,T,,M,1.644,N,3.045,K,D*04
$GPGGA,174809.00,4505.96941,N,06839.73133,W,2,10,0.83,35.2,M,-29.0,M,,0000*50
$GPGSA,A,3,18,24,12,15,25,21,23,10,28,32,,,1.39,0.83,1.12*07
$GPGSV,4,1,13,10,65,307,38,12,21,118,34,15,15,085,29,18,11,186,26*78
$GPGSV,4,2,13,21,11,326,33,22,02,023,,23,70,140,37,24,51,060,32*78
$GPGSV,4,3,13,25,10,153,28,28,10,215,36,32,42,276,34,46,12,248,*73
$GPGSV,4,4,13,48,15,245,*40
$GPGLL,4505.96941,N,06839.73133,W,174809.00,A,D*7B
$RDENS,4960,4968748,PC
$GPRMC,174810.00,A,4505.96980,N,06839.73100,W,1.657,31.45,180924,,,D*49
$GPVTG,31.45,T,,M,1.657,N,3.068,K,D*03
$GPGGA,174810.00,4505.96980,N,06839.73100,W,2,10,0.83,35.2,M,-29.0,M,,0000*55
$GPGSA,A,3,18,24,12,15,25,21,23,10,28,32,,,1.39,0.83,1.12*07
$GPGSV,4,1,13,10,66,307,38,12,21,118,34,15,15,085,28,18,11,186,26*7A
$GPGSV,4,2,13,21,11,326,33,22,02,023,,23,70,140,37,24,51,060,32*78
$GPGSV,4,3,13,25,10,153,29,28,10,215,36,32,42,276,35,46,12,248,*73
$GPGSV,4,4,13,48,15,245,*40
$GPGLL,4505.96980,N,06839.73100,W,174810.00,A,D*7E
$RDENS,4961,4968826,PC
$RDENS,4962,4968905,PC
$GPRMC,174811.00,A,4505.97018,N,06839.73067,W,1.668,32.14,180924,,,D*4A
$GPVTG,32.14,T,,M,1.668,N,3.090,K,D*0F
$GPGGA,174811.00,4505.97018,N,06839.73067,W,2,10,0.83,35.2,M,-29.0,M,,0000*5D
$GPGSA,A,3,18,24,12,15,25,21,23,10,28,32,,,1.39,0.83,1.12*07
$GPGSV,4,1,13,10,66,307,39,12,21,118,33,15,15,085,26,18,11,186,26*72
$GPGSV,4,2,13,21,11,326,33,22,02,023,,23,70,140,37,24,51,060,33*79
$GPGSV,4,3,13,25,10,153,30,28,10,215,35,32,42,276,35,46,12,248,*78
$GPGSV,4,4,13,48,15,245,*40
$GPGLL,4505.97018,N,06839.73067,W,174811.00,A,D*76
$RDENS,4963,4968984,PC
$GPRMC,174812.00,A,4505.97055,N,06839.73033,W,1.581,33.66,180924,,,A*44
$GPVTG,33.66,T,,M,1.581,N,2.929,K,A*00
$GPGGA,174812.00,4505.97055,N,06839.73033,W,1,10,0.83,35.3,M,-29.0,M,,*54
$GPGSA,A,3,18,24,12,15,25,21,23,10,28,32,,,1.39,0.83,1.12*07
$GPGSV,4,1,13,10,66,307,39,12,21,118,33,15,15,085,25,18,11,186,26*71
$GPGSV,4,2,13,21,11,326,33,22,02,023,,23,70,140,37,24,51,060,33*79
$GPGSV,4,3,13,25,10,153,31,28,10,215,35,32,42,276,36,46,12,248,*7A
$GPGSV,4,4,13,48,15,245,*40
$GPGLL,4505.97055,N,06839.73033,W,174812.00,A,A*78
$RDENS,4964,4969062,PC
$GPRMC,174813.00,A,4505.97091,N,06839.72996,W,1.638,35.45,180924,,,A*4C
$GPVTG,35.45,T,,M,1.638,N,3.034,K,A*02
$GPGGA,174813.00,4505.97091,N,06839.72996,W,1,10,0.83,35.3,M,-29.0,M,,*5A
$GPGSA,A,3,18,24,12,15,25,21,23,10,28,32,,,1.39,0.83,1.12*07
$GPGSV,4,1,13,10,66,307,39,12,21,118,34,15,15,085,23,18,11,186,26*70
$GPGSV,4,2,13,21,11,326,33,22,02,023,,23,70,140,37,24,51,060,33*79
$GPGSV,4,3,13,25,10,153,32,28,10,215,35,32,42,276,36,46,12,248,*79
$GPGSV,4,4,13,48,15,245,*40
$GPGLL,4505.97091,N,06839.72996,W,174813.00,A,A*76
$RDENS,4965,4969141,PC
$RDENS,4966,4969220,PC
$GPRMC,174814.00,A,4505.97128,N,06839.72958,W,1.632,36.91,180924,,,A*4A
$GPVTG,36.91,T,,M,1.632,N,3.022,K,A*05
$GPGGA,174814.00,4505.97128,N,06839.72958,W,1,10,0.83,35.4,M,-29.0,M,,*5B
$GPGSA,A,3,18,24,12,15,25,21,23,10,28,32,,,1.39,0.83,1.12*07
$GPGSV,4,1,13,10,66,307,38,12,21,118,34,15,15,085,23,18,11,186,26*71
$GPGSV,4,2,13,21,11,326,33,22,02,023,,23,70,140,36,24,51,060,33*78
$GPGSV,4,3,13,25,10,153,32,28,10,215,35,32,42,276,37,46,12,248,*78
$GPGSV,4,4,13,48,15,245,*40
$GPGLL,4505.97128,N,06839.72958,W,174814.00,A,A*70
$RDENS,4967,4969298,PC
$GPRMC,174815.00,A,4505.97165,N,06839.72922,W,1.590,36.15,180924,,,A*48
$GPVTG,36.15,T,,M,1.590,N,2.944,K,A*0A
$GPGGA,174815.00,4505.97165,N,06839.72922,W,1,10,0.83,35.4,M,-29.0,M,,*5E
$GPGSA,A,3,18,24,12,15,25,21,23,10,28,32,,,1.39,0.83,1.12*07
$GPGSV,4,1,13,10,66,307,38,12,21,118,34,15,15,085,26,18,11,186,26*74
$GPGSV,4,2,13,21,11,326,33,22,02,023,,23,70,140,37,24,51,060,32*78
$GPGSV,4,3,13,25,10,153,30,28,10,215,34,32,42,276,35,46,12,248,*79
$GPGSV,4,4,13,48,15,245,*40
$GPGLL,4505.97165,N,06839.72922,W,174815.00,A,A*75
$RDENS,4968,4969377,PC
$GPRMC,174816.00,A,4505.97202,N,06839.72890,W,1.590,34.87,180924,,,A*48
$GPVTG,34.87,T,,M,1.590,N,2.945,K,A*02
$GPGGA,174816.00,4505.97202,N,06839.72890,W,1,10,0.83,35.5,M,-29.0,M,,*56
$GPGSA,A,3,18,24,12,15,25,21,23,10,28,32,,,1.39,0.83,1.12*07
$GPGSV,4,1,13,10,66,307,38,12,21,118,35,15,15,085,29,18,11,186,26*7A
$GPGSV,4,2,13,21,11,326,34,22,02,023,,23,70,140,39,24,51,060,31*72
$GPGSV,4,3,13,25,10,153,29,28,10,215,34,32,42,276,33,46,12,248,*77
$GPGSV,4,4,13,48,15,245,*40
$GPGLL,4505.97202,N,06839.72890,W,174816.00,A,A*7C
$RDENS,4969,4969455,PC
$GPRMC,174817.00,A,4505.97239,N,06839.72861,W,1.596,32.18,180924,,,A*49
$GPVTG,32.18,T,,M,1.596,N,2.955,K,A*05
$GPGGA,174817.00,4505.97239,N,06839.72861,W,1,10,0.83,35.5,M,-29.0,M,,*51
$GPGSA,A,3,18,24,12,15,25,21,23,10,28,32,,,1.39,0.83,1.12*07
$GPGSV,4,1,13,10,66,307,39,12,21,118,33,15,15,085,31,18,11,186,27*75
$GPGSV,4,2,13,21,11,326,33,22,02,023,,23,70,140,37,24,51,060,30*7A
$GPGSV,4,3,13,25,10,153,26,28,10,215,33,32,42,276,33,46,12,248,*7F
$GPGSV,4,4,13,48,15,245,*40
$GPGLL,4505.97239,N,06839.72861,W,174817.00,A,A*7B
$RDENS,4970,4969534,PC
$RDENS,4971,4969612,PC
$GPRMC,174818.00,A,4505.97276,N,06839.72833,W,1.611,29.95,180924,,,A*49
$GPVTG,29.95,T,,M,1.611,N,2.983,K,A*0D
$GPGGA,174818.00,4505.97276,N,06839.72833,W,1,10,0.83,35.6,M,-29.0,M,,*51
$GPGSA,A,3,18,24,12,15,25,21,23,10,28,32,,,1.39,0.83,1.12*07
$GPGSV,4,1,13,10,66,307,38,12,21,118,33,15,15,085,30,18,11,186,26*74
$GPGSV,4,2,13,21,11,326,34,22,02,023,,23,70,140,37,24,51,060,29*75
$GPGSV,4,3,13,25,10,153,24,28,10,215,33,32,42,276,32,46,12,248,*7C
$GPGSV,4,4,13,48,15,245,*40
$GPGLL,4505.97276,N,06839.72833,W,174818.00,A,A*78
$RDENS,4972,4969691,PC
$GPRMC,174819.00,A,4505.97313,N,06839.72806,W,1.564,28.88,180924,,,A*40
$GPVTG,28.88,T,,M,1.564,N,2.896,K,A*04
$GPGGA,174819.00,4505.97313,N,06839.72806,W,1,10,0.83,35.6,M,-29.0,M,,*54
$GPGSA,A,3,18,24,12,15,25,21,23,10,28,32,,,1.39,0.83,1.12*07
$GPGSV,4,1,13,10,66,307,38,12,21,118,34,15,15,085,31,18,11,186,26*72
$GPGSV,4,2,13,21,11,326,34,22,02,023,,23,70,140,37,24,51,060,29*75
$GPGSV,4,3,13,25,10,153,24,28,10,215,33,32,42,276,31,46,12,248,*7F
$GPGSV,4,4,13,48,15,245,*40
$GPGLL,4505.97313,N,06839.72806,W,174819.00,A,A*7D
$RDENS,4973,4969770,PC
$GPRMC,174820.00,A,4505.97351,N,06839.72777,W,1.567,28.14,180924,,,A*43
$GPVTG,28.14,T,,M,1.567,N,2.902,K,A*0E
$GPGGA,174820.00,4505.97351,N,06839.72777,W,1,10,0.83,35.7,M,-29.0,M,,*50
$GPGSA,A,3,18,24,12,15,25,21,23,10,28,32,,,1.39,0.83,1.12*07
$GPGSV,4,1,13,10,66,307,38,12,21,118,33,15,15,085,30,18,11,186,26*74
$GPGSV,4,2,13,21,11,326,33,22,02,023,,23,70,140,36,24,51,060,29*73
$GPGSV,4,3,13,25,10,153,23,28,10,215,33,32,42,276,31,46,12,248,*78
$GPGSV,4,4,13,48,15,245,*40
$GPGLL,4505.97351,N,06839.72777,W,174820.00,A,A*78
$RDENS,4974,4969849,PC
$GPRMC,174821.00,A,4505.97389,N,06839.72750,W,1.591,27.70,180924,,,A*46
$GPVTG,27.70,T,,M,1.591,N,2.947,K,A*0B
$GPGGA,174821.00,4505.97389,N,06839.72750,W,1,10,0.83,35.7,M,-29.0,M,,*51
$GPGSA,A,3,18,24,12,15,25,21,23,10,28,32,,,1.39,0.83,1.12*07
$GPGSV,4,1,13,10,66,307,38,12,21,118,33,15,15,085,31,18,11,186,26*75
$GPGSV,4,2,13,21,11,325,33,22,02,023,,23,70,140,36,24,51,060,29*70
$GPGSV,4,3,13,25,10,153,22,28,10,215,33,32,42,276,32,46,12,248,*7A
$GPGSV,4,4,13,48,15,245,*40
$GPGLL,4505.97389,N,06839.72750,W,174821.00,A,A*79
$RDENS,4975,4969928,PC
$RDENS,4976,4970006,PC
$GPRMC,174822.00,A,4505.97425,N,06839.72724,W,1.507,27.18,180924,,,A*46
$GPVTG,27.18,T,,M,1.507,N,2.791,K,A*0F
$GPGGA,174822.00,4505.97425,N,06839.72724,W,1,10,0.83,35.7,M,-29.0,M,,*50
$GPGSA,A,3,18,24,12,15,25,21,23,10,28,32,,,1.39,0.83,1.12*07
$GPGSV,4,1,13,10,66,307,38,12,21,118,33,15,15,085,31,18,11,186,27*74
$GPGSV,4,2,13,21,11,325,33,22,02,022,,23,70,140,36,24,51,060,29*71
$GPGSV,4,3,13,25,10,153,22,28,10,215,32,32,42,276,32,46,12,248,*7B
$GPGSV,4,4,13,48,15,245,*40
$GPGLL,4505.97425,N,06839.72724,W,174822.00,A,A*78
$RDENS,4977,4970085,PC
$GPRMC,174823.00,A,4505.97463,N,06839.72695,W,1.559,26.34,180924,,,A*4A
$GPVTG,26.34,T,,M,1.559,N,2.887,K,A*03
$GPGGA,174823.00,4505.97463,N,06839.72695,W,1,10,0.83,35.8,M,-29.0,M,,*57
$GPGSA,A,3,18,24,12,15,25,21,23,10,28,32,,,1.39,0.83,1.12*07
$GPGSV,4,1,13,10,66,307,38,12,21,118,33,15,15,085,30,18,11,186,27*75
$GPGSV,4,2,13,21,11,325,32,22,02,022,,23,70,140,36,24,51,060,29*70
$GPGSV,4,3,13,25,10,153,22,28,10,215,32,32,42,276,31,46,12,248,*78
$GPGSV,4,4,13,48,15,245,*40
$GPGLL,4505.97463,N,06839.72695,W,174823.00,A,A*70
$RDENS,4978,4970164,PC
$GPRMC,174824.00,A,4505.97500,N,06839.72672,W,1.543,24.87,180924,,,A*41
$GPVTG,24.87,T,,M,1.543,N,2.857,K,A*0F
$GPGGA,174824.00,4505.97500,N,06839.72672,W,1,10,0.83,35.8,M,-29.0,M,,*5D
$GPGSA,A,3,18,24,12,15,25,21,23,10,28,32,,,1.39,0.83,1.12*07
$GPGSV,4,1,13,10,66,307,38,12,21,118,34,15,15,085,29,18,11,186,27*7A
$GPGSV,4,2,13,21,11,325,32,22,02,022,,23,70,140,36,24,50,060,28*70
$GPGSV,4,3,13,25,10,153,22,28,10,215,31,32,42,276,29,46,12,248,*72
$GPGSV,4,4,13,48,15,245,*40
$GPGLL,4505.97500,N,06839.72672,W,174824.00,A,A*7A
$RDENS,4979,4970243,PC
$RDENS,4980,4970322,PC
$GPRMC,174825.00,A,4505.97538,N,06839.72650,W,1.524,23.30,180924,,,A*41
$GPVTG,23.30,T,,M,1.524,N,2.823,K,A*06
$GPGGA,174825.00,4505.97538,N,06839.72650,W,1,10,0.83,35.9,M,-29.0,M,,*56
$GPGSA,A,3,18,24,12,15,25,21,23,10,28,32,,,1.39,0.83,1.12*07
$GPGSV,4,1,13,10,66,307,39,12,21,118,35,15,15,085,31,18,11,186,27*73
$GPGSV,4,2,13,21,11,325,32,22,02,022,,23,70,140,36,24,50,060,28*70
$GPGSV,4,3,13,25,11,153,23,28,10,215,31,32,42,276,27,46,12,248,*7C
$GPGSV,4,4,13,48,15,245,*40
$GPGLL,4505.97538,N,06839.72650,W,174825.00,A,A*70
$RDENS,4981,4970400,PC
$GPRMC,174826.00,A,4505.97576,N,06839.72629,W,1.575,22.01,180924,,,A*41
$GPVTG,22.01,T,,M,1.575,N,2.917,K,A*07
$GPGGA,174826.00,4505.97576,N,06839.72629,W,1,10,0.83,35.8,M,-29.0,M,,*50
$GPGSA,A,3,18,24,12,15,25,21,23,10,28,32,,,1.39,0.83,1.12*07
$GPGSV,4,1,13,10,66,307,39,12,21,118,35,15,15,085,31,18,11,186,27*73
$GPGSV,4,2,13,21,11,325,33,22,02,022,,23,70,140,36,24,50,060,27*7E
$GPGSV,4,3,13,25,11,153,25,28,10,215,31,32,42,276,26,46,12,248,*7B
$GPGSV,4,4,13,48,15,245,*40
$GPGLL,4505.97576,N,06839.72629,W,174826.00,A,A*77
$RDENS,4982,4970480,PC
$GPRMC,174827.00,A,4505.97617,N,06839.72609,W,1.501,20.11,180924,,,A*46
$GPVTG,20.11,T,,M,1.501,N,2.779,K,A*01
$GPGGA,174827.00,4505.97617,N,06839.72609,W,1,10,0.83,35.9,M,-29.0,M,,*56
$GPGSA,A,3,18,24,12,15,25,21,23,10,28,32,,,1.39,0.83,1.12*07
$GPGSV,4,1,13,10,66,307,39,12,21,118,35,15,15,085,31,18,11,186,26*72
$GPGSV,4,2,13,21,11,325,33,22,02,022,,23,70,140,36,24,50,060,28*71
$GPGSV,4,3,13,25,11,153,26,28,10,215,31,32,42,276,26,46,12,248,*78
$GPGSV,4,4,13,48,15,245,*40
$GPGLL,4505.97617,N,06839.72609,W,174827.00,A,A*70
$RDENS,4983,4970558,PC
$GPRMC,174828.00,A,4505.97656,N,06839.72593,W,1.519,17.54,180924,,,A*40
$GPVTG,17.54,T,,M,1.519,N,2.814,K,A*09
$GPGGA,174828.00,4505.97656,N,06839.72593,W,1,10,0.83,35.9,M,-29.0,M,,*5C
$GPGSA,A,3,18,24,12,15,25,21,23,10,28,32,,,1.39,0.83,1.12*07
$GPGSV,4,1,13,10,66,307,39,12,21,118,35,15,15,085,30,18,11,186,26*73
$GPGSV,4,2,13,21,11,325,33,22,02,022,,23,70,140,36,24,50,060,29*70
$GPGSV,4,3,13,25,11,153,28,28,10,215,30,32,42,276,25,46,12,248,*74
$GPGSV,4,4,13,48,15,245,*40
$GPGLL,4505.97656,N,06839.72593,W,174828.00,A,A*7A
$RDENS,4984,4970636,PC
$RDENS,4985,4970715,PC
$GPRMC,174829.00,A,4505.97697,N,06839.72576,W,1.520,17.03,180924,,,A*4F
$GPVTG,17.03,T,,M,1.520,N,2.815,K,A*00
$GPGGA,174829.00,4505.97697,N,06839.72576,W,1,10,0.83,36.0,M,-29.0,M,,*51
$GPGSA,A,3,18,24,12,15,25,21,23,10,28,32,,,1.39,0.83,1.12*07
$GPGSV,4,1,13,10,66,307,40,12,21,118,35,15,15,085,29,18,11,186,26*75
$GPGSV,4,2,13,21,11,325,33,22,02,022,,23,70,140,37,24,50,060,29*71
$GPGSV,4,3,13,25,11,153,28,28,10,215,31,32,42,276,26,46,12,248,*76
$GPGSV,4,4,13,48,15,245,*40
$GPGLL,4505.97697,N,06839.72576,W,174829.00,A,A*7D
$RDENS,4986,4970794,PC
$GPRMC,174830.00,A,4505.97737,N,06839.72559,W,1.515,16.22,180924,,,A*45
$GPVTG,16.22,T,,M,1.515,N,2.806,K,A*06
$GPGGA,174830.00,4505.97737,N,06839.72559,W,1,10,0.83,36.0,M,-29.0,M,,*5F
$GPGSA,A,3,18,24,12,15,25,21,23,10,28,32,,,1.39,0.83,1.12*07
$GPGSV,4,1,13,10,66,307,40,12,21,118,35,15,15,085,29,18,11,186,26*75
$GPGSV,4,2,13,21,11,325,33,22,02,022,,23,70,140,36,24,50,060,30*78
$GPGSV,4,3,13,25,11,153,28,28,10,215,31,32,42,276,26,46,12,248,*76
$GPGSV,4,4,13,48,15,245,*40
$GPGLL,4505.97737,N,06839.72559,W,174830.00,A,A*73
$RDENS,4987,4970872,PC
$GPRMC,174831.00,A,4505.97776,N,06839.72544,W,1.505,15.30,180924,,,A*4C
$GPVTG,15.30,T,,M,1.505,N,2.787,K,A*01
$GPGGA,174831.00,4505.97776,N,06839.72544,W,1,10,0.83,36.0,M,-29.0,M,,*57
$GPGSA,A,3,18,24,12,15,25,21,23,10,28,32,,,1.39,0.83,1.12*07
$GPGSV,4,1,13,10,66,307,39,12,21,118,35,15,15,085,30,18,11,186,26*73
$GPGSV,4,2,13,21,11,325,33,22,02,022,,23,70,140,36,24,50,060,30*78
$GPGSV,4,3,13,25,11,153,28,28,10,215,31,32,42,276,27,46,12,248,*77
$GPGSV,4,4,13,48,15,245,*40
$GPGLL,4505.97776,N,06839.72544,W,174831.00,A,A*7B
$RDENS,4988,4970951,PC
$GPRMC,174832.00,A,4505.97815,N,06839.72529,W,1.455,15.13,180924,,,A*4B
$GPVTG,15.13,T,,M,1.455,N,2.695,K,A*06
$GPGGA,174832.00,4505.97815,N,06839.72529,W,1,10,0.83,36.0,M,-29.0,M,,*55
$GPGSA,A,3,18,24,12,15,25,21,23,10,28,32,,,1.39,0.83,1.12*07
$GPGSV,4,1,13,10,66,307,39,12,21,118,35,15,15,085,30,18,11,186,27*72
$GPGSV,4,2,13,21,11,325,33,22,02,022,,23,70,140,37,24,50,060,30*79
$GPGSV,4,3,13,25,11,153,28,28,10,215,31,32,42,276,26,46,12,248,*76
$GPGSV,4,4,13,48,15,245,*40
$GPGLL,4505.97815,N,06839.72529,W,174832.00,A,A*79
$RDENS,4989,4971029,PC
$RDENS,4990,4971108,PC
$GPRMC,174833.00,A,4505.97853,N,06839.72515,W,1.459,14.50,180924,,,A*4D
$GPVTG,14.50,T,,M,1.459,N,2.701,K,A*00
$GPGGA,174833.00,4505.97853,N,06839.72515,W,1,10,0.83,35.9,M,-29.0,M,,*53
