$GPRMC,172850.00,A,4505.96069,N,06839.80224,W,1.141,51.08,180924,,,A*46
$GPVTG,51.08,T,,M,1.141,N,2.114,K,A*02
$GPGGA,172850.00,4505.96069,N,06839.80224,W,1,07,1.34,38.3,M,-29.0,M,,*54
$GPGSA,A,3,18,24,12,15,23,10,32,,,,,,2.32,1.34,1.90*06
$GPGSV,3,1,12,10,57,309,41,12,15,124,36,15,22,080,30,18,19,188,30*7D
$GPGSV,3,2,12,21,05,330,24,22,05,028,09,23,80,128,34,24,58,068,34*7A
$GPGSV,3,3,12,25,04,157,23,28,02,213,,32,35,269,32,46,12,248,*77
$GPGLL,4505.96069,N,06839.80224,W,172850.00,A,A*7E
$GPRMC,172851.00,A,4505.96090,N,06839.80194,W,1.178,46.45,180924,,,A*4C
$GPVTG,46.45,T,,M,1.178,N,2.181,K,A*0B
$GPGGA,172851.00,4505.96090,N,06839.80194,W,1,07,1.34,38.2,M,-29.0,M,,*5A
$GPGSA,A,3,18,24,12,15,23,10,32,,,,,,2.32,1.34,1.90*06
$GPGSV,3,1,12,10,57,309,41,12,15,124,36,15,22,080,31,18,19,188,32*7E
$GPGSV,3,2,12,21,05,330,23,22,05,028,08,23,80,128,34,24,58,068,33*7B
$GPGSV,3,3,12,25,04,157,18,28,02,213,,32,35,269,32,46,12,248,*7F
$GPGLL,4505.96090,N,06839.80194,W,172851.00,A,A*71
$RDENS,3489,4852962,PC
$GPRMC,172852.00,A,4505.96113,N,06839.80165,W,1.229,42.49,180924,,,A*44
$GPVTG,42.49,T,,M,1.229,N,2.277,K,A*0E
$GPGGA,172852.00,4505.96113,N,06839.80165,W,1,07,1.34,38.2,M,-29.0,M,,*5D
$GPGSA,A,3,18,24,12,15,23,10,32,,,,,,2.32,1.34,1.90*06
$GPGSV,3,1,12,10,57,309,40,12,15,124,35,15,22,080,31,18,19,188,31*7F
$GPGSV,3,2,12,21,05,330,20,22,05,028,08,23,80,128,33,24,58,068,31*7D
$GPGSV,3,3,12,25,04,157,16,28,02,213,,32,35,269,33,46,12,248,*70
$GPGLL,4505.96113,N,06839.80165,W,172852.00,A,A*76
$RDENS,3490,4853041,PC
$RDENS,3491,4853119,PC
$GPRMC,172853.00,A,4505.96138,N,06839.80137,W,1.239,39.48,180924,,,A*47
$GPVTG,39.48,T,,M,1.239,N,2.295,K,A*0E
$GPGGA,172853.00,4505.96138,N,06839.80137,W,1,07,1.34,38.2,M,-29.0,M,,*52
$GPGSA,A,3,18,24,12,15,23,10,32,,,,,,2.32,1.34,1.90*06
$GPGSV,3,1,12,10,57,309,40,12,15,124,35,15,22,080,30,18,19,188,31*7E
$GPGSV,3,2,12,21,05,330,17,22,05,028,08,23,80,128,33,24,58,068,30*78
$GPGSV,3,3,12,25,04,157,17,28,02,213,,32,35,269,34,46,12,248,*76
$GPGLL,4505.96138,N,06839.80137,W,172853.00,A,A*79
$RDENS,3492,4853198,PC
$GPRMC,172854.00,A,4505.96167,N,06839.80111,W,1.292,35.45,180924,,,A*4E
$GPVTG,35.45,T,,M,1.292,N,2.393,K,A*09
$GPGGA,172854.00,4505.96167,N,06839.80111,W,1,07,1.34,38.1,M,-29.0,M,,*58
$GPGSA,A,3,18,24,12,15,23,10,32,,,,,,2.32,1.34,1.90*06
$GPGSV,3,1,12,10,57,309,40,12,15,124,36,15,22,080,30,18,19,188,32*7E
$GPGSV,3,2,12,21,05,330,15,22,05,028,08,23,80,128,34,24,58,068,29*75
$GPGSV,3,3,12,25,04,157,18,28,02,213,,32,35,269,36,46,12,248,*7B
$GPGLL,4505.96167,N,06839.80111,W,172854.00,A,A*70
$RDENS,3493,4853277,PC
$GPRMC,172855.00,A,4505.96194,N,06839.80084,W,1.305,33.05,180924,,,A*43
$GPVTG,33.05,T,,M,1.305,N,2.417,K,A*0F
$GPGGA,172855.00,4505.96194,N,06839.80084,W,1,07,1.34,38.1,M,-29.0,M,,*58
$GPGSA,A,3,18,24,12,15,23,10,32,,,,,,2.32,1.34,1.90*06
$GPGSV,3,1,12,10,57,309,40,12,15,124,36,15,22,080,32,18,19,188,30*7E
$GPGSV,3,2,12,21,05,330,13,22,05,028,08,23,80,128,35,24,58,068,27*7C
$GPGSV,3,3,12,25,04,157,20,28,02,213,,32,35,269,37,46,12,248,*71
$GPGLL,4505.96194,N,06839.80084,W,172855.00,A,A*70
$RDENS,3494,4853356,PC
$GPRMC,172856.00,A,4505.96225,N,06839.80059,W,1.299,31.06,180924,,,A*4C
$GPVTG,31.06,T,,M,1.299,N,2.405,K,A*09
$GPGGA,172856.00,4505.96225,N,06839.80059,W,1,08,0.96,38.0,M,-29.0,M,,*55
$GPGSA,A,3,18,24,12,22,15,23,10,32,,,,,1.58,0.96,1.25*0E
$GPGSV,3,1,12,10,57,309,40,12,15,124,37,15,22,080,34,18,19,188,32*7B
$GPGSV,3,2,12,21,05,330,13,22,05,028,11,23,80,128,35,24,58,068,25*76
$GPGSV,3,3,12,25,04,157,23,28,02,213,,32,35,269,37,46,12,248,*72
$GPGLL,4505.96225,N,06839.80059,W,172856.00,A,A*7A
$RDENS,3495,4853434,PC
$RDENS,3496,4853513,PC
$GPRMC,172857.00,A,4505.96257,N,06839.80037,W,1.304,28.80,180924,,,A*43
$GPVTG,28.80,T,,M,1.304,N,2.415,K,A*0B
$GPGGA,172857.00,4505.96257,N,06839.80037,W,1,08,0.96,37.8,M,-29.0,M,,*5E
$GPGSA,A,3,18,24,12,22,15,23,10,32,,,,,1.58,0.96,1.25*0E
$GPGSV,3,1,12,10,57,309,41,12,15,124,36,15,22,080,35,18,19,188,32*7A
$GPGSV,3,2,12,21,05,330,14,22,05,028,11,23,80,128,35,24,58,068,24*70
$GPGSV,3,3,12,25,04,157,24,28,02,213,,32,35,269,36,46,12,248,*74
$GPGLL,4505.96257,N,06839.80037,W,172857.00,A,A*76
$RDENS,3497,4853591,PC
$GPRMC,172858.00,A,4505.96287,N,06839.80014,W,1.228,27.95,180924,,,A*44
$GPVTG,27.95,T,,M,1.228,N,2.274,K,A*0E
$GPGGA,172858.00,4505.96287,N,06839.80014,W,1,08,0.96,37.8,M,-29.0,M,,*5D
$GPGSA,A,3,18,24,12,22,15,23,10,32,,,,,1.58,0.96,1.25*0E
$GPGSV,3,1,12,10,57,309,41,12,15,124,36,15,22,080,35,18,19,188,31*79
$GPGSV,3,2,12,21,05,330,14,22,05,028,11,23,80,128,35,24,58,068,24*70
$GPGSV,3,3,12,25,04,157,25,28,02,213,,32,35,269,36,46,12,248,*75
$GPGLL,4505.96287,N,06839.80014,W,172858.00,A,A*75
$RDENS,3498,4853670,PC
$GPRMC,172859.00,A,4505.96317,N,06839.79993,W,1.225,26.15,180924,,,A*49
$GPVTG,26.15,T,,M,1.225,N,2.268,K,A*07
$GPGGA,172859.00,4505.96317,N,06839.79993,W,1,07,1.34,37.8,M,-29.0,M,,*52
$GPGSA,A,3,18,24,12,15,23,10,32,,,,,,2.32,1.34,1.90*06
$GPGSV,3,1,12,10,57,309,41,12,15,124,35,15,22,080,36,18,19,188,32*7A
$GPGSV,3,2,12,21,05,330,14,22,05,028,,23,80,128,35,24,58,068,24*70
$GPGSV,3,3,12,25,04,157,26,28,02,213,,32,35,269,36,46,12,248,*76
$GPGLL,4505.96317,N,06839.79993,W,172859.00,A,A*7C
$RDENS,3499,4853749,PC
$GPRMC,172900.00,A,4505.96349,N,06839.79972,W,1.182,25.26,180924,,,A*4D
$GPVTG,25.26,T,,M,1.182,N,2.190,K,A*0E
$GPGGA,172900.00,4505.96349,N,06839.79972,W,1,07,1.34,37.8,M,-29.0,M,,*5B
$GPGSA,A,3,18,24,12,15,23,10,32,,,,,,2.32,1.34,1.90*06
$GPGSV,3,1,12,10,57,309,40,12,15,124,34,15,22,080,37,18,19,188,31*78
$GPGSV,3,2,12,21,05,330,14,22,05,028,,23,80,128,36,24,58,068,25*72
$GPGSV,3,3,12,25,04,157,27,28,02,213,,32,35,269,37,46,12,248,*76
$GPGLL,4505.96349,N,06839.79972,W,172900.00,A,A*75
$RDENS,3500,4853828,PC
$RDENS,3501,4853906,PC
$GPRMC,172901.00,A,4505.96376,N,06839.79954,W,1.033,25.43,180924,,,A*4C
$GPVTG,25.43,T,,M,1.033,N,1.912,K,A*07
$GPGGA,172901.00,4505.96376,N,06839.79954,W,1,07,1.34,37.8,M,-29.0,M,,*52
$GPGSA,A,3,18,24,12,15,23,10,32,,,,,,2.32,1.34,1.90*06
$GPGSV,3,1,12,10,57,309,40,12,15,124,34,15,22,080,37,18,19,188,30*79
$GPGSV,3,2,12,21,05,330,14,22,05,028,15,23,80,128,36,24,58,068,26*75
$GPGSV,3,3,12,25,04,157,27,28,02,213,,32,35,269,37,46,12,248,*76
$GPGLL,4505.96376,N,06839.79954,W,172901.00,A,A*7C
$RDENS,3502,4853985,PC
$GPRMC,172902.00,A,4505.96401,N,06839.79937,W,1.004,25.25,180924,,,A*49
$GPVTG,25.25,T,,M,1.004,N,1.860,K,A*07
$GPGGA,172902.00,4505.96401,N,06839.79937,W,1,07,1.34,37.8,M,-29.0,M,,*53
$GPGSA,A,3,18,24,12,15,23,10,32,,,,,,2.32,1.34,1.90*06
$GPGSV,3,1,12,10,57,309,39,12,15,124,34,15,22,080,35,18,19,188,29*7D
$GPGSV,3,2,12,21,05,330,15,22,05,028,18,23,80,128,35,24,58,068,25*79
$GPGSV,3,3,12,25,04,157,26,28,02,213,,32,35,269,38,46,12,248,*78
$GPGLL,4505.96401,N,06839.79937,W,172902.00,A,A*7D
$RDENS,3503,4854063,PC
$GPRMC,172903.00,A,4505.96425,N,06839.79922,W,0.825,26.27,180924,,,A*41
$GPVTG,26.27,T,,M,0.825,N,1.527,K,A*02
$GPGGA,172903.00,4505.96425,N,06839.79922,W,1,07,1.34,37.8,M,-29.0,M,,*50
$GPGSA,A,3,18,24,12,15,23,10,32,,,,,,2.32,1.34,1.90*06
$GPGSV,3,1,12,10,57,309,40,12,15,124,35,15,22,080,35,18,19,188,30*7A
$GPGSV,3,2,12,21,05,330,17,22,05,028,20,23,80,128,34,24,58,068,25*71
$GPGSV,3,3,12,25,04,157,26,28,02,213,,32,35,269,37,46,12,248,*77
$GPGLL,4505.96425,N,06839.79922,W,172903.00,A,A*7E
$RDENS,3504,4854143,PC
$RDENS,3505,4854221,PC
$GPRMC,172904.00,A,4505.96446,N,06839.79905,W,0.853,25.78,180924,,,A*4E
$GPVTG,25.78,T,,M,0.853,N,1.579,K,A*01
$GPGGA,172904.00,4505.96446,N,06839.79905,W,1,08,0.96,37.9,M,-29.0,M,,*50
$GPGSA,A,3,18,24,12,22,15,23,10,32,,,,,1.58,0.96,1.25*0E
$GPGSV,3,1,12,10,57,309,40,12,15,124,35,15,22,080,35,18,19,188,31*7B
$GPGSV,3,2,12,21,05,330,18,22,05,028,21,23,80,128,34,24,58,068,32*79
$GPGSV,3,3,12,25,04,157,25,28,02,213,,32,35,269,37,46,12,248,*74
$GPGLL,4505.96446,N,06839.79905,W,172904.00,A,A*79
$RDENS,3506,4854300,PC
$GPRMC,172905.00,A,4505.96468,N,06839.79889,W,0.891,23.36,180924,,,A*44
$GPVTG,23.36,T,,M,0.891,N,1.650,K,A*0B
$GPGGA,172905.00,4505.96468,N,06839.79889,W,1,08,0.96,37.9,M,-29.0,M,,*58
$GPGSA,A,3,18,24,12,22,15,23,10,32,,,,,1.58,0.96,1.25*0E
$GPGSV,3,1,12,10,57,309,38,12,15,124,35,15,22,080,35,18,19,188,32*77
$GPGSV,3,2,12,21,05,330,17,22,05,028,20,23,80,128,34,24,58,068,32*77
$GPGSV,3,3,12,25,04,157,23,28,02,213,,32,35,269,37,46,12,248,27*77
$GPGLL,4505.96468,N,06839.79889,W,172905.00,A,A*71
$RDENS,3507,4854379,PC
$GPRMC,172906.00,A,4505.96490,N,06839.79876,W,0.767,21.34,180924,,,A*46
$GPVTG,21.34,T,,M,0.767,N,1.421,K,A*09
$GPGGA,172906.00,4505.96490,N,06839.79876,W,1,08,0.96,37.9,M,-29.0,M,,*5C
$GPGSA,A,3,18,24,12,22,15,23,10,32,,,,,1.58,0.96,1.25*0E
$GPGSV,3,1,12,10,57,309,38,12,15,124,36,15,22,080,38,18,19,188,24*7E
$GPGSV,3,2,12,21,05,330,17,22,05,028,19,23,80,128,32,24,58,068,32*7B
$GPGSV,3,3,12,25,04,157,20,28,02,213,,32,35,269,33,46,12,248,27*70
$GPGLL,4505.96490,N,06839.79876,W,172906.00,A,A*75
$RDENS,3508,4854458,PC
$GPRMC,172907.00,A,4505.96510,N,06839.79865,W,0.711,20.23,180924,,,A*4A
$GPVTG,20.23,T,,M,0.711,N,1.316,K,A*0C
$GPGGA,172907.00,4505.96510,N,06839.79865,W,1,08,0.96,37.8,M,-29.0,M,,*57
$GPGSA,A,3,18,24,12,22,15,23,10,32,,,,,1.58,0.96,1.25*0E
$GPGSV,3,1,12,10,57,309,38,12,15,124,36,15,22,080,39,18,19,188,30*7A
$GPGSV,3,2,12,21,05,330,17,22,05,028,17,23,80,128,31,24,58,068,31*75
$GPGSV,3,3,12,25,04,157,18,28,02,213,,32,35,269,33,46,12,248,28*74
$GPGLL,4505.96510,N,06839.79865,W,172907.00,A,A*7F
$RDENS,3509,4854536,PC
$RDENS,3510,4854615,PC
$GPRMC,172908.00,A,4505.96528,N,06839.79855,W,0.714,17.14,180924,,,A*48
$GPVTG,17.14,T,,M,0.714,N,1.321,K,A*0D
$GPGGA,172908.00,4505.96528,N,06839.79855,W,1,08,0.96,37.8,M,-29.0,M,,*50
$GPGSA,A,3,18,24,12,22,15,23,10,32,,,,,1.58,0.96,1.25*0E
$GPGSV,3,1,12,10,57,309,37,12,15,124,36,15,22,080,38,18,19,188,30*74
$GPGSV,3,2,12,21,05,330,17,22,05,028,15,23,80,128,31,24,58,068,32*74
$GPGSV,3,3,12,25,04,157,16,28,02,213,,32,35,269,37,46,12,248,28*7E
$GPGLL,4505.96528,N,06839.79855,W,172908.00,A,A*78
$RDENS,3511,4854694,PC
$GPRMC,172909.00,A,4505.96550,N,06839.79845,W,0.739,15.73,180924,,,A*4B
$GPVTG,15.73,T,,M,0.739,N,1.369,K,A*0D
$GPGGA,172909.00,4505.96550,N,06839.79845,W,1,08,0.96,37.7,M,-29.0,M,,*50
$GPGSA,A,3,18,24,12,22,15,23,10,32,,,,,1.58,0.96,1.25*0E
$GPGSV,3,1,12,10,57,309,36,12,15,124,36,15,22,080,38,18,19,188,31*74
$GPGSV,3,2,12,21,05,330,17,22,05,028,13,23,80,128,30,24,58,068,27*77
$GPGSV,3,3,12,25,04,157,16,28,02,213,,32,35,269,38,46,12,248,27*7E
$GPGLL,4505.96550,N,06839.79845,W,172909.00,A,A*77
$RDENS,3512,4854772,PC
$GPRMC,172910.00,A,4505.96574,N,06839.79837,W,0.807,12.12,180924,,,A*42
$GPVTG,12.12,T,,M,0.807,N,1.494,K,A*0A
$GPGGA,172910.00,4505.96574,N,06839.79837,W,1,08,0.96,37.7,M,-29.0,M,,*5B
$GPGSA,A,3,18,24,12,22,15,23,10,32,,,,,1.58,0.96,1.25*0E
$GPGSV,3,1,12,10,57,309,35,12,15,124,36,15,22,080,38,18,19,188,31*77
$GPGSV,3,2,12,21,05,330,16,22,05,028,11,23,80,128,29,24,58,068,25*7E
$GPGSV,3,3,12,25,04,157,17,28,02,213,,32,35,269,37,46,12,248,*75
$GPGLL,4505.96574,N,06839.79837,W,172910.00,A,A*7C
$RDENS,3513,4854851,PC
$GPRMC,172911.00,A,4505.96596,N,06839.79832,W,0.763,8.35,180924,,,A*79
$GPVTG,8.35,T,,M,0.763,N,1.413,K,A*36
$GPGGA,172911.00,4505.96596,N,06839.79832,W,1,07,1.34,37.6,M,-29.0,M,,*54
$GPGSA,A,3,18,24,12,15,23,10,32,,,,,,2.32,1.34,1.90*06
$GPGSV,3,1,12,10,57,309,35,12,15,124,36,15,22,080,38,18,19,188,30*76
$GPGSV,3,2,12,21,05,330,15,22,05,028,10,23,80,128,31,24,58,068,25*75
$GPGSV,3,3,12,25,04,157,19,28,02,213,,32,35,269,37,46,12,248,*7B
$GPGLL,4505.96596,N,06839.79832,W,172911.00,A,A*74
$RDENS,3514,4854930,PC
$RDENS,3515,4855008,PC
$GPRMC,172912.00,A,4505.96622,N,06839.79826,W,0.928,7.32,180924,,,A*7A
$GPVTG,7.32,T,,M,0.928,N,1.719,K,A*36
$GPGGA,172912.00,4505.96622,N,06839.79826,W,1,07,1.34,37.5,M,-29.0,M,,*5D
$GPGSA,A,3,18,24,12,15,23,10,32,,,,,,2.32,1.34,1.90*06
$GPGSV,3,1,12,10,57,309,32,12,15,124,37,15,22,080,38,18,19,188,32*72
$GPGSV,3,2,12,21,05,330,14,22,05,028,11,23,80,128,32,24,58,068,30*72
$GPGSV,3,3,12,25,04,157,19,28,02,213,,32,35,269,38,46,12,248,*74
$GPGLL,4505.96622,N,06839.79826,W,172912.00,A,A*7E
$RDENS,3516,4855087,PC
$GPRMC,172913.00,A,4505.96653,N,06839.79817,W,1.069,7.76,180924,,,A*72
$GPVTG,7.76,T,,M,1.069,N,1.980,K,A*35
$GPGGA,172913.00,4505.96653,N,06839.79817,W,1,08,0.96,37.5,M,-29.0,M,,*5E
$GPGSA,A,3,18,24,12,22,15,23,10,32,,,,,1.58,0.96,1.25*0E
$GPGSV,3,1,12,10,57,309,38,12,15,124,34,15,22,080,38,18,19,188,31*78
$GPGSV,3,2,12,21,05,330,15,22,05,028,15,23,80,128,31,24,58,068,29*7C
$GPGSV,3,3,12,25,04,157,18,28,02,213,,32,35,269,38,46,12,248,*75
$GPGLL,4505.96653,N,06839.79817,W,172913.00,A,A*7B
$RDENS,3517,4855166,PC
$GPRMC,172914.00,A,4505.96688,N,06839.79808,W,1.101,8.62,180924,,,A*78
$GPVTG,8.62,T,,M,1.101,N,2.039,K,A*38
$GPGGA,172914.00,4505.96688,N,06839.79808,W,1,08,0.96,37.4,M,-29.0,M,,*50
$GPGSA,A,3,18,24,12,22,15,23,10,32,,,,,1.58,0.96,1.25*0E
$GPGSV,3,1,12,10,57,309,38,12,15,124,32,15,22,080,40,18,19,188,29*78
$GPGSV,3,2,12,21,05,330,16,22,05,028,21,23,80,128,29,24,58,068,20*78
$GPGSV,3,3,12,25,04,157,16,28,02,213,,32,35,269,39,46,12,248,*7A
$GPGLL,4505.96688,N,06839.79808,W,172914.00,A,A*74
$RDENS,3518,4855244,PC
$GPRMC,172915.00,A,4505.96723,N,06839.79800,W,1.139,9.31,180924,,,A*7D
$GPVTG,9.31,T,,M,1.139,N,2.109,K,A*36
$GPGGA,172915.00,4505.96723,N,06839.79800,W,1,08,0.96,37.3,M,-29.0,M,,*5E
$GPGSA,A,3,18,24,12,22,15,23,10,32,,,,,1.58,0.96,1.25*0E
$GPGSV,3,1,12,10,57,309,39,12,15,124,32,15,22,080,40,18,19,188,27*77
$GPGSV,3,2,12,21,05,330,14,22,05,028,22,23,80,128,22,24,58,068,24*76
$GPGSV,3,3,12,25,04,157,16,28,02,213,,32,35,269,40,46,12,248,*74
$GPGLL,4505.96723,N,06839.79800,W,172915.00,A,A*7D
$RDENS,3519,4855323,PC
$RDENS,3520,4855402,PC
$GPRMC,172916.00,A,4505.96759,N,06839.79795,W,1.215,9.49,180924,,,A*72
$GPVTG,9.49,T,,M,1.215,N,2.251,K,A*3A
$GPGGA,172916.00,4505.96759,N,06839.79795,W,1,08,0.96,37.3,M,-29.0,M,,*53
$GPGSA,A,3,18,24,12,22,15,23,10,32,,,,,1.58,0.96,1.25*0E
$GPGSV,3,1,12,10,57,309,40,12,15,124,34,15,22,080,38,18,19,188,26*71
$GPGSV,3,2,12,21,05,330,14,22,05,028,22,23,80,128,25,24,58,068,24*71
$GPGSV,3,3,12,25,04,157,19,28,02,213,,32,35,269,41,46,12,248,*7A
$GPGLL,4505.96759,N,06839.79795,W,172916.00,A,A*70
$RDENS,3521,4855481,PC
$GPRMC,172917.00,A,4505.96795,N,06839.79789,W,1.293,9.21,180924,,,A*7E
$GPVTG,9.21,T,,M,1.293,N,2.395,K,A*33
$GPGGA,172917.00,4505.96795,N,06839.79789,W,1,08,0.96,37.2,M,-29.0,M,,*5E
$GPGSA,A,3,18,24,12,22,15,23,10,32,,,,,1.58,0.96,1.25*0E
$GPGSV,3,1,12,10,57,309,39,12,15,124,33,15,22,080,35,18,19,188,26*75
$GPGSV,3,2,12,21,05,330,12,22,05,028,22,23,80,128,27,24,58,068,26*77
$GPGSV,3,3,12,25,04,157,21,28,02,213,,32,35,269,40,46,12,248,*70
$GPGLL,4505.96795,N,06839.79789,W,172917.00,A,A*7C
$RDENS,3522,4855560,PC
$GPRMC,172918.00,A,4505.96834,N,06839.79781,W,1.355,9.12,180924,,,A*76
$GPVTG,9.12,T,,M,1.355,N,2.509,K,A*3B
$GPGGA,172918.00,4505.96834,N,06839.79781,W,1,08,0.96,37.3,M,-29.0,M,,*5C
$GPGSA,A,3,18,24,12,22,15,23,10,32,,,,,1.58,0.96,1.25*0E
$GPGSV,3,1,12,10,57,309,40,12,15,124,33,15,22,080,34,18,19,188,30*7D
$GPGSV,3,2,12,21,05,330,,22,05,028,22,23,80,128,27,24,58,068,31*72
$GPGSV,3,3,12,25,04,157,21,28,02,213,,32,35,269,40,46,12,248,*70
$GPGLL,4505.96834,N,06839.79781,W,172918.00,A,A*7F
$RDENS,3523,4855638,PC
$RDENS,3524,4855716,PC
$GPRMC,172919.00,A,4505.96870,N,06839.79776,W,1.358,8.03,180924,,,A*73
$GPVTG,8.03,T,,M,1.358,N,2.514,K,A*3B
$GPGGA,172919.00,4505.96870,N,06839.79776,W,1,08,0.96,37.4,M,-29.0,M,,*52
$GPGSA,A,3,18,24,12,22,15,23,10,32,,,,,1.58,0.96,1.25*0E
$GPGSV,3,1,12,10,57,309,40,12,15,124,34,15,22,080,33,18,19,188,30*7D
$GPGSV,3,2,12,21,05,330,,22,05,028,22,23,80,128,26,24,58,068,33*71
$GPGSV,3,3,12,25,04,157,19,28,02,213,,32,35,269,40,46,12,248,*7B
$GPGLL,4505.96870,N,06839.79776,W,172919.00,A,A*76
$RDENS,3525,4855795,PC
$GPRMC,172920.00,A,4505.96905,N,06839.79769,W,1.323,6.64,180924,,,A*77
$GPVTG,6.64,T,,M,1.323,N,2.449,K,A*31
$GPGGA,172920.00,4505.96905,N,06839.79769,W,1,08,0.96,37.5,M,-29.0,M,,*54
$GPGSA,A,3,18,24,12,22,15,23,10,32,,,,,1.58,0.96,1.25*0E
$GPGSV,3,1,12,10,57,309,39,12,15,124,34,15,21,080,32,18,19,188,29*79
$GPGSV,3,2,12,21,05,330,,22,05,028,21,23,80,128,27,24,58,068,34*74
$GPGSV,3,3,12,25,04,157,16,28,02,213,,32,35,269,39,46,12,248,*7A
$GPGLL,4505.96905,N,06839.79769,W,172920.00,A,A*71
$RDENS,3526,4855874,PC
$GPRMC,172921.00,A,4505.96946,N,06839.79763,W,1.419,4.97,180924,,,A*7B
$GPVTG,4.97,T,,M,1.419,N,2.629,K,A*35
$GPGGA,172921.00,4505.96946,N,06839.79763,W,1,08,0.96,37.6,M,-29.0,M,,*5B
$GPGSA,A,3,18,24,12,22,15,23,10,32,,,,,1.58,0.96,1.25*0E
$GPGSV,3,1,12,10,57,309,39,12,15,124,35,15,21,080,32,18,19,188,28*79
$GPGSV,3,2,12,21,05,330,,22,05,028,19,23,80,128,26,24,58,068,35*7F
$GPGSV,3,3,12,25,04,157,15,28,02,213,,32,35,269,39,46,12,248,*79
$GPGLL,4505.96946,N,06839.79763,W,172921.00,A,A*7D
$RDENS,3527,4855952,PC
$GPRMC,172922.00,A,4505.96987,N,06839.79761,W,1.460,3.07,180924,,,A*77
$GPVTG,3.07,T,,M,1.460,N,2.705,K,A*3A
$GPGGA,172922.00,4505.96987,N,06839.79761,W,1,08,0.96,37.6,M,-29.0,M,,*57
$GPGSA,A,3,18,24,12,22,15,23,10,32,,,,,1.58,0.96,1.25*0E
$GPGSV,3,1,12,10,57,309,39,12,15,124,35,15,21,080,32,18,19,188,27*76
$GPGSV,3,2,12,21,05,330,,22,05,028,18,23,80,128,26,24,58,068,35*7E
$GPGSV,3,3,12,25,04,157,,28,02,213,,32,35,269,38,46,12,248,*7C
$GPGLL,4505.96987,N,06839.79761,W,172922.00,A,A*71
$RDENS,3528,4856032,PC
$RDENS,3529,4856110,PC
$GPRMC,172923.00,A,4505.97027,N,06839.79759,W,1.400,1.41,180924,,,A*79
$GPVTG,1.41,T,,M,1.400,N,2.594,K,A*36
$GPGGA,172923.00,4505.97027,N,06839.79759,W,1,07,1.34,37.6,M,-29.0,M,,*59
$GPGSA,A,3,18,24,12,15,23,10,32,,,,,,2.33,1.34,1.90*07
$GPGSV,3,1,12,10,57,309,39,12,15,124,35,15,21,080,32,18,19,188,27*76
$GPGSV,3,2,12,21,05,330,,22,05,028,16,23,80,128,26,24,58,068,34*71
$GPGSV,3,3,12,25,04,157,15,28,02,213,,32,35,269,38,46,12,248,*78
$GPGLL,4505.97027,N,06839.79759,W,172923.00,A,A*79
$RDENS,3530,4856189,PC
$GPRMC,172924.00,A,4505.97062,N,06839.79758,W,1.343,0.78,180924,,,A*75
$GPVTG,0.78,T,,M,1.343,N,2.486,K,A*3F
$GPGGA,172924.00,4505.97062,N,06839.79758,W,1,07,1.34,37.5,M,-29.0,M,,*5D
$GPGSA,A,3,18,24,12,15,23,10,32,,,,,,2.33,1.34,1.90*07
$GPGSV,3,1,12,10,57,309,39,12,15,124,35,15,21,080,31,18,19,188,27*75
$GPGSV,3,2,12,21,05,330,,22,05,028,16,23,80,128,26,24,58,068,34*71
$GPGSV,3,3,12,25,04,157,12,28,02,213,,32,35,269,37,46,12,248,*70
$GPGLL,4505.97062,N,06839.79758,W,172924.00,A,A*7E
$RDENS,3531,4856268,PC
$GPRMC,172925.00,A,4505.97099,N,06839.79757,W,1.394,0.18,180924,,,A*73
$GPVTG,0.18,T,,M,1.394,N,2.583,K,A*37
$GPGGA,172925.00,4505.97099,N,06839.79757,W,1,07,1.34,37.6,M,-29.0,M,,*54
$GPGSA,A,3,18,24,12,15,23,10,32,,,,,,2.33,1.34,1.90*07
$GPGSV,3,1,12,10,57,309,39,12,15,124,33,15,21,080,30,18,19,188,27*72
$GPGSV,3,2,12,21,05,330,,22,05,028,17,23,80,128,27,24,58,068,29*7D
$GPGSV,3,3,12,25,04,157,11,28,02,213,,32,35,269,37,46,12,248,*73
$GPGLL,4505.97099,N,06839.79757,W,172925.00,A,A*74
$RDENS,3532,4856346,PC
$GPRMC,172926.00,A,4505.97136,N,06839.79759,W,1.388,358.03,180924,,,A*73
$GPVTG,358.03,T,,M,1.388,N,2.571,K,A*33
$GPGGA,172926.00,4505.97136,N,06839.79759,W,1,07,1.34,37.5,M,-29.0,M,,*5E
$GPGSA,A,3,18,24,12,15,23,10,32,,,,,,2.33,1.34,1.90*07
$GPGSV,3,1,12,10,57,309,39,12,15,124,34,15,21,080,30,18,19,188,27*75
$GPGSV,3,2,12,21,06,330,,22,05,028,17,23,80,128,28,24,58,068,31*78
$GPGSV,3,3,12,25,04,157,15,28,02,213,,32,35,269,37,46,12,248,28*7D
$GPGLL,4505.97136,N,06839.79759,W,172926.00,A,A*7D
$RDENS,3533,4856424,PC
$RDENS,3534,4856503,PC
$GPRMC,172927.00,A,4505.97175,N,06839.79760,W,1.410,356.87,180924,,,A*7B
$GPVTG,356.87,T,,M,1.410,N,2.612,K,A*31
$GPGGA,172927.00,4505.97175,N,06839.79760,W,1,07,1.34,37.5,M,-29.0,M,,*52
$GPGSA,A,3,18,24,12,15,23,10,32,,,,,,2.33,1.34,1.90*07
$GPGSV,3,1,12,10,57,309,38,12,15,124,35,15,21,080,35,18,19,188,26*71
$GPGSV,3,2,12,21,06,330,,22,05,028,16,23,80,128,27,24,58,068,32*75
$GPGSV,3,3,12,25,04,157,15,28,02,213,,32,35,269,38,46,12,248,27*7D
$GPGLL,4505.97175,N,06839.79760,W,172927.00,A,A*71
$RDENS,3535,4856582,PC
$GPRMC,172928.00,A,4505.97209,N,06839.79765,W,1.284,356.87,180924,,,A*72
$GPVTG,356.87,T,,M,1.284,N,2.378,K,A*33
$GPGGA,172928.00,4505.97209,N,06839.79765,W,1,07,1.35,37.6,M,-29.0,M,,*52
$GPGSA,A,3,18,24,12,15,23,10,32,,,,,,2.33,1.35,1.90*06
$GPGSV,3,1,12,10,57,309,39,12,15,124,36,15,21,080,34,18,19,188,26*72
$GPGSV,3,2,12,21,06,330,,22,05,028,16,23,79,129,27,24,58,068,32*72
$GPGSV,3,3,12,25,04,157,15,28,02,213,,32,35,269,38,46,12,248,27*7D
$GPGLL,4505.97209,N,06839.79765,W,172928.00,A,A*73
$RDENS,3536,4856661,PC
$GPRMC,172929.00,A,4505.97245,N,06839.79769,W,1.227,356.11,180924,,,A*71
$GPVTG,356.11,T,,M,1.227,N,2.272,K,A*3E
$GPGGA,172929.00,4505.97245,N,06839.79769,W,1,07,1.35,37.6,M,-29.0,M,,*57
$GPGSA,A,3,18,24,12,15,23,10,32,,,,,,2.33,1.35,1.90*06
$GPGSV,3,1,12,10,57,309,39,12,15,124,36,15,21,080,33,18,19,188,28*7B
$GPGSV,3,2,12,21,06,330,,22,05,028,16,23,79,129,27,24,58,068,32*72
$GPGSV,3,3,12,25,04,157,15,28,02,213,,32,35,269,38,46,12,248,26*7C
$GPGLL,4505.97245,N,06839.79769,W,172929.00,A,A*76
$RDENS,3537,4856739,PC
$RDENS,3538,4856818,PC
$GPRMC,172930.00,A,4505.97281,N,06839.79774,W,1.265,354.81,180924,,,A*70
$GPVTG,354.81,T,,M,1.265,N,2.342,K,A*31
$GPGGA,172930.00,4505.97281,N,06839.79774,W,1,07,1.35,37.6,M,-29.0,M,,*5B
$GPGSA,A,3,18,24,12,15,23,10,32,,,,,,2.33,1.35,1.90*06
$GPGSV,3,1,12,10,57,309,38,12,15,124,35,15,21,080,32,18,19,188,27*77
$GPGSV,3,2,12,21,06,330,,22,05,028,16,23,79,129,26,24,58,068,33*72
$GPGSV,3,3,12,25,04,157,15,28,02,213,,32,35,269,37,46,12,248,*77
$GPGLL,4505.97281,N,06839.79774,W,172930.00,A,A*7A
$RDENS,3539,4856896,PC
$GPRMC,172931.00,A,4505.97319,N,06839.79777,W,1.306,354.69,180924,,,A*70
$GPVTG,354.69,T,,M,1.306,N,2.419,K,A*3A
$GPGGA,172931.00,4505.97319,N,06839.79777,W,1,07,1.35,37.5,M,-29.0,M,,*5A
$GPGSA,A,3,18,24,12,15,23,10,32,,,,,,2.33,1.35,1.90*06
$GPGSV,3,1,12,10,57,309,38,12,15,124,35,15,21,080,31,18,19,188,26*75
$GPGSV,3,2,12,21,06,330,,22,05,028,16,23,79,129,27,24,58,068,33*73
$GPGSV,3,3,12,25,04,157,11,28,02,213,,32,35,269,36,46,12,248,*72
$GPGLL,4505.97319,N,06839.79777,W,172931.00,A,A*78
$RDENS,3540,4856975,PC
$GPRMC,172932.00,A,4505.97353,N,06839.79781,W,1.227,354.19,180924,,,A*71
$GPVTG,354.19,T,,M,1.227,N,2.273,K,A*35
$GPGGA,172932.00,4505.97353,N,06839.79781,W,1,07,1.35,37.6,M,-29.0,M,,*5D
$GPGSA,A,3,18,24,12,15,23,10,32,,,,,,2.33,1.35,1.90*06
$GPGSV,3,1,12,10,57,309,37,12,15,124,35,15,21,080,30,18,19,188,26*7B
$GPGSV,3,2,12,21,06,330,,22,05,028,16,23,79,129,27,24,58,068,33*73
$GPGSV,3,3,12,25,04,157,16,28,02,213,,32,35,269,36,46,12,248,*75
$GPGLL,4505.97353,N,06839.79781,W,172932.00,A,A*7C
$RDENS,3541,4857054,PC
$GPRMC,172933.00,A,4505.97386,N,06839.79787,W,1.191,352.77,180924,,,A*7E
$GPVTG,352.77,T,,M,1.191,N,2.205,K,A*34
$GPGGA,172933.00,4505.97386,N,06839.79787,W,1,07,1.35,37.7,M,-29.0,M,,*53
$GPGSA,A,3,18,24,12,15,23,10,32,,,,,,2.33,1.35,1.90*06
$GPGSV,3,1,12,10,57,309,37,12,15,124,34,15,21,080,30,18,19,188,27*7B
$GPGSV,3,2,12,21,06,330,,22,05,028,17,23,79,129,28,24,58,068,33*7D
$GPGSV,3,3,12,25,04,157,21,28,02,213,,32,35,269,36,46,12,248,*71
$GPGLL,4505.97386,N,06839.79787,W,172933.00,A,A*73
$RDENS,3542,4857133,PC
$RDENS,3543,4857211,PC
$GPRMC,172934.00,A,4505.97421,N,06839.79794,W,1.228,352.01,180924,,,A*71
$GPVTG,352.01,T,,M,1.228,N,2.274,K,A*32
$GPGGA,172934.00,4505.97421,N,06839.79794,W,1,07,1.35,37.7,M,-29.0,M,,*5C
$GPGSA,A,3,18,24,12,15,23,10,32,,,,,,2.33,1.35,1.90*06
$GPGSV,3,1,12,10,57,309,36,12,15,124,34,15,21,080,30,18,19,188,27*7A
$GPGSV,3,2,12,21,06,330,,22,05,028,17,23,79,129,28,24,58,068,32*7C
$GPGSV,3,3,12,25,04,157,22,28,02,213,,32,35,269,36,46,12,248,*72
$GPGLL,4505.97421,N,06839.79794,W,172934.00,A,A*7C
$RDENS,3544,4857290,PC
$GPRMC,172935.00,A,4505.97458,N,06839.79802,W,1.254,350.89,180924,,,A*77
$GPVTG,350.89,T,,M,1.254,N,2.322,K,A*39
$GPGGA,172935.00,4505.97458,N,06839.79802,W,1,07,1.35,37.7,M,-29.0,M,,*53
$GPGSA,A,3,18,24,12,15,23,10,32,,,,,,2.33,1.35,1.90*06
$GPGSV,3,1,12,10,57,309,36,12,15,124,34,15,21,080,30,18,19,188,27*7A
$GPGSV,3,2,12,21,06,330,,22,05,028,17,23,79,129,28,24,58,068,32*7C
$GPGSV,3,3,12,25,04,157,21,28,02,213,,32,35,269,36,46,12,248,*71
$GPGLL,4505.97458,N,06839.79802,W,172935.00,A,A*73
$RDENS,3545,4857369,PC
$GPRMC,172936.00,A,4505.97494,N,06839.79811,W,1.267,349.92,180924,,,A*74
$GPVTG,349.92,T,,M,1.267,N,2.346,K,A*39
$GPGGA,172936.00,4505.97494,N,06839.79811,W,1,07,1.35,37.6,M,-29.0,M,,*53
$GPGSA,A,3,18,24,12,15,23,10,32,,,,,,2.33,1.35,1.90*06
$GPGSV,3,1,12,10,57,309,36,12,15,124,34,15,21,080,30,18,19,188,27*7A
$GPGSV,3,2,12,21,06,330,,22,05,028,17,23,79,129,28,24,58,068,33*7D
$GPGSV,3,3,12,25,04,157,22,28,02,213,,32,35,269,37,46,12,248,*73
$GPGLL,4505.97494,N,06839.79811,W,172936.00,A,A*72
$RDENS,3546,4857447,PC
$GPRMC,172937.00,A,4505.97532,N,06839.79820,W,1.319,349.15,180924,,,A*7D
$GPVTG,349.15,T,,M,1.319,N,2.443,K,A*3C
$GPGGA,172937.00,4505.97532,N,06839.79820,W,1,07,1.35,37.5,M,-29.0,M,,*5E
$GPGSA,A,3,18,24,12,15,23,10,32,,,,,,2.33,1.35,1.90*06
$GPGSV,3,1,12,10,57,309,36,12,15,124,33,15,21,080,30,18,19,188,27*7D
$GPGSV,3,2,12,21,06,330,,22,05,028,17,23,79,129,27,24,58,068,33*72
$GPGSV,3,3,12,25,04,157,21,28,02,213,,32,35,269,37,46,12,248,*70
$GPGLL,4505.97532,N,06839.79820,W,172937.00,A,A*7C
$RDENS,3547,4857527,PC
$RDENS,3548,4857605,PC
$GPRMC,172938.00,A,4505.97566,N,06839.79830,W,1.175,348.02,180924,,,A*7D
$GPVTG,348.02,T,,M,1.175,N,2.175,K,A*33
$GPGGA,172938.00,4505.97566,N,06839.79830,W,1,07,1.35,37.5,M,-29.0,M,,*51
$GPGSA,A,3,18,24,12,15,23,10,32,,,,,,2.33,1.35,1.90*06
$GPGSV,3,1,12,10,57,309,36,12,15,124,33,15,21,080,30,18,19,188,27*7D
$GPGSV,3,2,12,21,06,330,,22,05,028,18,23,79,129,28,24,58,068,33*72
$GPGSV,3,3,12,25,04,157,21,28,02,213,,32,35,269,37,46,12,248,*70
$GPGLL,4505.97566,N,06839.79830,W,172938.00,A,A*73
$RDENS,3549,4857684,PC
$GPRMC,172939.00,A,4505.97600,N,06839.79841,W,1.259,346.82,180924,,,A*72
$GPVTG,346.82,T,,M,1.259,N,2.331,K,A*3A
$GPGGA,172939.00,4505.97600,N,06839.79841,W,1,07,1.35,37.5,M,-29.0,M,,*55
$GPGSA,A,3,18,24,12,15,23,10,32,,,,,,2.33,1.35,1.90*06
$GPGSV,3,1,12,10,57,309,35,12,15,124,34,15,21,080,29,18,19,188,28*7E
$GPGSV,3,2,12,21,06,330,,22,05,028,19,23,79,129,28,24,58,068,33*73
$GPGSV,3,3,12,25,04,157,22,28,02,213,,32,35,269,38,46,12,248,*7C
$GPGLL,4505.97600,N,06839.79841,W,172939.00,A,A*77
$RDENS,3550,4857763,PC
$GPRMC,172940.00,A,4505.97634,N,06839.79854,W,1.263,345.54,180924,,,A*7E
$GPVTG,345.54,T,,M,1.263,N,2.340,K,A*3D
$GPGGA,172940.00,4505.97634,N,06839.79854,W,1,07,1.35,37.5,M,-29.0,M,,*58
$GPGSA,A,3,18,24,12,15,23,10,32,,,,,,2.33,1.35,1.90*06
$GPGSV,3,1,12,10,57,309,35,12,15,124,33,15,21,080,29,18,19,188,30*70
$GPGSV,3,2,12,21,06,330,,22,05,028,19,23,79,129,29,24,58,068,34*75
$GPGSV,3,3,12,25,04,157,21,28,02,213,,32,35,269,38,46,12,248,*7F
$GPGLL,4505.97634,N,06839.79854,W,172940.00,A,A*7A
$RDENS,3551,4857841,PC
$RDENS,3552,4857920,PC
$GPRMC,172941.00,A,4505.97667,N,06839.79867,W,1.205,343.62,180924,,,A*7A
$GPVTG,343.62,T,,M,1.205,N,2.232,K,A*3A
$GPGGA,172941.00,4505.97667,N,06839.79867,W,1,07,1.35,37.5,M,-29.0,M,,*5F
$GPGSA,A,3,18,24,12,15,23,10,32,,,,,,2.33,1.35,1.90*06
$GPGSV,3,1,12,10,57,309,34,12,15,124,29,15,21,080,29,18,19,188,32*78
$GPGSV,3,2,12,21,06,330,,22,05,028,18,23,79,129,28,24,58,068,34*75
$GPGSV,3,3,12,25,04,157,19,28,02,213,,32,35,269,38,46,12,248,*74
$GPGLL,4505.97667,N,06839.79867,W,172941.00,A,A*7D
$RDENS,3553,4857998,PC
$GPRMC,172942.00,A,4505.97706,N,06839.79883,W,1.291,341.35,180924,,,A*78
$GPVTG,341.35,T,,M,1.291,N,2.391,K,A*3F
$GPGGA,172942.00,4505.97706,N,06839.79883,W,1,07,1.35,37.5,M,-29.0,M,,*50
$GPGSA,A,3,18,24,12,15,23,10,32,,,,,,2.33,1.35,1.90*06
$GPGSV,3,1,12,10,57,309,34,12,15,124,28,15,21,080,30,18,19,188,32*71
$GPGSV,3,2,12,21,06,330,,22,05,028,18,23,79,129,27,24,58,068,36*78
$GPGSV,3,3,12,25,04,157,18,28,02,213,,32,35,269,39,46,12,248,*74
$GPGLL,4505.97706,N,06839.79883,W,172942.00,A,A*72
$RDENS,3554,4858077,PC
$GPRMC,172943.00,A,4505.97738,N,06839.79899,W,1.220,340.44,180924,,,A*72
$GPVTG,340.44,T,,M,1.220,N,2.260,K,A*3D
$GPGGA,172943.00,4505.97738,N,06839.79899,W,1,07,1.35,37.5,M,-29.0,M,,*57
$GPGSA,A,3,18,24,12,15,23,10,32,,,,,,2.33,1.35,1.90*06
$GPGSV,3,1,12,10,57,309,34,12,15,124,26,15,21,080,31,18,19,188,32*7E
$GPGSV,3,2,12,21,06,330,,22,05,028,16,23,79,129,27,24,58,068,36*76
$GPGSV,3,3,12,25,04,157,17,28,02,213,,32,35,269,40,46,12,248,*75
$GPGLL,4505.97738,N,06839.79899,W,172943.00,A,A*75
$RDENS,3555,4858156,PC
$GPRMC,172944.00,A,4505.97769,N,06839.79917,W,1.231,338.21,180924,,,A*7A
$GPVTG,338.21,T,,M,1.231,N,2.280,K,A*3F
$GPGGA,172944.00,4505.97769,N,06839.79917,W,1,07,1.35,37.6,M,-29.0,M,,*50
$GPGSA,A,3,18,24,12,15,23,10,32,,,,,,2.33,1.35,1.90*06
$GPGSV,3,1,12,10,57,309,33,12,15,124,24,15,21,080,32,18,19,188,33*79
$GPGSV,3,2,12,21,06,330,,22,05,028,15,23,79,129,26,24,58,068,36*74
$GPGSV,3,3,12,25,04,157,16,28,02,213,,32,35,269,41,46,12,248,*75
$GPGLL,4505.97769,N,06839.79917,W,172944.00,A,A*71
$RDENS,3556,4858234,PC
$RDENS,3557,4858314,PC
$GPRMC,172945.00,A,4505.97800,N,06839.79938,W,1.225,335.80,180924,,,A*75
$GPVTG,335.80,T,,M,1.225,N,2.269,K,A*3B
$GPGGA,172945.00,4505.97800,N,06839.79938,W,1,07,1.35,37.6,M,-29.0,M,,*5C
$GPGSA,A,3,18,24,12,15,23,10,32,,,,,,2.33,1.35,1.90*06
$GPGSV,3,1,12,10,57,309,34,12,15,124,27,15,21,080,30,18,19,188,35*79
$GPGSV,3,2,12,21,06,330,,22,05,028,16,23,79,129,29,24,58,068,36*78
$GPGSV,3,3,12,25,04,157,13,28,02,213,,32,35,269,41,46,12,248,*70
$GPGLL,4505.97800,N,06839.79938,W,172945.00,A,A*7D
$RDENS,3558,4858392,PC
$GPRMC,172946.00,A,4505.97835,N,06839.79961,W,1.281,334.57,180924,,,A*79
$GPVTG,334.57,T,,M,1.281,N,2.372,K,A*35
$GPGGA,172946.00,4505.97835,N,06839.79961,W,1,07,1.35,37.5,M,-29.0,M,,*56
$GPGSA,A,3,18,24,12,15,23,10,32,,,,,,2.33,1.35,1.90*06
$GPGSV,3,1,12,10,57,309,34,12,15,124,30,15,21,080,31,18,19,188,30*7B
$GPGSV,3,2,12,21,06,330,,22,05,028,16,23,79,129,30,24,58,068,36*70
$GPGSV,3,3,12,25,04,157,14,28,02,213,,32,35,269,40,46,12,248,*76
$GPGLL,4505.97835,N,06839.79961,W,172946.00,A,A*74
$RDENS,3559,4858471,PC
$GPRMC,172947.00,A,4505.97869,N,06839.79979,W,1.423,338.05,180924,,,A*7D
$GPVTG,338.05,T,,M,1.423,N,2.635,K,A*36
$GPGGA,172947.00,4505.97869,N,06839.79979,W,1,07,1.35,37.6,M,-29.0,M,,*54
$GPGSA,A,3,18,24,12,15,23,10,32,,,,,,2.33,1.35,1.90*06
$GPGSV,3,1,12,10,57,309,33,12,15,124,28,15,21,080,26,18,19,188,29*7B
$GPGSV,3,2,12,21,06,330,,22,05,028,17,23,79,129,29,24,58,068,32*7D
$GPGSV,3,3,12,25,04,157,15,28,02,213,,32,35,269,36,46,12,248,*76
$GPGLL,4505.97869,N,06839.79979,W,172947.00,A,A*75
$RDENS,3560,4858550,PC
$GPRMC,172948.00,A,4505.97905,N,06839.79997,W,1.397,340.69,180924,,,A*74
$GPVTG,340.69,T,,M,1.397,N,2.587,K,A*31
$GPGGA,172948.00,4505.97905,N,06839.79997,W,1,07,1.35,37.5,M,-29.0,M,,*53
$GPGSA,A,3,18,24,12,15,23,10,32,,,,,,2.33,1.35,1.90*06
$GPGSV,3,1,12,10,57,309,36,12,15,124,33,15,21,080,26,18,19,188,28*75
$GPGSV,3,2,12,21,06,330,,22,05,028,18,23,79,129,29,24,58,068,31*71
$GPGSV,3,3,12,25,04,157,18,28,02,213,,32,35,269,38,46,12,248,*75
$GPGLL,4505.97905,N,06839.79997,W,172948.00,A,A*71
$RDENS,3561,4858629,PC
$RDENS,3562,4858707,PC
$GPRMC,172949.00,A,4505.97940,N,06839.80010,W,1.409,343.48,180924,,,A*74
$GPVTG,343.48,T,,M,1.409,N,2.609,K,A*34
$GPGGA,172949.00,4505.97940,N,06839.80010,W,1,07,1.35,37.5,M,-29.0,M,,*53
$GPGSA,A,3,18,24,12,15,23,10,32,,,,,,2.33,1.35,1.90*06
$GPGSV,3,1,12,10,57,309,38,12,15,124,35,15,21,080,32,18,19,188,28*78
$GPGSV,3,2,12,21,06,330,23,22,05,028,17,23,79,129,30,24,58,068,30*76
$GPGSV,3,3,12,25,04,157,18,28,02,213,,32,35,269,37,46,12,248,*7A
$GPGLL,4505.97940,N,06839.80010,W,172949.00,A,A*71
$RDENS,3563,4858786,PC
$GPRMC,172950.00,A,4505.97973,N,06839.80017,W,1.341,345.31,180924,,,A*78
$GPVTG,345.31,T,,M,1.341,N,2.483,K,A*37
$GPGGA,172950.00,4505.97973,N,06839.80017,W,1,07,1.35,37.7,M,-29.0,M,,*5E
$GPGSA,A,3,18,24,12,15,23,10,32,,,,,,2.33,1.35,1.90*06
$GPGSV,3,1,12,10,57,309,38,12,15,124,35,15,21,080,32,18,19,188,30*71
$GPGSV,3,2,12,21,06,330,21,22,05,028,14,23,79,129,31,24,58,068,32*74
$GPGSV,3,3,12,25,04,157,17,28,02,213,,32,35,269,37,46,12,248,*75
$GPGLL,4505.97973,N,06839.80017,W,172950.00,A,A*7E
$RDENS,3564,4858865,PC
$GPRMC,172951.00,A,4505.98013,N,06839.80026,W,1.477,348.51,180924,,,A*72
$GPVTG,348.51,T,,M,1.477,N,2.736,K,A*33
$GPGGA,172951.00,4505.98013,N,06839.80026,W,1,07,1.35,37.6,M,-29.0,M,,*5C
$GPGSA,A,3,18,24,12,15,23,10,32,,,,,,2.33,1.35,1.90*06
$GPGSV,3,1,12,10,57,309,38,12,15,124,34,15,21,080,28,18,19,188,30*7B
$GPGSV,3,2,12,21,06,330,19,22,05,028,11,23,79,129,30,24,58,068,30*79
$GPGSV,3,3,12,25,04,157,15,28,02,213,,32,35,269,38,46,12,248,*78
$GPGLL,4505.98013,N,06839.80026,W,172951.00,A,A*7D
$RDENS,3565,4858944,PC
$RDENS,3566,4859022,PC
$GPRMC,172952.00,A,4505.98060,N,06839.80033,W,1.576,352.50,180924,,,A*7B
$GPVTG,352.50,T,,M,1.576,N,2.918,K,A*3B
$GPGGA,172952.00,4505.98060,N,06839.80033,W,1,07,1.35,37.6,M,-29.0,M,,*5F
$GPGSA,A,3,18,24,12,15,23,10,32,,,,,,2.33,1.35,1.90*06
$GPGSV,3,1,12,10,57,309,38,12,15,124,33,15,21,080,29,18,19,188,31*7C
$GPGSV,3,2,12,21,06,330,18,22,05,028,11,23,79,129,31,24,58,068,29*71
$GPGSV,3,3,12,25,04,157,14,28,02,213,,32,35,269,38,46,12,248,*79
$GPGLL,4505.98060,N,06839.80033,W,172952.00,A,A*7E
$RDENS,3567,4859101,PC
$GPRMC,172953.00,A,4505.98106,N,06839.80037,W,1.635,354.16,180924,,,A*7F
$GPVTG,354.16,T,,M,1.635,N,3.029,K,A*31
$GPGGA,172953.00,4505.98106,N,06839.80037,W,1,07,1.35,37.5,M,-29.0,M,,*58
$GPGSA,A,3,18,24,12,15,23,10,32,,,,,,2.33,1.35,1.90*06
$GPGSV,3,1,12,10,57,309,39,12,15,124,32,15,21,080,30,18,19,188,31*74
$GPGSV,3,2,12,21,06,330,18,22,05,028,11,23,79,129,32,24,58,068,30*7A
$GPGSV,3,3,12,25,04,157,19,28,02,213,,32,35,269,37,46,12,248,*7B
$GPGLL,4505.98106,N,06839.80037,W,172953.00,A,A*7A
$RDENS,3568,4859180,PC
$GPRMC,172954.00,A,4505.98152,N,06839.80042,W,1.692,355.53,180924,,,A*76
$GPVTG,355.53,T,,M,1.692,N,3.133,K,A*36
$GPGGA,172954.00,4505.98152,N,06839.80042,W,1,07,1.35,37.5,M,-29.0,M,,*5C
$GPGSA,A,3,18,24,12,15,23,10,32,,,,,,2.33,1.35,1.90*06
$GPGSV,3,1,12,10,57,309,36,12,15,124,32,15,21,080,30,18,19,188,31*7B
$GPGSV,3,2,12,21,06,330,16,22,05,028,11,23,79,129,31,24,58,068,30*77
$GPGSV,3,3,12,25,04,157,20,28,02,213,,32,35,269,37,46,12,248,*71
$GPGLL,4505.98152,N,06839.80042,W,172954.00,A,A*7E
$RDENS,3569,4859259,PC
$GPRMC,172955.00,A,4505.98200,N,06839.80046,W,1.632,355.85,180924,,,A*76
$GPVTG,355.85,T,,M,1.632,N,3.022,K,A*36
$GPGGA,172955.00,4505.98200,N,06839.80046,W,1,07,1.35,37.5,M,-29.0,M,,*5D
$GPGSA,A,3,18,24,12,15,23,10,32,,,,,,2.33,1.35,1.90*06
$GPGSV,3,1,12,10,57,309,37,12,15,124,33,15,21,080,29,18,19,188,31*73
$GPGSV,3,2,12,21,06,330,14,22,05,028,11,23,79,129,30,24,58,068,30*74
$GPGSV,3,3,12,25,04,157,20,28,02,213,,32,35,269,38,46,12,248,*7E
$GPGLL,4505.98200,N,06839.80046,W,172955.00,A,A*7F
$RDENS,3570,4859337,PC
$RDENS,3571,4859415,PC
$GPRMC,172956.00,A,4505.98246,N,06839.80050,W,1.669,355.94,180924,,,A*7E
$GPVTG,355.94,T,,M,1.669,N,3.090,K,A*31
$GPGGA,172956.00,4505.98246,N,06839.80050,W,1,07,1.35,37.6,M,-29.0,M,,*58
$GPGSA,A,3,18,24,12,15,23,10,32,,,,,,2.33,1.35,1.90*06
$GPGSV,3,1,12,10,57,309,37,12,15,124,34,15,21,080,33,18,19,188,32*7C
$GPGSV,3,2,12,21,06,330,13,22,05,028,,23,79,129,30,24,58,068,30*73
$GPGSV,3,3,12,25,04,157,21,28,02,213,,32,35,269,38,46,12,248,28*75
$GPGLL,4505.98246,N,06839.80050,W,172956.00,A,A*79
$RDENS,3572,4859495,PC
$GPRMC,172957.00,A,4505.98284,N,06839.80058,W,1.699,354.82,180924,,,A*70
$GPVTG,354.82,T,,M,1.699,N,3.146,K,A*32
$GPGGA,172957.00,4505.98284,N,06839.80058,W,1,07,1.35,37.8,M,-29.0,M,,*51
$GPGSA,A,3,18,24,12,15,23,10,32,,,,,,2.33,1.35,1.90*06
$GPGSV,3,1,12,10,57,309,37,12,15,124,35,15,21,080,37,18,19,188,30*7B
$GPGSV,3,2,12,21,06,330,10,22,05,028,,23,79,129,29,24,58,068,29*70
$GPGSV,3,3,12,25,04,157,21,28,02,213,,32,35,269,38,46,12,248,28*75
$GPGLL,4505.98284,N,06839.80058,W,172957.00,A,A*7E
$RDENS,3573,4859573,PC
$GPRMC,172958.00,A,4505.98327,N,06839.80065,W,1.771,355.39,180924,,,A*7F
$GPVTG,355.39,T,,M,1.771,N,3.281,K,A*3C
$GPGGA,172958.00,4505.98327,N,06839.80065,W,1,07,1.35,37.9,M,-29.0,M,,*59
$GPGSA,A,3,18,24,12,15,23,10,32,,,,,,2.33,1.35,1.90*06
$GPGSV,3,1,12,10,57,309,37,12,15,124,35,15,21,080,38,18,19,188,30*74
$GPGSV,3,2,12,21,06,330,11,22,05,028,07,23,79,129,29,24,58,068,24*7B
$GPGSV,3,3,12,25,04,157,22,28,02,213,,32,35,269,38,46,12,248,28*76
$GPGLL,4505.98327,N,06839.80065,W,172958.00,A,A*77
$RDENS,3574,4859652,PC
$GPRMC,172959.00,A,4505.98375,N,06839.80070,W,1.703,354.93,180924,,,A*79
$GPVTG,354.93,T,,M,1.703,N,3.154,K,A*33
$GPGGA,172959.00,4505.98375,N,06839.80070,W,1,07,1.35,38.0,M,-29.0,M,,*5D
$GPGSA,A,3,18,24,12,15,23,10,32,,,,,,2.33,1.35,1.90*06
$GPGSV,3,1,12,10,57,309,37,12,15,124,35,15,21,080,38,18,19,188,30*74
$GPGSV,3,2,12,21,06,330,13,22,05,028,09,23,79,129,28,24,58,068,26*74
$GPGSV,3,3,12,25,04,157,22,28,02,213,,32,35,269,39,46,12,248,28*77
$GPGLL,4505.98375,N,06839.80070,W,172959.00,A,A*75
$RDENS,3575,4859731,PC
$RDENS,3576,4859810,PC
$GPRMC,173000.00,A,4505.98425,N,06839.80074,W,1.734,355.23,180924,,,A*75
$GPVTG,355.23,T,,M,1.734,N,3.212,K,A*3C
$GPGGA,173000.00,4505.98425,N,06839.80074,W,1,07,1.35,38.0,M,-29.0,M,,*5F
$GPGSA,A,3,18,24,12,15,23,10,32,,,,,,2.33,1.35,1.90*06
$GPGSV,3,1,12,10,57,309,37,12,15,124,34,15,21,080,37,18,19,188,31*7B
$GPGSV,3,2,12,21,06,330,10,22,05,028,13,23,79,129,28,24,58,068,27*7D
$GPGSV,3,3,12,25,04,157,22,28,02,213,,32,35,269,39,46,12,248,27*78
$GPGLL,4505.98425,N,06839.80074,W,173000.00,A,A*77
$RDENS,3577,4859888,PC
$GPRMC,173001.00,A,4505.98470,N,06839.80078,W,1.807,355.71,180924,,,A*70
$GPVTG,355.71,T,,M,1.807,N,3.347,K,A*35
$GPGGA,173001.00,4505.98470,N,06839.80078,W,1,07,1.35,38.2,M,-29.0,M,,*50
$GPGSA,A,3,18,24,12,15,23,10,32,,,,,,2.33,1.35,1.90*06
$GPGSV,3,1,12,10,57,309,36,12,15,124,34,15,21,080,37,18,19,188,31*7A
$GPGSV,3,2,12,21,06,330,08,22,05,028,14,23,79,129,28,24,58,068,29*7D
$GPGSV,3,3,12,25,04,157,22,28,02,213,,32,35,269,39,46,12,248,27*78
$GPGLL,4505.98470,N,06839.80078,W,173001.00,A,A*7A
$RDENS,3578,4859967,PC
$GPRMC,173002.00,A,4505.98516,N,06839.80083,W,1.801,355.18,180924,,,A*7F
$GPVTG,355.18,T,,M,1.801,N,3.335,K,A*39
$GPGGA,173002.00,4505.98516,N,06839.80083,W,1,07,1.35,38.3,M,-29.0,M,,*57
$GPGSA,A,3,18,24,12,15,23,10,32,,,,,,2.33,1.35,1.90*06
$GPGSV,3,1,12,10,57,309,37,12,15,124,35,15,21,080,36,18,19,188,31*7B
$GPGSV,3,2,12,21,06,330,08,22,05,028,13,23,79,129,28,24,58,068,29*7A
$GPGSV,3,3,12,25,04,157,21,28,02,213,,32,35,269,39,46,12,248,27*7B
$GPGLL,4505.98516,N,06839.80083,W,173002.00,A,A*7C
$RDENS,3579,4860046,PC
$RDENS,3580,4860124,PC
$GPRMC,173003.00,A,4505.98565,N,06839.80088,W,1.796,354.87,180924,,,A*77
$GPVTG,354.87,T,,M,1.796,N,3.326,K,A*3D
$GPGGA,173003.00,4505.98565,N,06839.80088,W,1,07,1.35,38.5,M,-29.0,M,,*5F
$GPGSA,A,3,18,24,12,15,23,10,32,,,,,,2.33,1.35,1.90*06
$GPGSV,3,1,12,10,57,309,37,12,15,124,35,15,21,081,36,18,19,188,30*7B
$GPGSV,3,2,12,21,06,330,07,22,05,028,11,23,79,129,27,24,58,068,30*70
$GPGSV,3,3,12,25,04,157,20,28,02,213,,32,35,269,39,46,12,248,26*7B
$GPGLL,4505.98565,N,06839.80088,W,173003.00,A,A*72
$RDENS,3581,4860203,PC
$GPRMC,173004.00,A,4505.98611,N,06839.80095,W,1.695,354.41,180924,,,A*74
$GPVTG,354.41,T,,M,1.695,N,3.139,K,A*39
$GPGGA,173004.00,4505.98611,N,06839.80095,W,1,07,1.35,38.6,M,-29.0,M,,*57
$GPGSA,A,3,18,24,12,15,23,10,32,,,,,,2.33,1.35,1.90*06
$GPGSV,3,1,12,10,57,309,37,12,15,124,35,15,21,081,35,18,19,188,30*78
$GPGSV,3,2,12,21,06,330,07,22,05,028,09,23,79,129,27,24,58,068,30*79
$GPGSV,3,3,12,25,04,157,20,28,02,213,,32,35,269,39,46,12,248,*7F
$GPGLL,4505.98611,N,06839.80095,W,173004.00,A,A*79
$RDENS,3582,4860282,PC
$GPRMC,173005.00,A,4505.98653,N,06839.80102,W,1.689,354.11,180924,,,A*74
$GPVTG,354.11,T,,M,1.689,N,3.128,K,A*31
$GPGGA,173005.00,4505.98653,N,06839.80102,W,1,07,1.35,38.8,M,-29.0,M,,*51
$GPGSA,A,3,18,24,12,15,23,10,32,,,,,,2.33,1.35,1.90*06
$GPGSV,3,1,12,10,57,309,37,12,15,124,35,15,21,081,35,18,19,188,31*79
$GPGSV,3,2,12,21,06,330,07,22,05,028,11,23,79,129,27,24,58,068,30*70
$GPGSV,3,3,12,25,04,157,19,28,02,213,,32,35,269,38,46,12,248,*74
$GPGLL,4505.98653,N,06839.80102,W,173005.00,A,A*71
$RDENS,3583,4860361,PC
$GPRMC,173006.00,A,4505.98699,N,06839.80108,W,1.761,354.40,180924,,,A*78
$GPVTG,354.40,T,,M,1.761,N,3.262,K,A*3F
$GPGGA,173006.00,4505.98699,N,06839.80108,W,1,07,1.35,38.9,M,-29.0,M,,*5F
$GPGSA,A,3,18,24,12,15,23,10,32,,,,,,2.33,1.35,1.90*06
$GPGSV,3,1,12,10,57,309,37,12,15,124,35,15,21,081,34,18,19,188,32*7B
$GPGSV,3,2,12,21,06,330,07,22,05,028,12,23,79,129,27,24,58,068,30*73
$GPGSV,3,3,12,25,04,157,19,28,02,213,,32,35,269,39,46,12,248,*75
$GPGLL,4505.98699,N,06839.80108,W,173006.00,A,A*7E
$RDENS,3584,4860439,PC
$RDENS,3585,4860517,PC
$GPRMC,173007.00,A,4505.98747,N,06839.80114,W,1.726,354.80,180924,,,A*79
$GPVTG,354.80,T,,M,1.726,N,3.196,K,A*38
$GPGGA,173007.00,4505.98747,N,06839.80114,W,1,07,1.35,39.1,M,-29.0,M,,*58
$GPGSA,A,3,18,24,12,15,23,10,32,,,,,,2.33,1.35,1.90*06
$GPGSV,3,1,12,10,57,309,37,12,15,124,35,15,21,081,33,18,19,188,31*7F
$GPGSV,3,2,12,21,06,330,07,22,05,028,11,23,79,129,27,24,58,068,31*71
$GPGSV,3,3,12,25,04,157,19,28,02,213,,32,35,269,39,46,12,248,29*7E
$GPGLL,4505.98747,N,06839.80114,W,173007.00,A,A*70
$RDENS,3586,4860597,PC
$GPRMC,173008.00,A,4505.98795,N,06839.80121,W,1.686,353.95,180924,,,A*77
$GPVTG,353.95,T,,M,1.686,N,3.122,K,A*3F
$GPGGA,173008.00,4505.98795,N,06839.80121,W,1,07,1.35,39.2,M,-29.0,M,,*5D
$GPGSA,A,3,18,24,12,15,23,10,32,,,,,,2.33,1.35,1.90*06
$GPGSV,3,1,12,10,57,309,37,12,15,124,35,15,21,081,33,18,19,188,31*7F
$GPGSV,3,2,12,21,06,330,,22,05,028,09,23,79,129,28,24,58,068,31*70
$GPGSV,3,3,12,25,04,157,19,28,02,213,,32,35,269,38,46,12,248,29*7F
$GPGLL,4505.98795,N,06839.80121,W,173008.00,A,A*76
$RDENS,3587,4860676,PC
$GPRMC,173009.00,A,4505.98840,N,06839.80132,W,1.737,352.81,180924,,,A*7C
$GPVTG,352.81,T,,M,1.737,N,3.216,K,A*34
$GPGGA,173009.00,4505.98840,N,06839.80132,W,1,07,1.35,39.2,M,-29.0,M,,*59
$GPGSA,A,3,18,24,12,15,23,10,32,,,,,,2.33,1.35,1.90*06
$GPGSV,3,1,12,10,57,309,38,12,15,124,35,15,21,081,33,18,19,188,30*71
$GPGSV,3,2,12,21,06,330,,22,05,028,09,23,79,129,28,24,58,068,30*71
$GPGSV,3,3,12,25,04,157,18,28,02,213,,32,35,269,38,46,12,248,30*76
$GPGLL,4505.98840,N,06839.80132,W,173009.00,A,A*72
$RDENS,3588,4860755,PC
$GPRMC,173010.00,A,4505.98886,N,06839.80142,W,1.776,352.81,180924,,,A*7C
$GPVTG,352.81,T,,M,1.776,N,3.289,K,A*37
$GPGGA,173010.00,4505.98886,N,06839.80142,W,1,07,1.35,39.3,M,-29.0,M,,*5D
$GPGSA,A,3,18,24,12,15,23,10,32,,,,,,2.33,1.35,1.90*06
$GPGSV,3,1,12,10,57,309,38,12,15,124,35,15,21,081,32,18,19,188,29*78
$GPGSV,3,2,12,21,06,330,,22,05,028,10,23,79,129,28,24,58,068,30*79
$GPGSV,3,3,12,25,04,157,18,28,02,213,,32,35,269,38,46,12,248,28*7F
$GPGLL,4505.98886,N,06839.80142,W,173010.00,A,A*77
$RDENS,3589,4860833,PC
$RDENS,3590,4860912,PC
$GPRMC,173011.00,A,4505.98932,N,06839.80153,W,1.784,352.48,180924,,,A*7B
$GPVTG,352.48,T,,M,1.784,N,3.305,K,A*3A
$GPGGA,173011.00,4505.98932,N,06839.80153,W,1,07,1.35,39.4,M,-29.0,M,,*55
$GPGSA,A,3,18,24,12,15,23,10,32,,,,,,2.33,1.35,1.90*06
$GPGSV,3,1,12,10,57,309,38,12,15,124,36,15,21,081,33,18,19,188,29*7A
$GPGSV,3,2,12,21,06,330,,22,05,028,,23,79,130,27,24,58,068,31*7E
$GPGSV,3,3,12,25,04,157,18,28,02,213,,32,35,269,38,46,12,248,29*7E
$GPGLL,4505.98932,N,06839.80153,W,173011.00,A,A*78
$RDENS,3591,4860990,PC
$GPRMC,173012.00,A,4505.98977,N,06839.80162,W,1.750,351.82,180924,,,A*77
$GPVTG,351.82,T,,M,1.750,N,3.242,K,A*34
$GPGGA,173012.00,4505.98977,N,06839.80162,W,1,07,1.35,39.5,M,-29.0,M,,*54
$GPGSA,A,3,18,24,12,15,23,10,32,,,,,,2.33,1.35,1.90*06
$GPGSV,3,1,12,10,57,309,38,12,15,124,36,15,21,081,33,18,19,188,28*7B
$GPGSV,3,2,12,21,06,330,,22,05,028,16,23,79,130,27,24,58,067,32*75
$GPGSV,3,3,12,25,04,157,16,28,02,213,,32,35,269,38,46,12,248,30*78
$GPGLL,4505.98977,N,06839.80162,W,173012.00,A,A*78
$RDENS,3592,4861069,PC
$GPRMC,173013.00,A,4505.99026,N,06839.80171,W,1.738,351.69,180924,,,A*73
$GPVTG,351.69,T,,M,1.738,N,3.219,K,A*31
$GPGGA,173013.00,4505.99026,N,06839.80171,W,1,07,1.35,39.6,M,-29.0,M,,*58
$GPGSA,A,3,18,24,12,15,23,10,32,,,,,,2.33,1.35,1.90*06
$GPGSV,3,1,12,10,57,309,37,12,15,124,34,15,21,081,31,18,19,188,29*75
$GPGSV,3,2,12,21,06,330,,22,05,028,14,23,79,130,31,24,58,067,31*73
$GPGSV,3,3,12,25,04,157,15,28,02,213,,32,35,269,37,46,12,248,28*7D
$GPGLL,4505.99026,N,06839.80171,W,173013.00,A,A*77
$RDENS,3593,4861148,PC
$GPRMC,173014.00,A,4505.99072,N,06839.80179,W,1.766,351.95,180924,,,A*75
$GPVTG,351.95,T,,M,1.766,N,3.271,K,A*37
$GPGGA,173014.00,4505.99072,N,06839.80179,W,1,07,1.35,39.7,M,-29.0,M,,*57
$GPGSA,A,3,18,24,12,15,23,10,32,,,,,,2.33,1.35,1.90*06
$GPGSV,3,1,12,10,57,309,37,12,15,124,34,15,21,081,30,18,19,188,29*74
$GPGSV,3,2,12,21,06,330,,22,05,028,10,23,79,130,29,24,58,067,31*7E
$GPGSV,3,3,12,25,04,157,15,28,02,213,,32,35,269,37,46,12,248,27*72
$GPGLL,4505.99072,N,06839.80179,W,173014.00,A,A*79
$RDENS,3594,4861226,PC
$RDENS,3595,4861305,PC
$GPRMC,173015.00,A,4505.99125,N,06839.80189,W,1.799,351.51,180924,,,A*70
$GPVTG,351.51,T,,M,1.799,N,3.332,K,A*39
$GPGGA,173015.00,4505.99125,N,06839.80189,W,1,07,1.35,39.7,M,-29.0,M,,*5A
$GPGSA,A,3,18,24,12,15,23,10,32,,,,,,2.33,1.35,1.90*06
$GPGSV,3,1,12,10,57,309,38,12,15,124,34,15,21,081,29,18,19,188,29*73
$GPGSV,3,2,12,21,06,330,,22,05,028,09,23,79,130,29,24,58,067,32*75
$GPGSV,3,3,12,25,04,157,17,28,02,213,,32,35,269,37,46,12,248,27*70
$GPGLL,4505.99125,N,06839.80189,W,173015.00,A,A*74
$RDENS,3596,4861384,PC
$GPRMC,173016.00,A,4505.99176,N,06839.80200,W,1.805,352.29,180924,,,A*71
$GPVTG,352.29,T,,M,1.805,N,3.344,K,A*3E
$GPGGA,173016.00,4505.99176,N,06839.80200,W,1,07,1.35,39.7,M,-29.0,M,,*5D
$GPGSA,A,3,18,24,12,15,23,10,32,,,,,,2.33,1.35,1.90*06
$GPGSV,3,1,12,10,57,309,37,12,15,124,34,15,21,081,29,18,19,188,30*74
$GPGSV,3,2,12,21,06,330,,22,05,028,08,23,79,130,30,24,58,067,32*7C
$GPGSV,3,3,12,25,04,157,17,28,03,213,,32,35,269,37,46,12,248,26*70
$GPGLL,4505.99176,N,06839.80200,W,173016.00,A,A*73
$RDENS,3597,4861462,PC
$GPRMC,173017.00,A,4505.99228,N,06839.80209,W,1.795,352.58,180924,,,A*71
$GPVTG,352.58,T,,M,1.795,N,3.325,K,A*39
$GPGGA,173017.00,4505.99228,N,06839.80209,W,1,07,1.35,39.6,M,-29.0,M,,*5C
$GPGSA,A,3,18,24,12,15,23,10,32,,,,,,2.33,1.35,1.90*06
$GPGSV,3,1,12,10,57,309,37,12,15,124,34,15,21,081,29,18,19,188,30*74
$GPGSV,3,2,12,21,06,330,,22,05,028,08,23,79,130,29,24,58,067,32*74
$GPGSV,3,3,12,25,04,157,17,28,03,213,,32,35,269,37,46,12,248,*74
$GPGLL,4505.99228,N,06839.80209,W,173017.00,A,A*73
$RDENS,3598,4861542,PC
$RDENS,3599,4861620,PC
$GPRMC,173018.00,A,4505.99271,N,06839.80219,W,1.703,352.05,180924,,,A*74
$GPVTG,352.05,T,,M,1.703,N,3.155,K,A*3B
$GPGGA,173018.00,4505.99271,N,06839.80219,W,1,07,1.35,39.7,M,-29.0,M,,*5F
$GPGSA,A,3,18,24,12,15,23,10,32,,,,,,2.33,1.35,1.90*06
$GPGSV,3,1,12,10,57,309,38,12,15,124,35,15,21,081,29,18,19,188,30*7A
$GPGSV,3,2,12,21,06,330,,22,05,028,08,23,79,130,28,24,58,067,32*75
$GPGSV,3,3,12,25,04,157,15,28,03,213,,32,35,269,37,46,12,248,*76
$GPGLL,4505.99271,N,06839.80219,W,173018.00,A,A*71
$RDENS,3600,4861699,PC
$GPRMC,173019.00,A,4505.99316,N,06839.80228,W,1.762,352.49,180924,,,A*78
$GPVTG,352.49,T,,M,1.762,N,3.263,K,A*32
$GPGGA,173019.00,4505.99316,N,06839.80228,W,1,07,1.35,39.9,M,-29.0,M,,*52
$GPGSA,A,3,18,24,12,15,23,10,32,,,,,,2.33,1.35,1.90*06
$GPGSV,3,1,12,10,57,309,37,12,15,124,34,15,21,081,30,18,19,188,30*7C
$GPGSV,3,2,12,21,06,330,,22,05,028,08,23,79,130,28,24,58,067,32*75
$GPGSV,3,3,12,25,04,157,14,28,03,213,,32,35,269,37,46,12,248,*77
$GPGLL,4505.99316,N,06839.80228,W,173019.00,A,A*72
$RDENS,3601,4861778,PC
$GPRMC,173020.00,A,4505.99367,N,06839.80235,W,1.810,352.67,180924,,,A*7E
$GPVTG,352.67,T,,M,1.810,N,3.353,K,A*36
$GPGGA,173020.00,4505.99367,N,06839.80235,W,1,07,1.35,40.0,M,-29.0,M,,*55
$GPGSA,A,3,18,24,12,15,23,10,32,,,,,,2.33,1.35,1.90*06
$GPGSV,3,1,12,10,57,309,37,12,15,124,35,15,21,081,30,18,19,188,30*7D
$GPGSV,3,2,12,21,06,330,,22,05,028,,23,79,130,27,24,58,067,32*72
$GPGSV,3,3,12,25,04,157,14,28,03,213,,32,35,269,38,46,12,248,*78
$GPGLL,4505.99367,N,06839.80235,W,173020.00,A,A*72
$RDENS,3602,4861856,PC
$GPRMC,173021.00,A,4505.99416,N,06839.80243,W,1.787,352.86,180924,,,A*71
$GPVTG,352.86,T,,M,1.787,N,3.309,K,A*37
$GPGGA,173021.00,4505.99416,N,06839.80243,W,1,07,1.35,40.2,M,-29.0,M,,*56
$GPGSA,A,3,18,24,12,15,23,10,32,,,,,,2.33,1.35,1.90*06
$GPGSV,3,1,12,10,57,309,38,12,15,124,34,15,21,081,30,18,19,188,30*73
$GPGSV,3,2,12,21,06,330,,22,05,028,,23,79,130,27,24,58,067,32*72
$GPGSV,3,3,12,25,04,157,17,28,03,213,,32,35,269,38,46,12,248,*7B
$GPGLL,4505.99416,N,06839.80243,W,173021.00,A,A*73
$RDENS,3603,4861935,PC
$RDENS,3604,4862013,PC
$GPRMC,173022.00,A,4505.99464,N,06839.80250,W,1.798,352.98,180924,,,A*74
$GPVTG,352.98,T,,M,1.798,N,3.330,K,A*3C
$GPGGA,173022.00,4505.99464,N,06839.80250,W,1,07,1.35,40.3,M,-29.0,M,,*53
$GPGSA,A,3,18,24,12,15,23,10,32,,,,,,2.33,1.35,1.90*06
$GPGSV,3,1,12,10,57,309,36,12,15,124,34,15,21,081,30,18,19,188,32*7F
$GPGSV,3,2,12,21,06,330,,22,05,028,07,23,79,130,28,24,58,067,31*79
$GPGSV,3,3,12,25,04,157,19,28,03,213,,32,35,269,37,46,12,248,27*7F
$GPGLL,4505.99464,N,06839.80250,W,173022.00,A,A*77
$RDENS,3605,4862093,PC
$GPRMC,173023.00,A,4505.99515,N,06839.80257,W,1.804,353.30,180924,,,A*7C
$GPVTG,353.30,T,,M,1.804,N,3.340,K,A*32
$GPGGA,173023.00,4505.99515,N,06839.80257,W,1,07,1.35,40.4,M,-29.0,M,,*55
$GPGSA,A,3,18,24,12,15,23,10,32,,,,,,2.33,1.35,1.90*06
$GPGSV,3,1,12,10,57,309,36,12,15,124,33,15,21,081,31,18,19,188,32*79
$GPGSV,3,2,12,21,06,330,,22,05,028,08,23,79,130,28,24,58,067,31*76
$GPGSV,3,3,12,25,04,157,22,28,03,213,,32,35,269,37,46,12,248,28*78
$GPGLL,4505.99515,N,06839.80257,W,173023.00,A,A*76
$RDENS,3606,4862171,PC
$GPRMC,173024.00,A,4505.99566,N,06839.80263,W,1.809,354.05,180924,,,A*74
$GPVTG,354.05,T,,M,1.809,N,3.351,K,A*3E
$GPGGA,173024.00,4505.99566,N,06839.80263,W,1,07,1.35,40.5,M,-29.0,M,,*50
$GPGSA,A,3,18,24,12,15,23,10,32,,,,,,2.33,1.35,1.90*06
$GPGSV,3,1,12,10,57,309,36,12,15,124,32,15,21,081,31,18,19,188,32*78
$GPGSV,3,2,12,21,06,330,,22,05,028,13,23,79,130,28,24,58,067,29*75
$GPGSV,3,3,12,25,04,157,24,28,03,213,,32,35,269,37,46,12,248,28*7E
$GPGLL,4505.99566,N,06839.80263,W,173024.00,A,A*72
$RDENS,3607,4862250,PC
$GPRMC,173025.00,A,4505.99618,N,06839.80268,W,1.842,354.46,180924,,,A*7C
$GPVTG,354.46,T,,M,1.842,N,3.412,K,A*36
$GPGGA,173025.00,4505.99618,N,06839.80268,W,1,07,1.35,40.6,M,-29.0,M,,*53
$GPGSA,A,3,18,24,12,15,23,10,32,,,,,,2.33,1.35,1.90*06
$GPGSV,3,1,12,10,57,309,37,12,15,124,30,15,21,081,29,18,19,188,31*71
$GPGSV,3,2,12,21,06,330,,22,05,028,14,23,79,130,29,24,58,067,29*73
$GPGSV,3,3,12,25,04,157,25,28,03,213,,32,35,269,37,46,12,248,27*70
$GPGLL,4505.99618,N,06839.80268,W,173025.00,A,A*72
$RDENS,3608,4862329,PC
$RDENS,3609,4862408,PC
$GPRMC,173026.00,A,4505.99667,N,06839.80274,W,1.759,354.79,180924,,,A*73
$GPVTG,354.79,T,,M,1.759,N,3.257,K,A*38
$GPGGA,173026.00,4505.99667,N,06839.80274,W,1,07,1.35,40.6,M,-29.0,M,,*55
$GPGSA,A,3,18,24,12,15,23,10,32,,,,,,2.33,1.35,1.90*06
$GPGSV,3,1,12,10,57,309,37,12,15,124,30,15,21,081,30,18,19,188,31*79
$GPGSV,3,2,12,21,06,330,,22,05,028,16,23,79,130,29,24,58,067,28*70
$GPGSV,3,3,12,25,04,157,25,28,03,213,,32,35,269,37,46,12,248,27*70
$GPGLL,4505.99667,N,06839.80274,W,173026.00,A,A*74
$RDENS,3610,4862487,PC
$GPRMC,173027.00,A,4505.99719,N,06839.80281,W,1.890,355.04,180924,,,A*71
$GPVTG,355.04,T,,M,1.890,N,3.500,K,A*3C
$GPGGA,173027.00,4505.99719,N,06839.80281,W,1,07,1.35,40.5,M,-29.0,M,,*55
$GPGSA,A,3,18,24,12,15,23,10,32,,,,,,2.33,1.35,1.90*06
$GPGSV,3,1,12,10,57,309,37,12,15,124,30,15,21,081,30,18,19,188,31*79
$GPGSV,3,2,12,21,06,330,,22,05,028,16,23,79,130,29,24,58,067,28*70
$GPGSV,3,3,12,25,04,157,26,28,03,213,,32,35,269,37,46,12,248,*76
$GPGLL,4505.99719,N,06839.80281,W,173027.00,A,A*77
$RDENS,3611,4862565,PC
$GPRMC,173028.00,A,4505.99771,N,06839.80288,W,1.829,354.39,180924,,,A*74
$GPVTG,354.39,T,,M,1.829,N,3.387,K,A*38
$GPGGA,173028.00,4505.99771,N,06839.80288,W,1,07,1.35,40.6,M,-29.0,M,,*5E
$GPGSA,A,3,18,24,12,15,23,10,32,,,,,,2.33,1.35,1.90*06
$GPGSV,3,1,12,10,57,309,37,12,15,124,30,15,21,081,30,18,19,188,30*78
$GPGSV,3,2,12,21,06,330,,22,05,028,16,23,79,130,28,24,58,067,30*78
$GPGSV,3,3,12,25,04,157,23,28,03,213,,32,35,269,37,46,12,248,*73
$GPGLL,4505.99771,N,06839.80288,W,173028.00,A,A*7F
$RDENS,3612,4862644,PC
$RDENS,3613,4862723,PC
$GPRMC,173029.00,A,4505.99818,N,06839.80292,W,1.882,355.79,180924,,,A*7A
$GPVTG,355.79,T,,M,1.882,N,3.486,K,A*3A
$GPGGA,173029.00,4505.99818,N,06839.80292,W,1,07,1.35,40.8,M,-29.0,M,,*5A
$GPGSA,A,3,18,24,12,15,23,10,32,,,,,,2.33,1.35,1.90*06
$GPGSV,3,1,12,10,57,309,37,12,15,124,31,15,21,081,30,18,19,188,29*71
$GPGSV,3,2,12,21,06,330,,22,05,028,16,23,79,130,28,24,58,067,30*78
$GPGSV,3,3,12,25,04,157,23,28,03,213,,32,35,269,37,46,12,248,*73
$GPGLL,4505.99818,N,06839.80292,W,173029.00,A,A*75
$RDENS,3614,4862802,PC
$GPRMC,173030.00,A,4505.99872,N,06839.80293,W,1.824,356.41,180924,,,A*7B
$GPVTG,356.41,T,,M,1.824,N,3.377,K,A*37
$GPGGA,173030.00,4505.99872,N,06839.80293,W,1,07,1.35,40.8,M,-29.0,M,,*5F
$GPGSA,A,3,18,24,12,15,23,10,32,,,,,,2.33,1.35,1.90*06
$GPGSV,3,1,12,10,57,309,36,12,15,124,30,15,21,081,34,18,19,188,31*7C
$GPGSV,3,2,12,21,06,330,,22,05,028,18,23,79,130,28,24,58,067,32*74
$GPGSV,3,3,12,25,04,157,25,28,03,213,,32,35,269,38,46,12,248,*7A
$GPGLL,4505.99872,N,06839.80293,W,173030.00,A,A*70
$RDENS,3615,4862880,PC
$GPRMC,173031.00,A,4505.99919,N,06839.80298,W,1.830,356.43,180924,,,A*7A
$GPVTG,356.43,T,,M,1.830,N,3.389,K,A*31
$GPGGA,173031.00,4505.99919,N,06839.80298,W,1,07,1.35,40.9,M,-29.0,M,,*58
$GPGSA,A,3,18,24,12,15,23,10,32,,,,,,2.33,1.35,1.90*06
$GPGSV,3,1,12,10,57,309,37,12,15,124,30,15,21,081,35,18,19,188,31*7C
$GPGSV,3,2,12,21,06,330,,22,05,028,19,23,79,130,27,24,58,067,32*7A
$GPGSV,3,3,12,25,04,157,25,28,03,213,,32,35,269,38,46,12,248,*7A
$GPGLL,4505.99919,N,06839.80298,W,173031.00,A,A*76
$RDENS,3616,4862959,PC
$GPRMC,173032.00,A,4505.99967,N,06839.80304,W,1.837,356.67,180924,,,A*75
$GPVTG,356.67,T,,M,1.837,N,3.402,K,A*34
$GPGGA,173032.00,4505.99967,N,06839.80304,W,1,07,1.35,41.0,M,-29.0,M,,*5E
$GPGSA,A,3,18,24,12,15,23,10,32,,,,,,2.33,1.35,1.90*06
$GPGSV,3,1,12,10,57,309,37,12,15,124,30,15,21,081,37,18,19,188,31*7E
$GPGSV,3,2,12,21,06,330,,22,05,028,22,23,79,130,27,24,58,067,31*71
$GPGSV,3,3,12,25,04,157,26,28,03,213,,32,35,269,39,46,12,248,*78
$GPGLL,4505.99967,N,06839.80304,W,173032.00,A,A*78
$RDENS,3617,4863038,PC
$RDENS,3618,4863117,PC
$GPRMC,173033.00,A,4506.00020,N,06839.80308,W,1.818,356.57,180924,,,A*7F
$GPVTG,356.57,T,,M,1.818,N,3.368,K,A*31
$GPGGA,173033.00,4506.00020,N,06839.80308,W,1,07,1.35,40.9,M,-29.0,M,,*52
$GPGSA,A,3,18,24,12,15,23,10,32,,,,,,2.33,1.35,1.90*06
$GPGSV,3,1,12,10,57,309,37,12,15,124,31,15,21,081,37,18,19,188,31*7F
$GPGSV,3,2,12,21,06,330,,22,05,028,24,23,79,130,27,24,58,067,29*7E
$GPGSV,3,3,12,25,04,157,26,28,03,213,,32,35,269,40,46,12,248,*76
$GPGLL,4506.00020,N,06839.80308,W,173033.00,A,A*7C
$RDENS,3619,4863196,PC
$GPRMC,173034.00,A,4506.00071,N,06839.80310,W,1.822,357.78,180924,,,A*70
$GPVTG,357.78,T,,M,1.822,N,3.374,K,A*39
$GPGGA,173034.00,4506.00071,N,06839.80310,W,1,07,1.35,40.9,M,-29.0,M,,*58
$GPGSA,A,3,18,24,12,15,23,10,32,,,,,,2.33,1.35,1.90*06
$GPGSV,3,1,12,10,57,309,37,12,15,124,31,15,21,081,37,18,19,188,30*7E
$GPGSV,3,2,12,21,06,330,,22,05,028,25,23,79,130,27,24,58,067,29*7F
$GPGSV,3,3,12,25,04,157,26,28,03,213,,32,35,269,40,46,12,248,*76
$GPGLL,4506.00071,N,06839.80310,W,173034.00,A,A*76
$RDENS,3620,4863274,PC
$GPRMC,173035.00,A,4506.00120,N,06839.80311,W,1.765,359.16,180924,,,A*7F
$GPVTG,359.16,T,,M,1.765,N,3.269,K,A*3E
$GPGGA,173035.00,4506.00120,N,06839.80311,W,1,07,1.35,41.0,M,-29.0,M,,*55
$GPGSA,A,3,18,24,12,15,23,10,32,,,,,,2.33,1.35,1.90*06
$GPGSV,3,1,12,10,57,309,38,12,15,124,32,15,21,081,37,18,19,188,29*7A
$GPGSV,3,2,12,21,06,330,,22,05,028,26,23,79,130,26,24,58,067,30*75
$GPGSV,3,3,12,25,04,157,26,28,03,213,,32,35,269,40,46,12,248,*76
$GPGLL,4506.00120,N,06839.80311,W,173035.00,A,A*73
$RDENS,3621,4863353,PC
$GPRMC,173036.00,A,4506.00171,N,06839.80310,W,1.778,0.08,180924,,,A*75
$GPVTG,0.08,T,,M,1.778,N,3.293,K,A*37
$GPGGA,173036.00,4506.00171,N,06839.80310,W,1,07,1.35,41.0,M,-29.0,M,,*53
$GPGSA,A,3,18,24,12,15,23,10,32,,,,,,2.33,1.35,1.90*06
$GPGSV,3,1,12,10,57,309,38,12,15,124,32,15,21,081,36,18,19,188,28*7A
$GPGSV,3,2,12,21,06,330,,22,05,028,26,23,79,130,26,24,58,067,30*75
$GPGSV,3,3,12,25,04,157,25,28,03,213,,32,35,269,40,46,12,248,*75
$GPGLL,4506.00171,N,06839.80310,W,173036.00,A,A*75
$RDENS,3622,4863432,PC
$RDENS,3623,4863510,PC
$GPRMC,173037.00,A,4506.00221,N,06839.80307,W,1.717,1.16,180924,,,A*73
$GPVTG,1.16,T,,M,1.717,N,3.181,K,A*30
$GPGGA,173037.00,4506.00221,N,06839.80307,W,1,07,1.35,41.1,M,-29.0,M,,*53
$GPGSA,A,3,18,24,12,15,23,10,32,,,,,,2.33,1.35,1.90*06
$GPGSV,3,1,12,10,57,309,39,12,15,124,33,15,21,081,36,18,19,188,27*75
$GPGSV,3,2,12,21,06,330,,22,05,028,26,23,79,130,27,24,58,067,29*7C
$GPGSV,3,3,12,25,04,157,23,28,03,213,,32,35,269,40,46,12,248,27*76
$GPGLL,4506.00221,N,06839.80307,W,173037.00,A,A*74
$RDENS,3624,4863589,PC
$GPRMC,173038.00,A,4506.00271,N,06839.80306,W,1.702,1.19,180924,,,A*73
$GPVTG,1.19,T,,M,1.702,N,3.153,K,A*34
$GPGGA,173038.00,4506.00271,N,06839.80306,W,1,07,1.35,41.1,M,-29.0,M,,*58
$GPGSA,A,3,18,24,12,15,23,10,32,,,,,,2.33,1.35,1.90*06
$GPGSV,3,1,12,10,57,309,39,12,15,124,33,15,21,081,36,18,19,188,27*75
$GPGSV,3,2,12,21,06,330,,22,05,028,26,23,79,130,27,24,58,067,29*7C
$GPGSV,3,3,12,25,04,157,23,28,03,213,,32,35,269,40,46,12,248,27*76
$GPGLL,4506.00271,N,06839.80306,W,173038.00,A,A*7F
$RDENS,3625,4863668,PC
$GPRMC,173039.00,A,4506.00319,N,06839.80304,W,1.720,1.84,180924,,,A*7B
$GPVTG,1.84,T,,M,1.720,N,3.186,K,A*38
$GPGGA,173039.00,4506.00319,N,06839.80304,W,1,07,1.35,41.2,M,-29.0,M,,*57
$GPGSA,A,3,18,24,12,15,23,10,32,,,,,,2.33,1.35,1.90*06
$GPGSV,3,1,12,10,57,309,39,12,15,124,33,15,21,081,35,18,19,188,27*76
$GPGSV,3,2,12,21,06,330,,22,05,028,26,23,79,130,27,24,58,067,29*7C
$GPGSV,3,3,12,25,04,157,23,28,03,213,,32,35,269,40,46,12,248,27*76
$GPGLL,4506.00319,N,06839.80304,W,173039.00,A,A*73
$RDENS,3626,4863747,PC
$GPRMC,173040.00,A,4506.00365,N,06839.80301,W,1.674,2.42,180924,,,A*72
$GPVTG,2.42,T,,M,1.674,N,3.101,K,A*3E
$GPGGA,173040.00,4506.00365,N,06839.80301,W,1,07,1.35,41.3,M,-29.0,M,,*56
$GPGSA,A,3,18,24,12,15,23,10,32,,,,,,2.33,1.35,1.90*06
$GPGSV,3,1,12,10,57,309,39,12,15,124,32,15,21,081,34,18,19,188,26*77
$GPGSV,3,2,12,21,06,330,,22,05,028,26,23,79,130,27,24,58,067,28*7D
$GPGSV,3,3,12,25,04,157,23,28,03,213,,32,35,269,40,46,12,248,27*76
$GPGLL,4506.00365,N,06839.80301,W,173040.00,A,A*73
$RDENS,3627,4863825,PC
$RDENS,3628,4863904,PC
$GPRMC,173041.00,A,4506.00410,N,06839.80297,W,1.706,2.75,180924,,,A*78
$GPVTG,2.75,T,,M,1.706,N,3.159,K,A*33
$GPGGA,173041.00,4506.00410,N,06839.80297,W,1,07,1.35,41.3,M,-29.0,M,,*5C
$GPGSA,A,3,18,24,12,15,23,10,32,,,,,,2.33,1.35,1.90*06
$GPGSV,3,1,12,10,58,309,39,12,15,124,32,15,21,081,34,18,19,188,27*79
$GPGSV,3,2,12,21,06,330,,22,05,028,25,23,79,130,27,24,58,067,28*7E
$GPGSV,3,3,12,25,04,157,23,28,03,213,,32,35,269,41,46,12,248,27*77
$GPGLL,4506.00410,N,06839.80297,W,173041.00,A,A*79
$RDENS,3629,4863983,PC
$GPRMC,173042.00,A,4506.00454,N,06839.80293,W,1.659,3.16,180924,,,A*70
$GPVTG,3.16,T,,M,1.659,N,3.073,K,A*35
$GPGGA,173042.00,4506.00454,N,06839.80293,W,1,07,1.35,41.4,M,-29.0,M,,*5C
$GPGSA,A,3,18,24,12,15,23,10,32,,,,,,2.33,1.35,1.90*06
$GPGSV,3,1,12,10,58,309,39,12,15,124,32,15,21,081,34,18,19,188,26*78
