$GPRMC,173943.00,A,4506.17342,N,06839.60053,W,1.846,195.81,180924,,,D*7B
$GPVTG,195.81,T,,M,1.846,N,3.418,K,D*39
$GPGGA,173943.00,4506.17342,N,06839.60053,W,2,07,1.37,37.1,M,-29.0,M,,0000*57
$GPGSA,A,3,18,24,12,15,23,10,32,,,,,,2.33,1.37,1.89*0C
$GPGSV,4,1,13,10,62,308,43,12,18,121,35,15,18,083,34,18,15,187,21*78
$GPGSV,4,2,13,21,09,328,,22,03,025,,23,74,136,36,24,54,063,36*7E
$GPGSV,4,3,13,25,07,155,,28,06,214,19,32,38,272,38,46,12,248,*77
$GPGSV,4,4,13,48,15,245,*40
$GPGLL,4506.17342,N,06839.60053,W,173943.00,A,D*75
$GPRMC,173944.00,A,4506.17297,N,06839.60080,W,1.893,198.82,180924,,,D*7D
$GPVTG,198.82,T,,M,1.893,N,3.506,K,D*31
$GPGGA,173944.00,4506.17297,N,06839.60080,W,2,07,1.37,37.3,M,-29.0,M,,0000*55
$GPGSA,A,3,18,24,12,15,23,10,32,,,,,,2.33,1.37,1.89*0C
$GPGSV,4,1,13,10,62,308,42,12,18,121,34,15,18,083,35,18,15,187,21*79
$GPGSV,4,2,13,21,09,328,,22,03,025,,23,74,136,37,24,54,063,37*7E
$GPGSV,4,3,13,25,07,155,,28,06,214,18,32,39,273,38,46,12,248,*76
$GPGSV,4,4,13,48,15,245,*40
$GPGLL,4506.17297,N,06839.60080,W,173944.00,A,D*75
$RDENS,4319,4918306,PC
$GPRMC,173945.00,A,4506.17249,N,06839.60109,W,2.014,200.66,180924,,,D*73
$GPVTG,200.66,T,,M,2.014,N,3.730,K,D*3A
$GPGGA,173945.00,4506.17249,N,06839.60109,W,2,07,1.37,37.4,M,-29.0,M,,0000*50
$GPGSA,A,3,18,24,12,15,23,10,32,,,,,,2.33,1.37,1.89*0C
$GPGSV,4,1,13,10,62,308,43,12,18,121,34,15,18,083,35,18,15,187,21*78
$GPGSV,4,2,13,21,09,328,,22,03,025,,23,74,136,37,24,54,063,37*7E
$GPGSV,4,3,13,25,07,155,,28,06,214,18,32,39,273,38,46,12,248,*76
$GPGSV,4,4,13,48,15,245,*40
$GPGLL,4506.17249,N,06839.60109,W,173945.00,A,D*77
$RDENS,4320,4918384,PC
$GPRMC,173946.00,A,4506.17197,N,06839.60140,W,2.160,201.61,180924,,,D*79
$GPVTG,201.61,T,,M,2.160,N,4.000,K,D*3D
$GPGGA,173946.00,4506.17197,N,06839.60140,W,2,07,1.37,37.5,M,-29.0,M,,0000*5F
$GPGSA,A,3,18,24,12,15,23,10,32,,,,,,2.33,1.37,1.89*0C
$GPGSV,4,1,13,10,62,308,43,12,18,121,35,15,18,083,35,18,15,187,19*72
$GPGSV,4,2,13,21,09,328,,22,03,025,,23,74,136,37,24,54,063,36*7F
$GPGSV,4,3,13,25,07,155,,28,06,214,,32,39,273,38,46,12,248,*7F
$GPGSV,4,4,13,48,15,245,*40
$GPGLL,4506.17197,N,06839.60140,W,173946.00,A,D*79
$RDENS,4321,4918463,PC
$GPRMC,173947.00,A,4506.17144,N,06839.60169,W,2.187,201.69,180924,,,D*7C
$GPVTG,201.69,T,,M,2.187,N,4.051,K,D*38
$GPGGA,173947.00,4506.17144,N,06839.60169,W,2,07,1.37,37.6,M,-29.0,M,,0000*58
$GPGSA,A,3,18,24,12,15,23,10,32,,,,,,2.33,1.37,1.89*0C
$GPGSV,4,1,13,10,62,308,42,12,18,121,34,15,18,083,35,18,15,187,18*73
$GPGSV,4,2,13,21,09,328,,22,03,025,,23,74,136,36,24,54,063,37*7F
$GPGSV,4,3,13,25,07,155,,28,06,214,,32,39,273,38,46,12,248,*7F
$GPGSV,4,4,13,48,15,245,*40
$GPGLL,4506.17144,N,06839.60169,W,173947.00,A,D*7D
$RDENS,4322,4918542,PC
$RDENS,4323,4918621,PC
$GPRMC,173948.00,A,4506.17092,N,06839.60207,W,2.350,204.11,180924,,,D*70
$GPVTG,204.11,T,,M,2.350,N,4.351,K,D*39
$GPGGA,173948.00,4506.17092,N,06839.60207,W,2,07,1.37,37.5,M,-29.0,M,,0000*55
$GPGSA,A,3,18,24,12,15,23,10,32,,,,,,2.33,1.37,1.89*0C
$GPGSV,4,1,13,10,62,308,42,12,18,121,33,15,18,083,35,18,15,187,18*74
$GPGSV,4,2,13,21,09,328,16,22,03,025,,23,74,136,36,24,54,063,37*78
$GPGSV,4,3,13,25,07,155,,28,06,214,24,32,39,273,38,46,12,248,*79
$GPGSV,4,4,13,48,15,245,27*45
$GPGLL,4506.17092,N,06839.60207,W,173948.00,A,D*73
$RDENS,4324,4918700,PC
$GPRMC,173949.00,A,4506.17038,N,06839.60238,W,2.250,202.08,180924,,,D*72
$GPVTG,202.08,T,,M,2.250,N,4.168,K,D*3E
$GPGGA,173949.00,4506.17038,N,06839.60238,W,2,08,1.28,37.7,M,-29.0,M,,0000*5B
$GPGSA,A,3,18,24,12,15,23,10,32,48,,,,,2.07,1.28,1.63*0D
$GPGSV,4,1,13,10,62,308,43,12,18,121,33,15,18,083,34,18,15,187,22*7D
$GPGSV,4,2,13,21,09,328,15,22,03,025,13,23,74,136,37,24,54,063,38*77
$GPGSV,4,3,13,25,07,155,,28,06,214,,32,39,273,38,46,12,248,*7F
$GPGSV,4,4,13,48,15,245,27*45
$GPGLL,4506.17038,N,06839.60238,W,173949.00,A,D*7E
$RDENS,4325,4918778,PC
$GPRMC,173950.00,A,4506.16986,N,06839.60269,W,2.221,203.74,180924,,,D*7F
$GPVTG,203.74,T,,M,2.221,N,4.113,K,D*3E
$GPGGA,173950.00,4506.16986,N,06839.60269,W,2,08,1.37,37.8,M,-29.0,M,,0000*5B
$GPGSA,A,3,18,24,12,15,23,10,32,48,,,,,2.33,1.37,1.89*00
$GPGSV,4,1,13,10,62,308,42,12,18,121,30,15,18,083,34,18,15,187,25*78
$GPGSV,4,2,13,21,09,328,,22,03,025,13,23,74,136,37,24,54,063,38*73
$GPGSV,4,3,13,25,07,155,,28,06,214,,32,39,273,41,46,12,248,*71
$GPGSV,4,4,13,48,15,245,28*4A
$GPGLL,4506.16986,N,06839.60269,W,173950.00,A,D*7F
$RDENS,4326,4918857,PC
$GPRMC,173951.00,A,4506.16935,N,06839.60306,W,2.277,205.36,180924,,,D*7D
$GPVTG,205.36,T,,M,2.277,N,4.218,K,D*35
$GPGGA,173951.00,4506.16935,N,06839.60306,W,2,07,1.37,37.9,M,-29.0,M,,0000*54
$GPGSA,A,3,18,24,12,15,23,10,32,,,,,,2.33,1.37,1.89*0C
$GPGSV,4,1,13,10,62,308,41,12,18,121,30,15,18,083,34,18,15,187,27*79
$GPGSV,4,2,13,21,09,328,18,22,03,025,12,23,74,136,37,24,54,063,38*7B
$GPGSV,4,3,13,25,07,155,,28,06,214,,32,39,273,40,46,12,248,27*75
$GPGSV,4,4,13,48,15,245,*40
$GPGLL,4506.16935,N,06839.60306,W,173951.00,A,D*7E
$RDENS,4327,4918936,PC
$RDENS,4328,4919014,PC
$GPRMC,173952.00,A,4506.16885,N,06839.60350,W,2.420,207.50,180924,,,D*71
$GPVTG,207.50,T,,M,2.420,N,4.483,K,D*37
$GPGGA,173952.00,4506.16885,N,06839.60350,W,2,08,1.26,37.8,M,-29.0,M,,0000*50
$GPGSA,A,3,18,24,12,15,23,10,32,46,,,,,2.00,1.26,1.56*0C
$GPGSV,4,1,13,10,62,308,41,12,18,121,30,15,18,083,32,18,15,187,27*7F
$GPGSV,4,2,13,21,09,328,16,22,03,025,,23,74,136,37,24,54,063,38*76
$GPGSV,4,3,13,25,07,155,,28,06,214,25,32,39,273,40,46,12,248,27*72
$GPGSV,4,4,13,48,15,245,*40
$GPGLL,4506.16885,N,06839.60350,W,173952.00,A,D*74
$RDENS,4329,4919093,PC
$GPRMC,173953.00,A,4506.16835,N,06839.60404,W,2.533,210.91,180924,,,D*75
$GPVTG,210.91,T,,M,2.533,N,4.691,K,D*3E
$GPGGA,173953.00,4506.16835,N,06839.60404,W,2,08,1.26,37.6,M,-29.0,M,,0000*52
$GPGSA,A,3,18,24,12,15,23,10,32,46,,,,,2.00,1.26,1.56*0C
$GPGSV,4,1,13,10,62,308,41,12,18,121,31,15,18,083,26,18,15,187,26*7A
$GPGSV,4,2,13,21,09,328,,22,03,025,,23,74,136,37,24,54,063,38*71
$GPGSV,4,3,13,25,07,155,,28,06,214,24,32,39,273,40,46,12,248,27*73
$GPGSV,4,4,13,48,15,245,*40
$GPGLL,4506.16835,N,06839.60404,W,173953.00,A,D*78
$RDENS,4330,4919171,PC
$GPRMC,173954.00,A,4506.16779,N,06839.60453,W,2.240,211.85,180924,,,D*70
$GPVTG,211.85,T,,M,2.240,N,4.148,K,D*3A
$GPGGA,173954.00,4506.16779,N,06839.60453,W,2,07,1.37,37.6,M,-29.0,M,,0000*5F
$GPGSA,A,3,18,24,12,15,23,10,32,,,,,,2.33,1.37,1.89*0C
$GPGSV,4,1,13,10,62,308,40,12,18,121,32,15,18,083,26,18,15,187,24*7A
$GPGSV,4,2,13,21,09,328,,22,03,025,,23,74,136,37,24,54,063,38*71
$GPGSV,4,3,13,25,07,155,06,28,06,214,21,32,39,273,39,46,12,248,*7B
$GPGSV,4,4,13,48,15,245,*40
$GPGLL,4506.16779,N,06839.60453,W,173954.00,A,D*7A
$RDENS,4331,4919250,PC
$GPRMC,173955.00,A,4506.16726,N,06839.60502,W,2.374,211.81,180924,,,D*7C
$GPVTG,211.81,T,,M,2.374,N,4.396,K,D*39
$GPGGA,173955.00,4506.16726,N,06839.60502,W,2,07,1.37,37.7,M,-29.0,M,,0000*50
$GPGSA,A,3,18,24,12,15,23,10,32,,,,,,2.33,1.37,1.89*0C
$GPGSV,4,1,13,10,62,308,40,12,18,121,31,15,18,083,25,18,15,187,21*7F
$GPGSV,4,2,13,21,09,328,,22,03,025,,23,74,136,36,24,54,063,37*7F
$GPGSV,4,3,13,25,07,155,08,28,06,214,19,32,39,273,39,46,12,248,*7E
$GPGSV,4,4,13,48,15,245,*40
$GPGLL,4506.16726,N,06839.60502,W,173955.00,A,D*74
$RDENS,4332,4919329,PC
$RDENS,4333,4919407,PC
$GPRMC,173956.00,A,4506.16671,N,06839.60553,W,2.424,212.79,180924,,,D*7E
$GPVTG,212.79,T,,M,2.424,N,4.488,K,D*37
$GPGGA,173956.00,4506.16671,N,06839.60553,W,2,07,1.37,37.8,M,-29.0,M,,0000*5B
$GPGSA,A,3,18,24,12,15,23,10,32,,,,,,2.33,1.37,1.89*0C
$GPGSV,4,1,13,10,62,308,40,12,18,121,32,15,18,083,24,18,15,187,17*78
$GPGSV,4,2,13,21,09,328,,22,03,025,,23,74,136,36,24,54,063,37*7F
$GPGSV,4,3,13,25,07,155,10,28,06,214,,32,39,273,39,46,12,248,*7F
$GPGSV,4,4,13,48,15,245,27*45
$GPGLL,4506.16671,N,06839.60553,W,173956.00,A,D*70
$RDENS,4334,4919486,PC
$GPRMC,173957.00,A,4506.16627,N,06839.60596,W,1.689,214.10,180924,,,D*7A
$GPVTG,214.10,T,,M,1.689,N,3.129,K,D*31
$GPGGA,173957.00,4506.16627,N,06839.60596,W,2,08,1.28,38.1,M,-29.0,M,,0000*57
$GPGSA,A,3,18,24,12,15,23,10,32,48,,,,,2.07,1.28,1.63*0D
$GPGSV,4,1,13,10,62,308,40,12,18,121,32,15,18,083,22,18,15,187,15*7C
$GPGSV,4,2,13,21,09,328,,22,03,025,,23,74,136,36,24,54,063,37*7F
$GPGSV,4,3,13,25,07,155,10,28,06,214,,32,39,273,38,46,12,248,*7E
$GPGSV,4,4,13,48,15,245,27*45
$GPGLL,4506.16627,N,06839.60596,W,173957.00,A,D*7B
$RDENS,4335,4919564,PC
$GPRMC,173958.00,A,4506.16579,N,06839.60650,W,2.412,214.71,180924,,,D*70
$GPVTG,214.71,T,,M,2.412,N,4.467,K,D*3D
$GPGGA,173958.00,4506.16579,N,06839.60650,W,2,07,1.66,38.2,M,-29.0,M,,0000*5F
$GPGSA,A,3,24,12,15,23,10,32,48,,,,,,2.34,1.66,1.65*08
$GPGSV,4,1,13,10,62,308,41,12,18,121,31,15,18,083,20,18,15,187,*78
$GPGSV,4,2,13,21,09,328,,22,03,025,,23,74,136,37,24,54,063,38*71
$GPGSV,4,3,13,25,07,155,11,28,06,214,,32,39,273,38,46,12,248,*7F
$GPGSV,4,4,13,48,15,245,28*4A
$GPGLL,4506.16579,N,06839.60650,W,173958.00,A,D*75
$RDENS,4336,4919644,PC
$RDENS,4337,4919722,PC
$GPRMC,173959.00,A,4506.16525,N,06839.60708,W,2.462,214.33,180924,,,D*75
$GPVTG,214.33,T,,M,2.462,N,4.560,K,D*3A
$GPGGA,173959.00,4506.16525,N,06839.60708,W,2,08,1.47,38.3,M,-29.0,M,,0000*56
$GPGSA,A,3,24,12,15,25,23,10,32,48,,,,,2.37,1.47,1.86*02
$GPGSV,4,1,13,10,62,308,40,12,18,121,30,15,18,083,17,18,15,187,*7C
$GPGSV,4,2,13,21,09,328,,22,03,025,,23,74,136,36,24,54,063,37*7F
$GPGSV,4,3,13,25,07,155,13,28,06,214,,32,39,273,38,46,12,248,*7D
$GPGSV,4,4,13,48,15,245,27*45
$GPGLL,4506.16525,N,06839.60708,W,173959.00,A,D*71
$RDENS,4338,4919800,PC
$GPRMC,174000.00,A,4506.16471,N,06839.60767,W,2.395,214.60,180924,,,D*77
$GPVTG,214.60,T,,M,2.395,N,4.436,K,D*31
$GPGGA,174000.00,4506.16471,N,06839.60767,W,2,07,1.47,38.4,M,-29.0,M,,0000*55
$GPGSA,A,3,24,12,15,25,23,10,32,,,,,,2.37,1.47,1.86*0E
$GPGSV,4,1,13,10,62,308,40,12,18,121,31,15,18,083,15,18,15,187,*7F
$GPGSV,4,2,13,21,09,328,,22,03,025,,23,74,136,33,24,54,063,38*75
$GPGSV,4,3,13,25,07,155,15,28,06,214,,32,39,273,38,46,12,248,*7B
$GPGSV,4,4,13,48,15,245,*40
$GPGLL,4506.16471,N,06839.60767,W,174000.00,A,D*7A
$RDENS,4339,4919880,PC
$GPRMC,174001.00,A,4506.16413,N,06839.60827,W,2.556,214.18,180924,,,D*7F
$GPVTG,214.18,T,,M,2.556,N,4.735,K,D*37
$GPGGA,174001.00,4506.16413,N,06839.60827,W,2,07,1.47,38.4,M,-29.0,M,,0000*5B
$GPGSA,A,3,24,12,15,25,23,10,32,,,,,,2.37,1.47,1.86*0E
$GPGSV,4,1,13,10,62,308,40,12,18,121,32,15,18,083,19,18,15,187,*70
$GPGSV,4,2,13,21,09,328,,22,03,025,,23,74,136,36,24,54,063,38*70
$GPGSV,4,3,13,25,07,155,15,28,06,214,,32,39,273,37,46,12,248,*74
$GPGSV,4,4,13,48,15,245,*40
$GPGLL,4506.16413,N,06839.60827,W,174001.00,A,D*74
$RDENS,4340,4919958,PC
$GPRMC,174002.00,A,4506.16354,N,06839.60886,W,2.499,214.45,180924,,,D*79
$GPVTG,214.45,T,,M,2.499,N,4.629,K,D*31
$GPGGA,174002.00,4506.16354,N,06839.60886,W,2,08,1.37,38.4,M,-29.0,M,,0000*5F
$GPGSA,A,3,24,12,15,25,23,10,32,48,,,,,2.14,1.37,1.65*09
$GPGSV,4,1,13,10,62,308,39,12,18,121,33,15,18,083,23,18,15,187,*76
$GPGSV,4,2,13,21,09,328,,22,03,025,,23,74,136,35,24,54,063,38*73
$GPGSV,4,3,13,25,07,155,14,28,06,214,,32,39,273,37,46,12,248,*75
$GPGSV,4,4,13,48,15,245,29*4B
$GPGLL,4506.16354,N,06839.60886,W,174002.00,A,D*78
$RDENS,4341,4920037,PC
$RDENS,4342,4920116,PC
$GPRMC,174003.00,A,4506.16293,N,06839.60949,W,2.461,215.34,180924,,,D*70
$GPVTG,215.34,T,,M,2.461,N,4.558,K,D*34
$GPGGA,174003.00,4506.16293,N,06839.60949,W,2,08,1.37,38.4,M,-29.0,M,,0000*56
$GPGSA,A,3,24,12,15,25,23,10,32,48,,,,,2.14,1.37,1.65*09
$GPGSV,4,1,13,10,62,308,39,12,18,121,33,15,18,083,22,18,15,187,*77
$GPGSV,4,2,13,21,09,328,,22,03,025,,23,74,136,34,24,54,063,39*73
$GPGSV,4,3,13,25,07,155,13,28,06,214,,32,39,273,36,46,12,248,28*79
$GPGSV,4,4,13,48,15,245,30*43
$GPGLL,4506.16293,N,06839.60949,W,174003.00,A,D*71
$RDENS,4343,4920195,PC
$GPRMC,174004.00,A,4506.16233,N,06839.61010,W,2.131,216.80,180924,,,D*75
$GPVTG,216.80,T,,M,2.131,N,3.947,K,D*3D
$GPGGA,174004.00,4506.16233,N,06839.61010,W,2,09,1.34,38.7,M,-29.0,M,,0000*5E
$GPGSA,A,3,24,12,15,25,23,10,32,46,48,,,,2.04,1.34,1.54*0B
$GPGSV,4,1,13,10,62,308,38,12,18,121,34,15,18,083,20,18,15,187,23*72
$GPGSV,4,2,13,21,09,328,,22,03,025,,23,74,136,34,24,54,063,39*73
$GPGSV,4,3,13,25,07,155,13,28,06,214,,32,39,273,35,46,12,248,29*7B
$GPGSV,4,4,13,48,15,245,30*43
$GPGLL,4506.16233,N,06839.61010,W,174004.00,A,D*78
$RDENS,4344,4920274,PC
$GPRMC,174005.00,A,4506.16172,N,06839.61082,W,2.785,218.90,180924,,,D*7F
$GPVTG,218.90,T,,M,2.785,N,5.159,K,D*3A
$GPGGA,174005.00,4506.16172,N,06839.61082,W,2,09,1.34,38.6,M,-29.0,M,,0000*53
$GPGSA,A,3,24,12,15,25,23,10,32,46,48,,,,2.04,1.34,1.54*0B
$GPGSV,4,1,13,10,62,308,37,12,18,121,35,15,18,083,18,18,15,187,26*72
$GPGSV,4,2,13,21,09,328,,22,03,025,,23,74,136,35,24,54,063,39*72
$GPGSV,4,3,13,25,07,155,13,28,06,214,,32,39,273,33,46,12,248,29*7D
$GPGSV,4,4,13,48,15,245,28*4A
$GPGLL,4506.16172,N,06839.61082,W,174005.00,A,D*74
$RDENS,4345,4920352,PC
$GPRMC,174006.00,A,4506.16118,N,06839.61153,W,2.610,221.42,180924,,,D*75
$GPVTG,221.42,T,,M,2.610,N,4.834,K,D*31
$GPGGA,174006.00,4506.16118,N,06839.61153,W,2,09,1.18,38.5,M,-29.0,M,,0000*5C
$GPGSA,A,3,18,24,12,15,25,23,10,32,46,,,,1.95,1.18,1.55*0A
$GPGSV,4,1,13,10,62,308,36,12,18,121,36,15,18,083,23,18,15,187,26*78
$GPGSV,4,2,13,21,09,328,22,22,03,025,,23,74,136,36,24,54,063,36*7E
$GPGSV,4,3,13,25,07,155,13,28,06,214,,32,39,273,33,46,12,248,28*7C
$GPGSV,4,4,13,48,15,245,*40
$GPGLL,4506.16118,N,06839.61153,W,174006.00,A,D*76
$RDENS,4346,4920431,PC
$RDENS,4347,4920510,PC
$GPRMC,174007.00,A,4506.16068,N,06839.61221,W,2.439,222.85,180924,,,D*75
$GPVTG,222.85,T,,M,2.439,N,4.517,K,D*3C
$GPGGA,174007.00,4506.16068,N,06839.61221,W,2,08,1.33,38.5,M,-29.0,M,,0000*55
$GPGSA,A,3,18,24,12,15,25,23,10,32,,,,,2.29,1.33,1.86*0B
$GPGSV,4,1,13,10,62,308,36,12,18,121,35,15,18,083,26,18,15,187,27*7F
$GPGSV,4,2,13,21,09,328,19,22,03,025,,23,74,136,36,24,54,063,36*76
$GPGSV,4,3,13,25,07,155,13,28,06,214,,32,39,273,33,46,12,248,*76
$GPGSV,4,4,13,48,15,245,*40
$GPGLL,4506.16068,N,06839.61221,W,174007.00,A,D*77
$RDENS,4348,4920587,PC
$GPRMC,174008.00,A,4506.16015,N,06839.61290,W,2.512,224.00,180924,,,D*79
$GPVTG,224.00,T,,M,2.512,N,4.652,K,D*3D
$GPGGA,174008.00,4506.16015,N,06839.61290,W,2,08,1.33,38.6,M,-29.0,M,,0000*59
$GPGSA,A,3,18,24,12,15,25,23,10,32,,,,,2.29,1.33,1.86*0B
$GPGSV,4,1,13,10,62,308,36,12,18,121,34,15,18,083,29,18,15,187,27*71
$GPGSV,4,2,13,21,09,328,14,22,03,025,,23,74,136,36,24,54,063,36*7B
$GPGSV,4,3,13,25,07,155,07,28,06,214,,32,39,273,33,46,12,248,*73
$GPGSV,4,4,13,48,15,245,*40
$GPGLL,4506.16015,N,06839.61290,W,174008.00,A,D*78
$RDENS,4349,4920667,PC
$GPRMC,174009.00,A,4506.15969,N,06839.61358,W,2.462,225.16,180924,,,D*7C
$GPVTG,225.16,T,,M,2.462,N,4.559,K,D*35
$GPGGA,174009.00,4506.15969,N,06839.61358,W,2,08,1.33,38.5,M,-29.0,M,,0000*5F
$GPGSA,A,3,18,24,12,15,25,23,10,32,,,,,2.29,1.33,1.86*0B
$GPGSV,4,1,13,10,62,308,36,12,18,121,35,15,18,083,29,18,15,187,27*70
$GPGSV,4,2,13,21,09,328,12,22,03,025,,23,74,136,36,24,54,063,36*7D
$GPGSV,4,3,13,25,07,155,07,28,06,214,,32,39,273,33,46,12,248,*73
$GPGSV,4,4,13,48,15,245,*40
$GPGLL,4506.15969,N,06839.61358,W,174009.00,A,D*7D
$RDENS,4350,4920746,PC
$GPRMC,174010.00,A,4506.15918,N,06839.61426,W,2.490,225.02,180924,,,D*74
$GPVTG,225.02,T,,M,2.490,N,4.611,K,D*32
$GPGGA,174010.00,4506.15918,N,06839.61426,W,2,07,1.37,38.5,M,-29.0,M,,0000*54
$GPGSA,A,3,18,24,12,15,23,10,32,,,,,,2.33,1.37,1.89*0C
$GPGSV,4,1,13,10,62,308,36,12,18,121,35,15,18,083,27,18,15,187,27*7E
$GPGSV,4,2,13,21,09,328,,22,03,025,,23,74,136,36,24,54,063,36*7E
$GPGSV,4,3,13,25,07,155,07,28,06,214,,32,39,273,35,46,12,248,*75
$GPGSV,4,4,13,48,15,245,*40
$GPGLL,4506.15918,N,06839.61426,W,174010.00,A,D*7D
$RDENS,4351,4920824,PC
$RDENS,4352,4920903,PC
$GPRMC,174011.00,A,4506.15868,N,06839.61495,W,2.480,225.86,180924,,,D*76
$GPVTG,225.86,T,,M,2.480,N,4.593,K,D*36
$GPGGA,174011.00,4506.15868,N,06839.61495,W,2,07,1.37,38.5,M,-29.0,M,,0000*5B
$GPGSA,A,3,18,24,12,15,23,10,32,,,,,,2.33,1.37,1.89*0C
$GPGSV,4,1,13,10,62,308,36,12,18,121,36,15,18,083,25,18,15,187,27*7F
$GPGSV,4,2,13,21,09,328,17,22,03,025,,23,74,136,36,24,54,063,37*79
$GPGSV,4,3,13,25,07,155,07,28,06,214,,32,39,273,35,46,12,248,*75
$GPGSV,4,4,13,48,15,245,*40
$GPGLL,4506.15868,N,06839.61495,W,174011.00,A,D*72
$RDENS,4353,4920981,PC
$GPRMC,174012.00,A,4506.15816,N,06839.61565,W,2.567,225.53,180924,,,D*72
$GPVTG,225.53,T,,M,2.567,N,4.753,K,D*38
$GPGGA,174012.00,4506.15816,N,06839.61565,W,2,07,1.37,38.5,M,-29.0,M,,0000*5F
$GPGSA,A,3,18,24,12,15,23,10,32,,,,,,2.33,1.37,1.89*0C
$GPGSV,4,1,13,10,62,308,36,12,18,121,35,15,18,083,26,18,15,187,27*7F
$GPGSV,4,2,13,21,09,328,17,22,03,025,,23,74,136,36,24,54,063,37*79
$GPGSV,4,3,13,25,07,155,07,28,06,214,,32,39,273,34,46,12,248,*74
$GPGSV,4,4,13,48,15,245,*40
$GPGLL,4506.15816,N,06839.61565,W,174012.00,A,D*76
$RDENS,4354,4921060,PC
$GPRMC,174013.00,A,4506.15767,N,06839.61637,W,2.524,226.71,180924,,,D*7A
$GPVTG,226.71,T,,M,2.524,N,4.675,K,D*39
$GPGGA,174013.00,4506.15767,N,06839.61637,W,2,07,1.37,38.4,M,-29.0,M,,0000*52
$GPGSA,A,3,18,24,12,15,23,10,32,,,,,,2.33,1.37,1.89*0C
$GPGSV,4,1,13,10,62,308,35,12,18,121,35,15,18,083,26,18,15,187,27*7C
$GPGSV,4,2,13,21,09,328,15,22,03,025,,23,74,136,36,24,54,063,37*7B
$GPGSV,4,3,13,25,07,155,07,28,06,214,,32,39,273,33,46,12,248,*73
$GPGSV,4,4,13,48,15,245,*40
$GPGLL,4506.15767,N,06839.61637,W,174013.00,A,D*7A
$RDENS,4355,4921138,PC
$RDENS,4356,4921217,PC
$GPRMC,174014.00,A,4506.15716,N,06839.61708,W,2.534,226.41,180924,,,D*74
$GPVTG,226.41,T,,M,2.534,N,4.693,K,D*33
$GPGGA,174014.00,4506.15716,N,06839.61708,W,2,07,1.37,38.4,M,-29.0,M,,0000*5E
$GPGSA,A,3,18,24,12,15,23,10,32,,,,,,2.33,1.37,1.89*0C
$GPGSV,4,1,13,10,62,308,35,12,18,121,35,15,18,083,27,18,14,187,26*7D
$GPGSV,4,2,13,21,09,328,14,22,03,025,,23,74,136,36,24,54,063,37*7A
$GPGSV,4,3,13,25,07,155,13,28,06,214,,32,39,273,34,46,12,248,*71
$GPGSV,4,4,13,48,15,245,*40
$GPGLL,4506.15716,N,06839.61708,W,174014.00,A,D*76
$RDENS,4357,4921296,PC
$GPRMC,174015.00,A,4506.15669,N,06839.61778,W,2.472,227.04,180924,,,D*78
$GPVTG,227.04,T,,M,2.472,N,4.578,K,D*36
$GPGGA,174015.00,4506.15669,N,06839.61778,W,2,07,1.37,38.4,M,-29.0,M,,0000*51
$GPGSA,A,3,18,24,12,15,23,10,32,,,,,,2.33,1.37,1.89*0C
$GPGSV,4,1,13,10,62,308,36,12,18,121,35,15,18,083,28,18,14,187,26*71
$GPGSV,4,2,13,21,09,328,12,22,03,025,,23,74,136,36,24,54,063,36*7D
$GPGSV,4,3,13,25,07,155,13,28,06,214,,32,39,273,33,46,12,248,*76
$GPGSV,4,4,13,48,15,245,*40
$GPGLL,4506.15669,N,06839.61778,W,174015.00,A,D*79
$RDENS,4358,4921374,PC
$GPRMC,174016.00,A,4506.15623,N,06839.61849,W,2.573,226.61,180924,,,D*7A
$GPVTG,226.61,T,,M,2.573,N,4.765,K,D*3A
$GPGGA,174016.00,4506.15623,N,06839.61849,W,2,08,1.33,38.3,M,-29.0,M,,0000*5D
$GPGSA,A,3,18,24,12,15,25,23,10,32,,,,,2.29,1.33,1.86*0B
$GPGSV,4,1,13,10,62,308,35,12,18,121,35,15,18,083,28,18,14,187,26*72
$GPGSV,4,2,13,21,09,328,09,22,03,025,,23,74,136,36,24,54,063,36*77
$GPGSV,4,3,13,25,07,155,13,28,06,214,,32,39,273,33,46,12,248,*76
$GPGSV,4,4,13,48,15,245,*40
$GPGLL,4506.15623,N,06839.61849,W,174016.00,A,D*79
$RDENS,4359,4921454,PC
$GPRMC,174017.00,A,4506.15574,N,06839.61918,W,2.540,226.18,180924,,,D*71
$GPVTG,226.18,T,,M,2.540,N,4.704,K,D*33
$GPGGA,174017.00,4506.15574,N,06839.61918,W,2,08,1.33,38.3,M,-29.0,M,,0000*58
$GPGSA,A,3,18,24,12,15,25,23,10,32,,,,,2.29,1.33,1.86*0B
$GPGSV,4,1,13,10,62,308,35,12,18,121,34,15,18,083,26,18,14,187,27*7C
$GPGSV,4,2,13,21,09,327,09,22,03,025,,23,74,136,36,24,54,063,35*7B
$GPGSV,4,3,13,25,07,155,13,28,06,214,,32,39,273,34,46,12,248,*71
$GPGSV,4,4,13,48,15,245,*40
$GPGLL,4506.15574,N,06839.61918,W,174017.00,A,D*7C
$RDENS,4360,4921531,PC
$RDENS,4361,4921611,PC
$GPRMC,174018.00,A,4506.15526,N,06839.61987,W,2.469,226.45,180924,,,D*7D
$GPVTG,226.45,T,,M,2.469,N,4.572,K,D*32
$GPGGA,174018.00,4506.15526,N,06839.61987,W,2,08,1.33,38.3,M,-29.0,M,,0000*56
$GPGSA,A,3,18,24,12,15,25,23,10,32,,,,,2.29,1.33,1.86*0B
$GPGSV,4,1,13,10,62,308,36,12,18,121,35,15,18,083,25,18,14,187,26*7C
$GPGSV,4,2,13,21,09,327,10,22,03,025,,23,74,136,36,24,54,063,36*70
$GPGSV,4,3,13,25,07,155,13,28,06,214,,32,39,273,34,46,12,248,*71
$GPGSV,4,4,13,48,15,245,*40
$GPGLL,4506.15526,N,06839.61987,W,174018.00,A,D*72
$RDENS,4362,4921689,PC
$GPRMC,174019.00,A,4506.15477,N,06839.62058,W,2.558,225.51,180924,,,D*74
$GPVTG,225.51,T,,M,2.558,N,4.738,K,D*3B
$GPGGA,174019.00,4506.15477,N,06839.62058,W,2,08,1.33,38.2,M,-29.0,M,,0000*5B
$GPGSA,A,3,18,24,12,15,25,23,10,32,,,,,2.29,1.33,1.86*0B
$GPGSV,4,1,13,10,62,308,36,12,18,121,36,15,18,083,22,18,14,187,26*78
$GPGSV,4,2,13,21,09,327,,22,03,025,,23,74,136,36,24,54,063,37*70
$GPGSV,4,3,13,25,07,155,13,28,06,214,18,32,39,273,33,46,12,248,*7F
$GPGSV,4,4,13,48,15,245,*40
$GPGLL,4506.15477,N,06839.62058,W,174019.00,A,D*7E
$RDENS,4363,4921768,PC
$GPRMC,174020.00,A,4506.15429,N,06839.62128,W,2.416,226.04,180924,,,D*7B
$GPVTG,226.04,T,,M,2.416,N,4.475,K,D*39
$GPGGA,174020.00,4506.15429,N,06839.62128,W,2,08,1.33,38.2,M,-29.0,M,,0000*5C
$GPGSA,A,3,18,24,12,15,25,23,10,32,,,,,2.29,1.33,1.86*0B
$GPGSV,4,1,13,10,62,308,36,12,18,121,36,15,18,083,22,18,14,187,26*78
$GPGSV,4,2,13,21,09,327,,22,03,025,,23,74,136,36,24,54,062,37*71
$GPGSV,4,3,13,25,07,155,08,28,06,214,18,32,39,273,33,46,12,248,27*70
$GPGSV,4,4,13,48,15,245,*40
$GPGLL,4506.15429,N,06839.62128,W,174020.00,A,D*79
$RDENS,4364,4921847,PC
$GPRMC,174021.00,A,4506.15373,N,06839.62190,W,2.364,222.63,180924,,,D*76
$GPVTG,222.63,T,,M,2.364,N,4.378,K,D*34
$GPGGA,174021.00,4506.15373,N,06839.62190,W,2,09,1.18,38.5,M,-29.0,M,,0000*59
$GPGSA,A,3,18,24,12,15,25,23,10,32,46,,,,1.95,1.18,1.55*0A
$GPGSV,4,1,13,10,62,308,34,12,18,121,37,15,18,083,23,18,14,187,26*7A
$GPGSV,4,2,13,21,09,327,,22,03,025,,23,74,136,37,24,54,062,37*70
$GPGSV,4,3,13,25,08,155,08,28,06,214,17,32,39,273,32,46,12,248,27*71
$GPGSV,4,4,13,48,15,245,*40
$GPGLL,4506.15373,N,06839.62190,W,174021.00,A,D*73
$RDENS,4365,4921925,PC
$RDENS,4366,4922004,PC
$GPRMC,174022.00,A,4506.15327,N,06839.62256,W,2.492,223.51,180924,,,D*73
$GPVTG,223.51,T,,M,2.492,N,4.616,K,D*37
$GPGGA,174022.00,4506.15327,N,06839.62256,W,2,09,1.33,38.3,M,-29.0,M,,0000*5D
$GPGSA,A,3,18,24,12,15,25,23,10,32,46,,,,2.29,1.33,1.86*09
$GPGSV,4,1,13,10,62,308,34,12,18,121,37,15,18,083,23,18,14,187,26*7A
$GPGSV,4,2,13,21,09,327,,22,03,025,,23,74,136,36,24,54,062,36*70
$GPGSV,4,3,13,25,08,155,08,28,06,214,18,32,39,273,32,46,12,248,26*7F
$GPGSV,4,4,13,48,15,245,*40
$GPGLL,4506.15327,N,06839.62256,W,174022.00,A,D*78
$RDENS,4367,4922082,PC
$GPRMC,174023.00,A,4506.15274,N,06839.62326,W,2.595,223.45,180924,,,D*70
$GPVTG,223.45,T,,M,2.595,N,4.805,K,D*38
$GPGGA,174023.00,4506.15274,N,06839.62326,W,2,08,1.33,38.3,M,-29.0,M,,0000*5C
$GPGSA,A,3,18,24,12,15,25,23,10,32,,,,,2.29,1.33,1.86*0B
$GPGSV,4,1,13,10,62,308,33,12,18,121,37,15,18,083,25,18,14,187,26*7B
$GPGSV,4,2,13,21,09,327,,22,03,025,,23,74,136,36,24,54,062,37*71
$GPGSV,4,3,13,25,08,155,08,28,06,214,17,32,39,273,32,46,12,248,*74
$GPGSV,4,4,13,48,15,245,*40
$GPGLL,4506.15274,N,06839.62326,W,174023.00,A,D*78
$RDENS,4368,4922161,PC
$GPRMC,174024.00,A,4506.15225,N,06839.62395,W,2.472,223.82,180924,,,D*78
$GPVTG,223.82,T,,M,2.472,N,4.577,K,D*33
$GPGGA,174024.00,4506.15225,N,06839.62395,W,2,08,1.33,38.2,M,-29.0,M,,0000*56
$GPGSA,A,3,18,24,12,15,25,23,10,32,,,,,2.29,1.33,1.86*0B
$GPGSV,4,1,13,10,62,308,34,12,18,121,37,15,18,083,23,18,14,187,27*7B
$GPGSV,4,2,13,21,09,327,,22,03,025,,23,74,136,33,24,54,062,37*74
$GPGSV,4,3,13,25,08,155,08,28,07,214,16,32,39,273,32,46,12,248,*74
$GPGSV,4,4,13,48,15,245,*40
$GPGLL,4506.15225,N,06839.62395,W,174024.00,A,D*73
$RDENS,4369,4922240,PC
$RDENS,4370,4922319,PC
$GPRMC,174025.00,A,4506.15173,N,06839.62464,W,2.510,224.01,180924,,,D*79
$GPVTG,224.01,T,,M,2.510,N,4.649,K,D*34
$GPGGA,174025.00,4506.15173,N,06839.62464,W,2,08,1.33,38.2,M,-29.0,M,,0000*5E
$GPGSA,A,3,18,24,12,15,25,23,10,32,,,,,2.29,1.33,1.86*0B
$GPGSV,4,1,13,10,62,308,35,12,18,121,37,15,18,083,23,18,14,187,27*7A
$GPGSV,4,2,13,21,09,327,,22,03,025,,23,74,136,34,24,54,062,37*73
$GPGSV,4,3,13,25,08,155,08,28,07,214,15,32,39,273,32,46,12,248,*77
$GPGSV,4,4,13,48,15,245,*40
$GPGLL,4506.15173,N,06839.62464,W,174025.00,A,D*7B
$RDENS,4371,4922398,PC
$GPRMC,174026.00,A,4506.15121,N,06839.62531,W,2.421,224.28,180924,,,D*74
$GPVTG,224.28,T,,M,2.421,N,4.483,K,D*38
$GPGGA,174026.00,4506.15121,N,06839.62531,W,2,08,1.33,38.2,M,-29.0,M,,0000*5B
$GPGSA,A,3,18,24,12,15,25,23,10,32,,,,,2.29,1.33,1.86*0B
$GPGSV,4,1,13,10,62,308,35,12,18,121,37,15,18,083,24,18,14,187,27*7D
$GPGSV,4,2,13,21,09,327,,22,03,025,,23,74,136,34,24,54,062,37*73
$GPGSV,4,3,13,25,08,155,15,28,07,214,16,32,39,273,32,46,12,248,27*7D
$GPGSV,4,4,13,48,15,245,*40
$GPGLL,4506.15121,N,06839.62531,W,174026.00,A,D*7E
$RDENS,4372,4922476,PC
$GPRMC,174027.00,A,4506.15069,N,06839.62596,W,2.409,224.32,180924,,,D*74
$GPVTG,224.32,T,,M,2.409,N,4.462,K,D*36
$GPGGA,174027.00,4506.15069,N,06839.62596,W,2,08,1.33,38.3,M,-29.0,M,,0000*5B
$GPGSA,A,3,18,24,12,15,25,23,10,32,,,,,2.29,1.33,1.86*0B
$GPGSV,4,1,13,10,62,308,34,12,18,121,37,15,18,083,24,18,14,187,28*73
$GPGSV,4,2,13,21,09,327,,22,03,025,,23,74,136,35,24,54,062,37*72
$GPGSV,4,3,13,25,08,155,15,28,07,214,16,32,39,273,32,46,12,248,*78
$GPGSV,4,4,13,48,15,245,*40
$GPGLL,4506.15069,N,06839.62596,W,174027.00,A,D*7F
$RDENS,4373,4922555,PC
$GPRMC,174028.00,A,4506.15015,N,06839.62660,W,2.460,224.36,180924,,,D*71
$GPVTG,224.36,T,,M,2.460,N,4.555,K,D*38
$GPGGA,174028.00,4506.15015,N,06839.62660,W,2,08,1.33,38.4,M,-29.0,M,,0000*52
$GPGSA,A,3,18,24,12,15,25,23,10,32,,,,,2.29,1.33,1.86*0B
$GPGSV,4,1,13,10,62,308,35,12,18,121,37,15,18,083,24,18,14,187,28*72
$GPGSV,4,2,13,21,09,327,,22,03,025,,23,74,136,35,24,54,062,37*72
$GPGSV,4,3,13,25,08,155,15,28,07,214,18,32,39,273,35,46,12,248,*71
$GPGSV,4,4,13,48,15,245,*40
$GPGLL,4506.15015,N,06839.62660,W,174028.00,A,D*71
$RDENS,4374,4922633,PC
$RDENS,4375,4922712,PC
$GPRMC,174029.00,A,4506.14968,N,06839.62723,W,2.369,224.89,180924,,,D*7E
$GPVTG,224.89,T,,M,2.369,N,4.387,K,D*3B
$GPGGA,174029.00,4506.14968,N,06839.62723,W,2,08,1.33,38.4,M,-29.0,M,,0000*57
$GPGSA,A,3,18,24,12,15,25,23,10,32,,,,,2.29,1.33,1.86*0B
$GPGSV,4,1,13,10,62,308,36,12,18,121,37,15,18,083,25,18,14,187,27*7F
$GPGSV,4,2,13,21,09,327,,22,03,025,,23,74,136,35,24,54,062,36*73
$GPGSV,4,3,13,25,08,155,15,28,07,214,18,32,39,273,35,46,12,248,*71
$GPGSV,4,4,13,48,15,245,*40
$GPGLL,4506.14968,N,06839.62723,W,174029.00,A,D*74
$RDENS,4376,4922791,PC
$GPRMC,174030.00,A,4506.14917,N,06839.62788,W,2.478,224.72,180924,,,D*7C
$GPVTG,224.72,T,,M,2.478,N,4.589,K,D*30
$GPGGA,174030.00,4506.14917,N,06839.62788,W,2,08,1.33,38.5,M,-29.0,M,,0000*57
$GPGSA,A,3,18,24,12,15,25,23,10,32,,,,,2.29,1.33,1.86*0B
$GPGSV,4,1,13,10,62,308,36,12,18,121,37,15,18,083,25,18,14,187,26*7E
$GPGSV,4,2,13,21,09,327,,22,03,025,,23,74,136,35,24,54,062,37*72
$GPGSV,4,3,13,25,08,155,15,28,07,214,17,32,39,273,35,46,12,248,*7E
$GPGSV,4,4,13,48,15,245,*40
$GPGLL,4506.14917,N,06839.62788,W,174030.00,A,D*75
$RDENS,4377,4922870,PC
$GPRMC,174031.00,A,4506.14865,N,06839.62854,W,2.488,224.30,180924,,,D*7E
$GPVTG,224.30,T,,M,2.488,N,4.607,K,D*3C
$GPGGA,174031.00,4506.14865,N,06839.62854,W,2,08,1.33,38.5,M,-29.0,M,,0000*5C
$GPGSA,A,3,18,24,12,15,25,23,10,32,,,,,2.29,1.33,1.86*0B
$GPGSV,4,1,13,10,62,308,36,12,18,121,37,15,18,083,24,18,14,187,27*7E
$GPGSV,4,2,13,21,09,327,,22,03,025,,23,74,136,35,24,54,062,37*72
$GPGSV,4,3,13,25,08,155,15,28,07,214,16,32,39,273,33,46,12,248,*79
$GPGSV,4,4,13,48,15,245,*40
$GPGLL,4506.14865,N,06839.62854,W,174031.00,A,D*7E
$RDENS,4378,4922948,PC
$GPRMC,174032.00,A,4506.14815,N,06839.62917,W,2.327,223.79,180924,,,D*74
$GPVTG,223.79,T,,M,2.327,N,4.310,K,D*37
$GPGGA,174032.00,4506.14815,N,06839.62917,W,2,08,1.33,38.6,M,-29.0,M,,0000*5D
$GPGSA,A,3,18,24,12,15,25,23,10,32,,,,,2.29,1.33,1.86*0B
$GPGSV,4,1,13,10,62,308,36,12,18,121,37,15,18,083,22,18,14,187,25*7A
$GPGSV,4,2,13,21,09,327,,22,03,025,,23,74,136,34,24,54,062,37*73
$GPGSV,4,3,13,25,08,155,13,28,07,214,16,32,39,273,33,46,12,248,28*75
$GPGSV,4,4,13,48,15,245,*40
$GPGLL,4506.14815,N,06839.62917,W,174032.00,A,D*7C
$RDENS,4379,4923027,PC
$RDENS,4380,4923105,PC
$GPRMC,174033.00,A,4506.14758,N,06839.62994,W,2.772,223.56,180924,,,D*71
$GPVTG,223.56,T,,M,2.772,N,5.134,K,D*3B
$GPGGA,174033.00,4506.14758,N,06839.62994,W,2,09,1.18,38.3,M,-29.0,M,,0000*5C
$GPGSA,A,3,18,24,12,15,25,23,10,32,46,,,,1.95,1.18,1.55*0A
$GPGSV,4,1,13,10,62,308,36,12,18,121,38,15,18,083,25,18,14,187,24*73
$GPGSV,4,2,13,21,09,327,,22,03,025,,23,74,136,34,24,54,062,39*7D
$GPGSV,4,3,13,25,08,155,13,28,07,214,16,32,39,273,27,46,12,248,27*7F
$GPGSV,4,4,13,48,15,245,*40
$GPGLL,4506.14758,N,06839.62994,W,174033.00,A,D*70
$RDENS,4381,4923184,PC
$GPRMC,174034.00,A,4506.14698,N,06839.63067,W,2.390,223.50,180924,,,D*71
$GPVTG,223.50,T,,M,2.390,N,4.426,K,D*32
$GPGGA,174034.00,4506.14698,N,06839.63067,W,2,09,1.18,38.3,M,-29.0,M,,0000*52
$GPGSA,A,3,18,24,12,15,25,23,10,32,46,,,,1.95,1.18,1.55*0A
$GPGSV,4,1,13,10,62,308,36,12,18,121,38,15,18,083,25,18,14,187,25*72
$GPGSV,4,2,13,21,09,327,,22,03,025,,23,74,136,33,24,54,062,39*7A
$GPGSV,4,3,13,25,08,155,13,28,07,214,15,32,39,273,32,46,12,248,28*77
$GPGSV,4,4,13,48,15,245,*40
$GPGLL,4506.14698,N,06839.63067,W,174034.00,A,D*7E
$RDENS,4382,4923262,PC
$GPRMC,174035.00,A,4506.14647,N,06839.63150,W,2.551,222.45,180924,,,D*79
$GPVTG,222.45,T,,M,2.551,N,4.725,K,D*3C
$GPGGA,174035.00,4506.14647,N,06839.63150,W,2,09,1.18,38.4,M,-29.0,M,,0000*53
$GPGSA,A,3,18,24,12,15,25,23,10,32,46,,,,1.95,1.18,1.55*0A
$GPGSV,4,1,13,10,62,308,39,12,18,121,37,15,18,083,23,18,14,187,26*77
$GPGSV,4,2,13,21,09,327,21,22,03,025,,23,74,136,36,24,54,062,38*7D
$GPGSV,4,3,13,25,08,155,13,28,07,214,,32,39,273,32,46,12,248,29*72
$GPGSV,4,4,13,48,15,245,28*4A
$GPGLL,4506.14647,N,06839.63150,W,174035.00,A,D*78
$RDENS,4383,4923341,PC
$RDENS,4384,4923420,PC
$GPRMC,174036.00,A,4506.14592,N,06839.63216,W,2.149,221.18,180924,,,D*76
$GPVTG,221.18,T,,M,2.149,N,3.980,K,D*3C
$GPGGA,174036.00,4506.14592,N,06839.63216,W,2,10,1.15,38.8,M,-29.0,M,,0000*53
$GPGSA,A,3,18,24,12,15,25,23,10,32,46,48,,,1.89,1.15,1.50*03
$GPGSV,4,1,13,10,62,308,39,12,18,121,36,15,18,083,19,18,14,187,26*7F
$GPGSV,4,2,13,21,09,327,20,22,03,025,,23,74,136,36,24,54,062,37*73
$GPGSV,4,3,13,25,08,155,13,28,07,214,,32,39,273,32,46,12,248,29*72
$GPGSV,4,4,13,48,15,245,28*4A
$GPGLL,4506.14592,N,06839.63216,W,174036.00,A,D*71
$RDENS,4385,4923498,PC
$GPRMC,174037.00,A,4506.14536,N,06839.63279,W,2.586,220.74,180924,,,D*7C
$GPVTG,220.74,T,,M,2.586,N,4.790,K,D*38
$GPGGA,174037.00,4506.14536,N,06839.63279,W,2,10,1.33,38.9,M,-29.0,M,,0000*50
$GPGSA,A,3,18,24,12,15,25,23,10,32,46,48,,,2.29,1.33,1.86*05
$GPGSV,4,1,13,10,62,308,38,12,18,121,36,15,18,083,16,18,14,187,27*70
$GPGSV,4,2,13,21,09,327,18,22,03,025,,23,74,136,36,24,54,062,36*79
$GPGSV,4,3,13,25,08,155,13,28,07,214,,32,39,273,33,46,12,248,28*72
$GPGSV,4,4,13,48,15,245,27*45
$GPGLL,4506.14536,N,06839.63279,W,174037.00,A,D*77
$RDENS,4386,4923577,PC
$GPRMC,174038.00,A,4506.14481,N,06839.63346,W,2.532,221.54,180924,,,D*7F
$GPVTG,221.54,T,,M,2.532,N,4.688,K,D*3C
$GPGGA,174038.00,4506.14481,N,06839.63346,W,2,08,1.33,39.0,M,-29.0,M,,0000*5E
$GPGSA,A,3,18,24,12,15,25,23,10,32,,,,,2.29,1.33,1.86*0B
$GPGSV,4,1,13,10,62,308,38,12,18,121,36,15,18,083,18,18,14,187,27*7E
$GPGSV,4,2,13,21,09,327,17,22,03,025,,23,74,136,35,24,54,062,36*75
$GPGSV,4,3,13,25,08,155,10,28,07,214,,32,39,273,34,46,12,248,*7C
$GPGSV,4,4,13,48,15,245,*40
$GPGLL,4506.14481,N,06839.63346,W,174038.00,A,D*78
$RDENS,4387,4923656,PC
$GPRMC,174039.00,A,4506.14427,N,06839.63411,W,2.480,221.34,180924,,,D*79
$GPVTG,221.34,T,,M,2.480,N,4.593,K,D*3B
$GPGGA,174039.00,4506.14427,N,06839.63411,W,2,08,1.33,39.1,M,-29.0,M,,0000*57
$GPGSA,A,3,18,24,12,15,25,23,10,32,,,,,2.29,1.33,1.86*0B
$GPGSV,4,1,13,10,62,308,38,12,18,121,35,15,18,083,23,18,14,187,26*74
$GPGSV,4,2,13,21,09,327,17,22,03,025,,23,74,136,36,24,54,062,36*76
$GPGSV,4,3,13,25,08,155,10,28,07,214,,32,39,273,34,46,12,248,*7C
$GPGSV,4,4,13,48,15,245,*40
$GPGLL,4506.14427,N,06839.63411,W,174039.00,A,D*70
$RDENS,4388,4923735,PC
$RDENS,4389,4923814,PC
$GPRMC,174040.00,A,4506.14372,N,06839.63479,W,2.595,221.10,180924,,,D*7D
$GPVTG,221.10,T,,M,2.595,N,4.806,K,D*39
$GPGGA,174040.00,4506.14372,N,06839.63479,W,2,08,1.33,39.1,M,-29.0,M,,0000*50
$GPGSA,A,3,18,24,12,15,25,23,10,32,,,,,2.29,1.33,1.86*0B
$GPGSV,4,1,13,10,62,308,37,12,18,121,36,15,18,083,22,18,14,187,26*79
$GPGSV,4,2,13,21,09,327,19,22,03,025,,23,74,136,36,24,54,062,36*78
$GPGSV,4,3,13,25,08,155,10,28,07,214,,32,39,273,32,46,12,248,*7A
$GPGSV,4,4,13,48,15,245,*40
$GPGLL,4506.14372,N,06839.63479,W,174040.00,A,D*77
$RDENS,4390,4923892,PC
$GPRMC,174041.00,A,4506.14317,N,06839.63548,W,2.586,221.69,180924,,,D*70
$GPVTG,221.69,T,,M,2.586,N,4.790,K,D*35
$GPGGA,174041.00,4506.14317,N,06839.63548,W,2,08,1.33,39.1,M,-29.0,M,,0000*51
$GPGSA,A,3,18,24,12,15,25,23,10,32,,,,,2.29,1.33,1.86*0B
$GPGSV,4,1,13,10,62,308,37,12,18,121,36,15,18,083,20,18,14,187,25*78
$GPGSV,4,2,13,21,09,327,20,22,03,025,,23,74,136,36,24,54,062,37*73
$GPGSV,4,3,13,25,08,155,10,28,07,214,,32,39,273,33,46,12,248,*7B
$GPGSV,4,4,13,48,15,245,*40
$GPGLL,4506.14317,N,06839.63548,W,174041.00,A,D*76
$RDENS,4391,4923971,PC
$GPRMC,174042.00,A,4506.14263,N,06839.63615,W,2.470,222.22,180924,,,D*7E
$GPVTG,222.22,T,,M,2.470,N,4.574,K,D*39
$GPGGA,174042.00,4506.14263,N,06839.63615,W,2,08,1.33,39.1,M,-29.0,M,,0000*5B
$GPGSA,A,3,18,24,12,15,25,23,10,32,,,,,2.29,1.33,1.86*0B
$GPGSV,4,1,13,10,62,308,38,12,18,121,37,15,18,083,18,18,14,187,25*7D
$GPGSV,4,2,13,21,09,327,19,22,03,025,,23,74,136,36,24,54,062,36*78
$GPGSV,4,3,13,25,08,155,10,28,07,214,,32,39,273,33,46,12,248,29*70
$GPGSV,4,4,13,48,15,245,*40
$GPGLL,4506.14263,N,06839.63615,W,174042.00,A,D*7C
$RDENS,4392,4924050,PC
$GPRMC,174043.00,A,4506.14209,N,06839.63685,W,2.626,221.87,180924,,,D*77
$GPVTG,221.87,T,,M,2.626,N,4.863,K,D*3F
$GPGGA,174043.00,4506.14209,N,06839.63685,W,2,09,1.18,39.0,M,-29.0,M,,0000*56
$GPGSA,A,3,18,24,12,15,25,23,10,32,46,,,,1.95,1.18,1.55*0A
$GPGSV,4,1,13,10,62,308,38,12,18,121,36,15,18,083,17,18,14,187,25*73
$GPGSV,4,2,13,21,09,327,19,22,03,025,,23,74,136,36,24,54,062,37*79
$GPGSV,4,3,13,25,08,155,10,28,07,214,,32,39,273,33,46,12,248,29*70
$GPGSV,4,4,13,48,15,245,*40
$GPGLL,4506.14209,N,06839.63685,W,174043.00,A,D*78
$RDENS,4393,4924128,PC
$RDENS,4394,4924207,PC
$GPRMC,174044.00,A,4506.14150,N,06839.63752,W,2.533,221.20,180924,,,D*7E
$GPVTG,221.20,T,,M,2.533,N,4.692,K,D*35
$GPGGA,174044.00,4506.14150,N,06839.63752,W,2,09,1.18,39.0,M,-29.0,M,,0000*55
$GPGSA,A,3,18,24,12,15,25,23,10,32,46,,,,1.95,1.18,1.55*0A
$GPGSV,4,1,13,10,62,308,38,12,18,121,36,15,18,083,16,18,14,187,26*71
$GPGSV,4,2,13,21,09,327,20,22,03,025,,23,74,136,36,24,54,062,38*7C
$GPGSV,4,3,13,25,08,155,12,28,07,214,,32,39,273,33,46,12,248,29*72
$GPGSV,4,4,13,48,15,245,27*45
$GPGLL,4506.14150,N,06839.63752,W,174044.00,A,D*7B
$RDENS,4395,4924285,PC
$GPRMC,174045.00,A,4506.14090,N,06839.63819,W,2.553,220.50,180924,,,D*72
$GPVTG,220.50,T,,M,2.553,N,4.729,K,D*34
$GPGGA,174045.00,4506.14090,N,06839.63819,W,2,10,1.18,39.2,M,-29.0,M,,0000*53
$GPGSA,A,3,18,24,12,15,25,23,10,32,46,48,,,1.95,1.18,1.55*06
$GPGSV,4,1,13,10,62,308,38,12,18,121,35,15,18,083,14,18,14,187,26*70
$GPGSV,4,2,13,21,09,327,20,22,03,025,,23,74,136,36,24,54,062,38*7C
$GPGSV,4,3,13,25,08,155,12,28,07,214,,32,39,273,33,46,12,248,30*7A
$GPGSV,4,4,13,48,15,245,27*45
$GPGLL,4506.14090,N,06839.63819,W,174045.00,A,D*77
$RDENS,4396,4924364,PC
$GPRMC,174046.00,A,4506.14033,N,06839.63885,W,2.471,220.10,180924,,,D*78
$GPVTG,220.10,T,,M,2.471,N,4.577,K,D*38
$GPGGA,174046.00,4506.14033,N,06839.63885,W,2,09,1.18,39.2,M,-29.0,M,,0000*54
$GPGSA,A,3,18,24,12,15,25,23,10,32,46,,,,1.95,1.18,1.55*0A
$GPGSV,4,1,13,10,62,308,38,12,18,121,36,15,18,083,11,18,14,187,26*76
$GPGSV,4,2,13,21,09,327,20,22,03,025,,23,74,136,36,24,54,062,38*7C
$GPGSV,4,3,13,25,08,155,12,28,07,214,,32,39,273,33,46,12,248,29*72
$GPGSV,4,4,13,48,15,245,*40
$GPGLL,4506.14033,N,06839.63885,W,174046.00,A,D*78
$RDENS,4397,4924443,PC
$RDENS,4398,4924521,PC
$GPRMC,174047.00,A,4506.13977,N,06839.63950,W,2.519,220.15,180924,,,D*74
$GPVTG,220.15,T,,M,2.519,N,4.666,K,D*31
$GPGGA,174047.00,4506.13977,N,06839.63950,W,2,08,1.60,39.2,M,-29.0,M,,0000*5C
$GPGSA,A,3,18,24,12,25,23,10,32,46,,,,,2.61,1.60,2.06*0C
$GPGSV,4,1,13,10,62,308,38,12,18,121,36,15,18,083,09,18,14,187,26*7F
$GPGSV,4,2,13,21,09,327,19,22,03,025,,23,74,136,36,24,54,062,37*79
$GPGSV,4,3,13,25,08,155,12,28,07,214,,32,39,273,33,46,12,248,29*72
$GPGSV,4,4,13,48,15,245,27*45
$GPGLL,4506.13977,N,06839.63950,W,174047.00,A,D*7E
$RDENS,4399,4924600,PC
$GPRMC,174048.00,A,4506.13921,N,06839.64011,W,2.334,219.34,180924,,,D*73
$GPVTG,219.34,T,,M,2.334,N,4.323,K,D*35
$GPGGA,174048.00,4506.13921,N,06839.64011,W,2,10,1.15,39.3,M,-29.0,M,,0000*51
$GPGSA,A,3,18,24,12,15,25,23,10,32,46,48,,,1.89,1.15,1.50*03
$GPGSV,4,1,13,10,62,308,38,12,18,121,36,15,18,083,15,18,14,187,26*72
$GPGSV,4,2,13,21,09,327,18,22,03,025,,23,74,136,36,24,54,062,37*78
$GPGSV,4,3,13,25,08,155,12,28,07,214,,32,39,273,33,46,12,248,29*72
$GPGSV,4,4,13,48,15,245,27*45
$GPGLL,4506.13921,N,06839.64011,W,174048.00,A,D*79
$RDENS,4400,4924678,PC
$GPRMC,174049.00,A,4506.13865,N,06839.64075,W,2.572,218.84,180924,,,D*7F
$GPVTG,218.84,T,,M,2.572,N,4.764,K,D*3C
$GPGGA,174049.00,4506.13865,N,06839.64075,W,2,10,1.18,39.3,M,-29.0,M,,0000*5E
$GPGSA,A,3,18,24,12,15,25,23,10,32,46,48,,,1.95,1.18,1.55*06
$GPGSV,4,1,13,10,62,308,38,12,18,121,36,15,18,083,14,18,14,187,27*72
$GPGSV,4,2,13,21,09,327,19,22,03,025,,23,74,136,36,24,54,062,37*79
$GPGSV,4,3,13,25,08,155,12,28,07,214,,32,39,273,34,46,12,248,30*7D
$GPGSV,4,4,13,48,15,245,28*4A
$GPGLL,4506.13865,N,06839.64075,W,174049.00,A,D*7B
$RDENS,4401,4924757,PC
$GPRMC,174050.00,A,4506.13811,N,06839.64144,W,2.520,219.33,180924,,,D*7D
$GPVTG,219.33,T,,M,2.520,N,4.667,K,D*34
$GPGGA,174050.00,4506.13811,N,06839.64144,W,2,09,1.18,39.3,M,-29.0,M,,0000*5E
$GPGSA,A,3,18,24,12,15,25,23,10,32,46,,,,1.95,1.18,1.55*0A
$GPGSV,4,1,13,10,62,308,39,12,18,121,36,15,18,083,12,18,14,187,27*75
$GPGSV,4,2,13,21,09,327,20,22,03,025,,23,74,136,36,24,54,062,38*7C
$GPGSV,4,3,13,25,08,155,17,28,07,214,,32,39,273,34,46,12,248,30*78
$GPGSV,4,4,13,48,15,245,*40
$GPGLL,4506.13811,N,06839.64144,W,174050.00,A,D*73
$RDENS,4402,4924836,PC
$RDENS,4403,4924914,PC
$GPRMC,174051.00,A,4506.13755,N,06839.64210,W,2.413,219.37,180924,,,D*74
$GPVTG,219.37,T,,M,2.413,N,4.469,K,D*3D
$GPGGA,174051.00,4506.13755,N,06839.64210,W,2,09,1.18,39.3,M,-29.0,M,,0000*52
$GPGSA,A,3,18,24,12,15,25,23,10,32,46,,,,1.95,1.18,1.55*0A
$GPGSV,4,1,13,10,62,308,39,12,18,121,36,15,18,083,12,18,14,187,27*75
$GPGSV,4,2,13,21,09,327,20,22,03,025,,23,74,136,36,24,54,062,38*7C
$GPGSV,4,3,13,25,08,155,16,28,07,214,,32,39,273,35,46,12,248,29*70
$GPGSV,4,4,13,48,15,245,*40
$GPGLL,4506.13755,N,06839.64210,W,174051.00,A,D*7F
$RDENS,4404,4924993,PC
$GPRMC,174052.00,A,4506.13696,N,06839.64279,W,2.576,219.17,180924,,,D*76
$GPVTG,219.17,T,,M,2.576,N,4.771,K,D*37
$GPGGA,174052.00,4506.13696,N,06839.64279,W,2,10,1.15,39.4,M,-29.0,M,,0000*52
$GPGSA,A,3,18,24,12,15,25,23,10,32,46,48,,,1.89,1.15,1.50*03
$GPGSV,4,1,13,10,62,308,39,12,19,120,36,15,18,083,14,18,14,187,27*73
$GPGSV,4,2,13,21,09,327,21,22,03,025,,23,74,136,36,24,54,062,38*7D
$GPGSV,4,3,13,25,08,155,14,28,07,214,,32,39,273,35,46,12,248,30*7A
$GPGSV,4,4,13,48,15,245,30*43
$GPGLL,4506.13696,N,06839.64279,W,174052.00,A,D*7D
$RDENS,4405,4925071,PC
$GPRMC,174053.00,A,4506.13640,N,06839.64349,W,2.578,219.07,180924,,,D*71
$GPVTG,219.07,T,,M,2.578,N,4.775,K,D*3C
$GPGGA,174053.00,4506.13640,N,06839.64349,W,2,10,1.15,39.3,M,-29.0,M,,0000*5D
$GPGSA,A,3,18,24,12,15,25,23,10,32,46,48,,,1.89,1.15,1.50*03
$GPGSV,4,1,13,10,62,308,39,12,19,120,36,15,18,083,15,18,14,187,26*73
$GPGSV,4,2,13,21,09,327,21,22,03,025,,23,74,136,36,24,54,062,38*7D
$GPGSV,4,3,13,25,08,155,13,28,07,214,20,32,39,273,35,46,12,248,29*77
$GPGSV,4,4,13,48,15,245,30*43
$GPGLL,4506.13640,N,06839.64349,W,174053.00,A,D*75
$RDENS,4406,4925150,PC
$GPRMC,174054.00,A,4506.13577,N,06839.64416,W,2.519,218.17,180924,,,D*7B
$GPVTG,218.17,T,,M,2.519,N,4.666,K,D*38
$GPGGA,174054.00,4506.13577,N,06839.64416,W,2,10,1.15,39.3,M,-29.0,M,,0000*50
$GPGSA,A,3,18,24,12,15,25,23,10,32,46,48,,,1.89,1.15,1.50*03
$GPGSV,4,1,13,10,62,308,40,12,19,120,36,15,18,083,17,18,14,187,25*7C
$GPGSV,4,2,13,21,09,327,20,22,03,025,,23,74,136,36,24,54,062,38*7C
$GPGSV,4,3,13,25,08,155,12,28,07,214,,32,39,273,36,46,12,248,29*77
$GPGSV,4,4,13,48,15,245,30*43
$GPGLL,4506.13577,N,06839.64416,W,174054.00,A,D*78
$RDENS,4407,4925229,PC
$RDENS,4408,4925308,PC
$GPRMC,174055.00,A,4506.13512,N,06839.64484,W,2.530,217.69,180924,,,D*7F
$GPVTG,217.69,T,,M,2.530,N,4.686,K,D*3B
$GPGGA,174055.00,4506.13512,N,06839.64484,W,2,10,1.15,39.3,M,-29.0,M,,0000*59
$GPGSA,A,3,18,24,12,15,25,23,10,32,46,48,,,1.89,1.15,1.50*03
$GPGSV,4,1,13,10,62,308,39,12,19,120,36,15,17,083,19,18,14,187,24*72
$GPGSV,4,2,13,21,09,327,18,22,03,025,,23,74,136,36,24,54,062,39*76
$GPGSV,4,3,13,25,08,155,10,28,07,214,,32,39,273,36,46,12,248,29*75
$GPGSV,4,4,13,48,15,245,30*43
$GPGLL,4506.13512,N,06839.64484,W,174055.00,A,D*71
$RDENS,4409,4925387,PC
$GPRMC,174056.00,A,4506.13449,N,06839.64547,W,2.460,217.34,180924,,,D*71
$GPVTG,217.34,T,,M,2.460,N,4.555,K,D*3A
$GPGGA,174056.00,4506.13449,N,06839.64547,W,2,10,1.15,39.4,M,-29.0,M,,0000*5C
$GPGSA,A,3,18,24,12,15,25,23,10,32,46,48,,,1.89,1.15,1.50*03
$GPGSV,4,1,13,10,62,308,39,12,19,120,36,15,17,083,19,18,14,187,24*72
$GPGSV,4,2,13,21,09,327,18,22,03,025,,23,74,136,36,24,54,062,39*76
$GPGSV,4,3,13,25,08,155,12,28,07,214,,32,39,273,35,46,12,248,28*75
$GPGSV,4,4,13,48,15,245,30*43
$GPGLL,4506.13449,N,06839.64547,W,174056.00,A,D*73
$RDENS,4410,4925465,PC
$GPRMC,174057.00,A,4506.13386,N,06839.64609,W,2.630,216.58,180924,,,D*71
$GPVTG,216.58,T,,M,2.630,N,4.871,K,D*3D
$GPGGA,174057.00,4506.13386,N,06839.64609,W,2,10,1.15,39.5,M,-29.0,M,,0000*51
$GPGSA,A,3,18,24,12,15,25,23,10,32,46,48,,,1.89,1.15,1.50*03
$GPGSV,4,1,13,10,62,308,39,12,19,120,36,15,17,083,17,18,14,187,25*7D
$GPGSV,4,2,13,21,09,327,16,22,03,025,,23,74,136,36,24,54,062,38*79
$GPGSV,4,3,13,25,08,155,12,28,07,214,,32,39,273,35,46,12,248,29*74
$GPGSV,4,4,13,48,15,245,29*4B
$GPGLL,4506.13386,N,06839.64609,W,174057.00,A,D*7F
$RDENS,4411,4925544,PC
$RDENS,4412,4925623,PC
$GPRMC,174058.00,A,4506.13324,N,06839.64672,W,2.471,217.35,180924,,,D*77
$GPVTG,217.35,T,,M,2.471,N,4.576,K,D*3A
$GPGGA,174058.00,4506.13324,N,06839.64672,W,2,10,1.15,39.5,M,-29.0,M,,0000*5A
$GPGSA,A,3,18,24,12,15,25,23,10,32,46,48,,,1.89,1.15,1.49*0B
$GPGSV,4,1,13,10,62,308,39,12,19,120,36,15,17,083,18,18,14,187,26*71
$GPGSV,4,2,13,21,09,327,21,22,03,025,,23,74,136,36,24,54,062,38*7D
$GPGSV,4,3,13,25,08,155,11,28,07,214,,32,39,273,35,46,12,248,29*77
$GPGSV,4,4,13,48,15,245,28*4A
$GPGLL,4506.13324,N,06839.64672,W,174058.00,A,D*74
$RDENS,4413,4925702,PC
$GPRMC,174059.00,A,4506.13267,N,06839.64736,W,2.551,219.28,180924,,,D*70
$GPVTG,219.28,T,,M,2.551,N,4.725,K,D*3F
$GPGGA,174059.00,4506.13267,N,06839.64736,W,2,10,1.15,39.3,M,-29.0,M,,0000*5A
$GPGSA,A,3,18,24,12,15,25,23,10,32,46,48,,,1.89,1.15,1.49*0B
$GPGSV,4,1,13,10,62,308,38,12,19,120,36,15,17,083,21,18,14,187,26*7A
$GPGSV,4,2,13,21,09,327,20,22,03,025,,23,74,136,36,24,54,062,37*73
$GPGSV,4,3,13,25,08,155,11,28,07,214,,32,39,273,33,46,12,248,29*71
$GPGSV,4,4,13,48,15,245,27*45
$GPGLL,4506.13267,N,06839.64736,W,174059.00,A,D*72
$RDENS,4414,4925781,PC
$GPRMC,174100.00,A,4506.13210,N,06839.64796,W,2.430,219.85,180924,,,D*76
$GPVTG,219.85,T,,M,2.430,N,4.501,K,D*3A
$GPGGA,174100.00,4506.13210,N,06839.64796,W,2,09,1.23,39.3,M,-29.0,M,,0000*50
$GPGSA,A,3,18,24,12,15,23,10,32,46,48,,,,1.94,1.23,1.50*0D
$GPGSV,4,1,13,10,62,308,38,12,19,120,36,15,17,083,23,18,14,187,26*78
$GPGSV,4,2,13,21,09,327,20,22,03,025,,23,74,136,36,24,54,062,36*72
$GPGSV,4,3,13,25,08,155,09,28,07,214,,32,39,273,33,46,12,248,28*79
$GPGSV,4,4,13,48,15,245,27*45
$GPGLL,4506.13210,N,06839.64796,W,174100.00,A,D*75
$RDENS,4415,4925859,PC
$GPRMC,174101.00,A,4506.13155,N,06839.64857,W,2.458,219.79,180924,,,D*7A
$GPVTG,219.79,T,,M,2.458,N,4.552,K,D*31
$GPGGA,174101.00,4506.13155,N,06839.64857,W,2,08,1.25,39.3,M,-29.0,M,,0000*56
$GPGSA,A,3,18,24,12,15,23,10,32,46,,,,,2.00,1.25,1.55*0C
$GPGSV,4,1,13,10,62,308,38,12,19,120,35,15,17,083,23,18,14,187,25*78
$GPGSV,4,2,13,21,09,327,18,22,03,025,,23,74,136,36,24,54,062,37*78
$GPGSV,4,3,13,25,08,155,08,28,07,214,,32,39,273,33,46,12,248,27*77
$GPGSV,4,4,13,48,15,245,*40
$GPGLL,4506.13155,N,06839.64857,W,174101.00,A,D*74
$RDENS,4416,4925938,PC
$RDENS,4417,4926017,PC
$GPRMC,174102.00,A,4506.13100,N,06839.64918,W,2.472,220.02,180924,,,D*7D
$GPVTG,220.02,T,,M,2.472,N,4.578,K,D*37
$GPGGA,174102.00,4506.13100,N,06839.64918,W,2,08,1.33,39.3,M,-29.0,M,,0000*58
$GPGSA,A,3,18,24,12,15,25,23,10,32,,,,,2.28,1.33,1.86*0A
$GPGSV,4,1,13,10,62,308,38,12,19,120,35,15,17,083,23,18,14,187,25*78
$GPGSV,4,2,13,21,09,327,18,22,03,025,,23,74,136,37,24,54,062,37*79
$GPGSV,4,3,13,25,08,155,10,28,07,214,,32,39,273,33,46,12,248,*7B
$GPGSV,4,4,13,48,15,245,*40
$GPGLL,4506.13100,N,06839.64918,W,174102.00,A,D*7D
$RDENS,4418,4926095,PC
$GPRMC,174103.00,A,4506.13047,N,06839.64981,W,2.504,220.51,180924,,,D*78
$GPVTG,220.51,T,,M,2.504,N,4.637,K,D*39
$GPGGA,174103.00,4506.13047,N,06839.64981,W,2,08,1.33,39.2,M,-29.0,M,,0000*5A
$GPGSA,A,3,18,24,12,15,25,23,10,32,,,,,2.28,1.33,1.86*0A
$GPGSV,4,1,13,10,62,308,38,12,19,120,35,15,17,083,22,18,14,187,25*79
$GPGSV,4,2,13,21,09,327,18,22,03,025,,23,74,137,37,24,54,062,37*78
$GPGSV,4,3,13,25,08,155,12,28,07,214,,32,39,273,33,46,12,248,*79
$GPGSV,4,4,13,48,15,245,*40
$GPGLL,4506.13047,N,06839.64981,W,174103.00,A,D*7E
$RDENS,4419,4926174,PC
$GPRMC,174104.00,A,4506.12997,N,06839.65043,W,2.501,220.19,180924,,,D*75
$GPVTG,220.19,T,,M,2.501,N,4.632,K,D*35
$GPGGA,174104.00,4506.12997,N,06839.65043,W,2,08,1.33,39.0,M,-29.0,M,,0000*5C
$GPGSA,A,3,18,24,12,15,25,23,10,32,,,,,2.28,1.33,1.86*0A
$GPGSV,4,1,13,10,62,308,38,12,19,120,35,15,17,083,22,18,14,187,25*79
$GPGSV,4,2,13,21,09,327,17,22,03,025,,23,74,137,37,24,53,062,36*71
$GPGSV,4,3,13,25,08,155,14,28,07,214,,32,39,273,33,46,12,248,*7F
$GPGSV,4,4,13,48,15,245,*40
$GPGLL,4506.12997,N,06839.65043,W,174104.00,A,D*7A
$RDENS,4420,4926253,PC
$GPRMC,174105.00,A,4506.12947,N,06839.65105,W,2.490,220.15,180924,,,D*7F
$GPVTG,220.15,T,,M,2.490,N,4.612,K,D*32
$GPGGA,174105.00,4506.12947,N,06839.65105,W,2,08,1.33,38.9,M,-29.0,M,,0000*5B
$GPGSA,A,3,18,24,12,15,25,23,10,32,,,,,2.28,1.33,1.86*0A
$GPGSV,4,1,13,10,62,308,38,12,19,120,35,15,17,083,22,18,14,187,25*79
$GPGSV,4,2,13,21,09,327,16,22,03,025,,23,74,137,37,24,53,062,37*71
$GPGSV,4,3,13,25,08,155,15,28,07,214,,32,39,273,33,46,12,248,*7E
$GPGSV,4,4,13,48,15,245,*40
$GPGLL,4506.12947,N,06839.65105,W,174105.00,A,D*75
$RDENS,4421,4926331,PC
$RDENS,4422,4926410,PC
$GPRMC,174106.00,A,4506.12893,N,06839.65167,W,2.586,219.51,180924,,,D*7C
$GPVTG,219.51,T,,M,2.586,N,4.789,K,D*3D
$GPGGA,174106.00,4506.12893,N,06839.65167,W,2,08,1.33,38.9,M,-29.0,M,,0000*54
$GPGSA,A,3,18,24,12,15,25,23,10,32,,,,,2.28,1.33,1.86*0A
$GPGSV,4,1,13,10,62,308,38,12,19,120,36,15,17,083,23,18,14,187,25*7B
$GPGSV,4,2,13,21,09,327,14,22,03,025,,23,74,137,37,24,53,062,36*72
$GPGSV,4,3,13,25,08,155,15,28,07,214,,32,39,273,33,46,12,248,*7E
$GPGSV,4,4,13,48,15,245,*40
$GPGLL,4506.12893,N,06839.65167,W,174106.00,A,D*7A
$RDENS,4423,4926489,PC
$GPRMC,174107.00,A,4506.12839,N,06839.65230,W,2.595,219.57,180924,,,D*78
$GPVTG,219.57,T,,M,2.595,N,4.806,K,D*31
$GPGGA,174107.00,4506.12839,N,06839.65230,W,2,08,1.33,38.9,M,-29.0,M,,0000*54
$GPGSA,A,3,18,24,12,15,25,23,10,32,,,,,2.28,1.33,1.86*0A
$GPGSV,4,1,13,10,62,308,38,12,19,120,35,15,17,083,23,18,14,187,25*78
$GPGSV,4,2,13,21,09,327,14,22,03,025,,23,74,137,37,24,53,062,36*72
$GPGSV,4,3,13,25,08,155,14,28,07,214,,32,39,273,33,46,12,248,*7F
$GPGSV,4,4,13,48,15,245,*40
$GPGLL,4506.12839,N,06839.65230,W,174107.00,A,D*7A
$RDENS,4424,4926567,PC
$GPRMC,174108.00,A,4506.12788,N,06839.65293,W,2.533,220.35,180924,,,D*79
$GPVTG,220.35,T,,M,2.533,N,4.692,K,D*30
$GPGGA,174108.00,4506.12788,N,06839.65293,W,2,08,1.33,38.8,M,-29.0,M,,0000*56
$GPGSA,A,3,18,24,12,15,25,23,10,32,,,,,2.28,1.33,1.86*0A
$GPGSV,4,1,13,10,62,308,38,12,19,120,34,15,17,083,26,18,14,187,26*7F
$GPGSV,4,2,13,21,09,327,16,22,03,025,,23,74,137,37,24,53,062,36*70
$GPGSV,4,3,13,25,08,155,13,28,07,215,,32,39,273,34,46,12,248,*7E
$GPGSV,4,4,13,48,15,245,*40
$GPGLL,4506.12788,N,06839.65293,W,174108.00,A,D*79
$RDENS,4425,4926646,PC
$RDENS,4426,4926725,PC
$GPRMC,174109.00,A,4506.12740,N,06839.65354,W,2.533,221.26,180924,,,D*75
$GPVTG,221.26,T,,M,2.533,N,4.690,K,D*31
$GPGGA,174109.00,4506.12740,N,06839.65354,W,2,08,1.33,38.8,M,-29.0,M,,0000*59
$GPGSA,A,3,18,24,12,15,25,23,10,32,,,,,2.28,1.33,1.86*0A
$GPGSV,4,1,13,10,62,308,37,12,19,120,34,15,17,083,32,18,14,187,27*74
$GPGSV,4,2,13,21,09,327,15,22,03,025,14,23,74,137,36,24,53,062,35*74
$GPGSV,4,3,13,25,08,155,10,28,07,215,,32,39,273,34,46,12,248,*7D
$GPGSV,4,4,13,48,15,245,*40
$GPGLL,4506.12740,N,06839.65354,W,174109.00,A,D*76
$RDENS,4427,4926804,PC
$GPRMC,174110.00,A,4506.12690,N,06839.65418,W,2.500,222.34,180924,,,D*7E
$GPVTG,222.34,T,,M,2.500,N,4.630,K,D*3B
$GPGGA,174110.00,4506.12690,N,06839.65418,W,2,08,1.32,38.8,M,-29.0,M,,0000*53
$GPGSA,A,3,18,24,12,15,25,23,10,32,,,,,2.28,1.32,1.86*0B
$GPGSV,4,1,13,10,62,308,37,12,19,120,34,15,17,083,34,18,14,187,27*72
$GPGSV,4,2,13,21,09,327,14,22,03,025,11,23,74,137,36,24,53,062,34*71
$GPGSV,4,3,13,25,08,155,10,28,07,215,,32,39,273,33,46,12,248,*7A
$GPGSV,4,4,13,48,15,245,*40
$GPGLL,4506.12690,N,06839.65418,W,174110.00,A,D*7D
$RDENS,4428,4926882,PC
$GPRMC,174111.00,A,4506.12642,N,06839.65482,W,2.408,224.44,180924,,,D*7B
$GPVTG,224.44,T,,M,2.408,N,4.460,K,D*34
$GPGGA,174111.00,4506.12642,N,06839.65482,W,2,07,1.37,38.9,M,-29.0,M,,0000*55
$GPGSA,A,3,18,24,12,15,23,10,32,,,,,,2.33,1.37,1.88*0D
$GPGSV,4,1,13,10,62,308,37,12,19,120,33,15,17,083,34,18,14,187,27*75
$GPGSV,4,2,13,21,09,327,14,22,03,025,08,23,74,137,36,24,53,062,34*79
$GPGSV,4,3,13,25,08,155,09,28,07,215,23,32,39,273,33,46,12,248,*73
$GPGSV,4,4,13,48,15,245,*40
$GPGLL,4506.12642,N,06839.65482,W,174111.00,A,D*70
$RDENS,4429,4926961,PC
$GPRMC,174112.00,A,4506.12597,N,06839.65549,W,2.476,226.23,180924,,,D*7F
$GPVTG,226.23,T,,M,2.476,N,4.585,K,D*34
$GPGGA,174112.00,4506.12597,N,06839.65549,W,2,07,1.37,38.9,M,-29.0,M,,0000*5B
$GPGSA,A,3,18,24,12,15,23,10,32,,,,,,2.33,1.37,1.88*0D
$GPGSV,4,1,13,10,62,308,37,12,19,120,33,15,17,083,34,18,14,187,28*7A
$GPGSV,4,2,13,21,09,327,13,22,03,025,,23,74,137,36,24,53,062,34*76
$GPGSV,4,3,13,25,08,155,08,28,07,215,25,32,39,273,33,46,12,248,*74
$GPGSV,4,4,13,48,15,245,*40
$GPGLL,4506.12597,N,06839.65549,W,174112.00,A,D*7E
$RDENS,4430,4927040,PC
$RDENS,4431,4927118,PC
$GPRMC,174113.00,A,4506.12554,N,06839.65613,W,2.486,227.17,180924,,,D*74
$GPVTG,227.17,T,,M,2.486,N,4.605,K,D*36
$GPGGA,174113.00,4506.12554,N,06839.65613,W,2,07,1.37,38.8,M,-29.0,M,,0000*58
$GPGSA,A,3,18,24,12,15,23,10,32,,,,,,2.33,1.37,1.88*0D
$GPGSV,4,1,13,10,62,308,37,12,19,120,33,15,17,083,34,18,14,187,28*7A
$GPGSV,4,2,13,21,09,327,15,22,03,025,,23,74,137,36,24,53,062,34*70
$GPGSV,4,3,13,25,08,155,,28,07,215,24,32,39,273,34,46,12,248,*7A
$GPGSV,4,4,13,48,15,245,*40
$GPGLL,4506.12554,N,06839.65613,W,174113.00,A,D*7C
$RDENS,4432,4927197,PC
$GPRMC,174114.00,A,4506.12511,N,06839.65677,W,2.483,227.62,180924,,,D*77
$GPVTG,227.62,T,,M,2.483,N,4.598,K,D*36
$GPGGA,174114.00,4506.12511,N,06839.65677,W,2,07,1.37,38.9,M,-29.0,M,,0000*5D
$GPGSA,A,3,18,24,12,15,23,10,32,,,,,,2.33,1.37,1.88*0D
$GPGSV,4,1,13,10,62,308,37,12,19,120,34,15,17,083,33,18,14,187,28*7A
$GPGSV,4,2,13,21,09,327,15,22,03,025,,23,74,137,36,24,53,062,35*71
$GPGSV,4,3,13,25,08,155,,28,07,215,21,32,39,273,34,46,12,248,*7F
$GPGSV,4,4,13,48,15,245,*40
$GPGLL,4506.12511,N,06839.65677,W,174114.00,A,D*78
$RDENS,4433,4927275,PC
$GPRMC,174115.00,A,4506.12467,N,06839.65740,W,2.454,227.05,180924,,,D*78
$GPVTG,227.05,T,,M,2.454,N,4.544,K,D*3C
$GPGGA,174115.00,4506.12467,N,06839.65740,W,2,07,1.37,38.8,M,-29.0,M,,0000*58
$GPGSA,A,3,18,24,12,15,23,10,32,,,,,,2.33,1.37,1.88*0D
$GPGSV,4,1,13,10,62,308,37,12,19,120,34,15,17,083,32,18,14,187,29*7A
$GPGSV,4,2,13,21,09,327,12,22,03,025,,23,74,137,37,24,53,062,35*77
$GPGSV,4,3,13,25,08,155,14,28,07,215,17,32,39,273,34,46,12,248,*7F
$GPGSV,4,4,13,48,15,245,*40
$GPGLL,4506.12467,N,06839.65740,W,174115.00,A,D*7C
$RDENS,4434,4927354,PC
$GPRMC,174116.00,A,4506.12420,N,06839.65802,W,2.491,226.91,180924,,,D*74
$GPVTG,226.91,T,,M,2.491,N,4.613,K,D*38
$GPGGA,174116.00,4506.12420,N,06839.65802,W,2,07,1.37,38.9,M,-29.0,M,,0000*50
$GPGSA,A,3,18,24,12,15,23,10,32,,,,,,2.33,1.37,1.88*0D
$GPGSV,4,1,13,10,62,308,37,12,19,120,35,15,17,083,31,18,14,187,28*79
$GPGSV,4,2,13,21,09,327,,22,03,025,,23,74,137,37,24,53,062,36*77
$GPGSV,4,3,13,25,08,155,12,28,07,215,16,32,39,273,35,46,12,248,*79
$GPGSV,4,4,13,48,15,245,27*45
$GPGLL,4506.12420,N,06839.65802,W,174116.00,A,D*75
$RDENS,4435,4927432,PC
$RDENS,4436,4927512,PC
$GPRMC,174117.00,A,4506.12375,N,06839.65865,W,2.460,227.48,180924,,,D*78
$GPVTG,227.48,T,,M,2.460,N,4.556,K,D*31
$GPGGA,174117.00,4506.12375,N,06839.65865,W,2,08,1.37,38.9,M,-29.0,M,,0000*58
$GPGSA,A,3,18,24,12,15,23,10,32,48,,,,,2.33,1.37,1.88*01
$GPGSV,4,1,13,10,62,308,37,12,19,120,35,15,17,083,32,18,14,187,28*7A
$GPGSV,4,2,13,21,09,327,,22,03,025,,23,74,137,36,24,53,062,35*75
$GPGSV,4,3,13,25,08,155,11,28,07,215,16,32,39,273,35,46,12,248,*7A
$GPGSV,4,4,13,48,15,245,27*45
$GPGLL,4506.12375,N,06839.65865,W,174117.00,A,D*72
$RDENS,4437,4927590,PC
$GPRMC,174118.00,A,4506.12330,N,06839.65931,W,2.480,227.35,180924,,,D*72
$GPVTG,227.35,T,,M,2.480,N,4.592,K,D*3D
$GPGGA,174118.00,4506.12330,N,06839.65931,W,2,07,1.37,38.9,M,-29.0,M,,0000*59
$GPGSA,A,3,18,24,12,15,23,10,32,,,,,,2.33,1.37,1.88*0D
$GPGSV,4,1,13,10,62,308,37,12,19,120,34,15,17,083,33,18,14,187,28*7A
$GPGSV,4,2,13,21,09,327,,22,03,025,,23,74,137,36,24,53,062,35*75
$GPGSV,4,3,13,25,08,155,11,28,07,215,19,32,39,273,34,46,12,248,*74
$GPGSV,4,4,13,48,15,245,*40
$GPGLL,4506.12330,N,06839.65931,W,174118.00,A,D*7C
$RDENS,4438,4927669,PC
$GPRMC,174119.00,A,4506.12287,N,06839.65998,W,2.523,227.92,180924,,,D*78
$GPVTG,227.92,T,,M,2.523,N,4.672,K,D*35
$GPGGA,174119.00,4506.12287,N,06839.65998,W,2,07,1.37,38.9,M,-29.0,M,,0000*56
$GPGSA,A,3,18,24,12,15,23,10,32,,,,,,2.33,1.37,1.88*0D
$GPGSV,4,1,13,10,62,308,37,12,19,120,33,15,17,083,33,18,14,187,29*7C
$GPGSV,4,2,13,21,09,327,,22,03,025,,23,74,137,36,24,53,062,34*74
$GPGSV,4,3,13,25,08,155,,28,07,215,25,32,39,273,34,46,12,248,*7B
$GPGSV,4,4,13,48,15,245,*40
$GPGLL,4506.12287,N,06839.65998,W,174119.00,A,D*73
$RDENS,4439,4927748,PC
$GPRMC,174120.00,A,4506.12242,N,06839.66067,W,2.518,228.92,180924,,,D*76
$GPVTG,228.92,T,,M,2.518,N,4.664,K,D*35
$GPGGA,174120.00,4506.12242,N,06839.66067,W,2,07,1.37,38.8,M,-29.0,M,,0000*5E
$GPGSA,A,3,18,24,12,15,23,10,32,,,,,,2.33,1.37,1.88*0D
$GPGSV,4,1,13,10,62,308,36,12,19,120,33,15,17,083,33,18,14,187,29*7D
$GPGSV,4,2,13,21,09,327,,22,03,025,,23,74,137,35,24,53,062,33*70
$GPGSV,4,3,13,25,08,155,,28,07,215,29,32,39,273,34,46,12,248,*77
$GPGSV,4,4,13,48,15,245,*40
$GPGLL,4506.12242,N,06839.66067,W,174120.00,A,D*7A
$RDENS,4440,4927826,PC
$RDENS,4441,4927905,PC
$GPRMC,174121.00,A,4506.12198,N,06839.66138,W,2.485,230.77,180924,,,D*7F
$GPVTG,230.77,T,,M,2.485,N,4.603,K,D*33
$GPGGA,174121.00,4506.12198,N,06839.66138,W,2,07,1.37,38.8,M,-29.0,M,,0000*50
$GPGSA,A,3,18,24,12,15,23,10,32,,,,,,2.33,1.37,1.88*0D
$GPGSV,4,1,13,10,62,308,36,12,19,120,33,15,17,083,33,18,14,187,30*75
$GPGSV,4,2,13,21,09,327,,22,03,025,,23,74,137,36,24,53,062,33*73
$GPGSV,4,3,13,25,08,155,,28,07,215,29,32,39,273,34,46,12,248,*77
$GPGSV,4,4,13,48,15,245,*40
$GPGLL,4506.12198,N,06839.66138,W,174121.00,A,D*74
$RDENS,4442,4927984,PC
$GPRMC,174122.00,A,4506.12157,N,06839.66208,W,2.414,232.07,180924,,,D*72
$GPVTG,232.07,T,,M,2.414,N,4.470,K,D*38
$GPGGA,174122.00,4506.12157,N,06839.66208,W,2,07,1.37,38.7,M,-29.0,M,,0000*5F
$GPGSA,A,3,18,24,12,15,23,10,32,,,,,,2.33,1.37,1.88*0D
$GPGSV,4,1,13,10,62,308,35,12,19,120,34,15,17,083,33,18,14,187,30*71
$GPGSV,4,2,13,21,09,327,,22,03,025,,23,74,137,35,24,53,062,33*70
$GPGSV,4,3,13,25,08,155,,28,07,215,30,32,39,273,34,46,12,248,*7F
$GPGSV,4,4,13,48,15,245,*40
$GPGLL,4506.12157,N,06839.66208,W,174122.00,A,D*74
$RDENS,4443,4928063,PC
$GPRMC,174123.00,A,4506.12112,N,06839.66278,W,2.572,230.13,180924,,,D*73
$GPVTG,230.13,T,,M,2.572,N,4.764,K,D*38
$GPGGA,174123.00,4506.12112,N,06839.66278,W,2,07,1.37,38.8,M,-29.0,M,,0000*57
$GPGSA,A,3,18,24,12,15,23,10,32,,,,,,2.33,1.37,1.88*0D
$GPGSV,4,1,13,10,62,308,35,12,19,120,34,15,17,083,33,18,14,187,30*71
$GPGSV,4,2,13,21,09,327,,22,03,025,,23,74,137,36,24,53,062,34*74
$GPGSV,4,3,13,25,08,155,,28,07,215,30,32,39,273,34,46,12,248,*7F
$GPGSV,4,4,13,48,15,245,*40
$GPGLL,4506.12112,N,06839.66278,W,174123.00,A,D*73
$RDENS,4444,4928141,PC
$RDENS,4445,4928220,PC
$GPRMC,174124.00,A,4506.12063,N,06839.66350,W,2.546,229.50,180924,,,D*70
$GPVTG,229.50,T,,M,2.546,N,4.716,K,D*35
$GPGGA,174124.00,4506.12063,N,06839.66350,W,2,07,1.37,38.8,M,-29.0,M,,0000*5C
$GPGSA,A,3,18,24,12,15,23,10,32,,,,,,2.33,1.37,1.88*0D
$GPGSV,4,1,13,10,62,308,35,12,19,120,33,15,17,083,33,18,14,187,30*76
$GPGSV,4,2,13,21,09,327,,22,03,025,,23,74,137,36,24,53,062,33*73
$GPGSV,4,3,13,25,08,155,,28,07,215,29,32,39,273,34,46,12,248,*77
$GPGSV,4,4,13,48,15,245,*40
$GPGLL,4506.12063,N,06839.66350,W,174124.00,A,D*78
$RDENS,4446,4928298,PC
$GPRMC,174125.00,A,4506.12017,N,06839.66420,W,2.554,229.31,180924,,,D*76
$GPVTG,229.31,T,,M,2.554,N,4.729,K,D*3D
$GPGGA,174125.00,4506.12017,N,06839.66420,W,2,07,1.37,38.8,M,-29.0,M,,0000*5E
$GPGSA,A,3,18,24,12,15,23,10,32,,,,,,2.33,1.37,1.88*0D
$GPGSV,4,1,13,10,62,308,36,12,19,120,33,15,17,083,34,18,14,187,29*7A
$GPGSV,4,2,13,21,09,327,,22,03,025,,23,74,137,36,24,53,062,34*74
$GPGSV,4,3,13,25,08,155,,28,07,215,28,32,39,273,34,46,12,248,*76
$GPGSV,4,4,13,48,15,245,*40
$GPGLL,4506.12017,N,06839.66420,W,174125.00,A,D*7A
$RDENS,4447,4928377,PC
$GPRMC,174126.00,A,4506.11971,N,06839.66490,W,2.516,229.51,180924,,,D*74
$GPVTG,229.51,T,,M,2.516,N,4.660,K,D*31
$GPGGA,174126.00,4506.11971,N,06839.66490,W,2,07,1.37,38.8,M,-29.0,M,,0000*5C
$GPGSA,A,3,18,24,12,15,23,10,32,,,,,,2.33,1.37,1.88*0D
$GPGSV,4,1,13,10,62,308,36,12,19,120,33,15,17,083,34,18,14,187,29*7A
$GPGSV,4,2,13,21,09,327,,22,03,025,,23,74,137,36,24,53,062,34*74
$GPGSV,4,3,13,25,08,155,,28,07,215,27,32,39,273,33,46,12,248,*7E
$GPGSV,4,4,13,48,15,245,*40
$GPGLL,4506.11971,N,06839.66490,W,174126.00,A,D*78
$RDENS,4448,4928456,PC
$GPRMC,174127.00,A,4506.11929,N,06839.66560,W,2.502,229.46,180924,,,D*75
$GPVTG,229.46,T,,M,2.502,N,4.634,K,D*33
$GPGGA,174127.00,4506.11929,N,06839.66560,W,2,07,1.37,38.7,M,-29.0,M,,0000*51
$GPGSA,A,3,18,24,12,15,23,10,32,,,,,,2.33,1.37,1.88*0D
$GPGSV,4,1,13,10,62,308,36,12,19,120,34,15,17,083,34,18,14,187,28*7C
$GPGSV,4,2,13,21,09,327,,22,03,025,,23,74,137,36,24,53,062,34*74
$GPGSV,4,3,13,25,08,155,,28,07,215,25,32,39,273,33,46,12,248,*7C
$GPGSV,4,4,13,48,15,245,*40
$GPGLL,4506.11929,N,06839.66560,W,174127.00,A,D*7A
$RDENS,4449,4928534,PC
$RDENS,4450,4928613,PC
$GPRMC,174128.00,A,4506.11886,N,06839.66630,W,2.508,228.96,180924,,,D*7E
$GPVTG,228.96,T,,M,2.508,N,4.644,K,D*32
$GPGGA,174128.00,4506.11886,N,06839.66630,W,2,07,1.37,38.6,M,-29.0,M,,0000*5D
$GPGSA,A,3,18,24,12,15,23,10,32,,,,,,2.33,1.37,1.88*0D
$GPGSV,4,1,13,10,62,308,36,12,19,120,34,15,17,083,34,18,14,187,28*7C
