$GPRMC,185129.00,A,4506.12762,N,06839.59073,W,1.941,39.57,180924,,,A*42
$GPVTG,39.57,T,,M,1.941,N,3.596,K,A*01
$GPGGA,185129.00,4506.12762,N,06839.59073,W,1,09,0.98,38.0,M,-29.0,M,,*56
$GPGSA,A,3,24,12,25,21,23,10,02,28,32,,,,1.94,0.98,1.67*07
$GPGSV,3,1,12,02,13,319,38,10,76,202,41,12,36,089,22,21,20,303,37*7F
$GPGSV,3,2,12,23,39,154,37,24,24,055,27,25,35,136,40,28,36,228,38*7C
$GPGSV,3,3,12,31,02,227,,32,64,305,40,46,12,248,27,48,15,245,*7D
$GPGLL,4506.12762,N,06839.59073,W,185129.00,A,A*76
$GPRMC,185130.00,A,4506.12803,N,06839.59022,W,1.935,39.97,180924,,,A*49
$GPVTG,39.97,T,,M,1.935,N,3.583,K,A*0A
$GPGGA,185130.00,4506.12803,N,06839.59022,W,1,09,0.98,38.0,M,-29.0,M,,*52
$GPGSA,A,3,24,12,25,21,23,10,02,28,32,,,,1.94,0.98,1.67*07
$GPGSV,3,1,12,02,13,319,38,10,76,202,41,12,36,089,23,21,20,303,37*7E
$GPGSV,3,2,12,23,39,154,36,24,24,055,27,25,35,136,40,28,36,228,38*7D
$GPGSV,3,3,12,31,02,227,,32,64,305,40,46,12,248,26,48,15,245,*7C
$GPGLL,4506.12803,N,06839.59022,W,185130.00,A,A*72
$RDENS,9790,5348875,PC
$GPRMC,185131.00,A,4506.12842,N,06839.58969,W,1.916,42.00,180924,,,A*49
$GPVTG,42.00,T,,M,1.916,N,3.548,K,A*0E
$GPGGA,185131.00,4506.12842,N,06839.58969,W,1,09,0.98,38.0,M,-29.0,M,,*51
$GPGSA,A,3,24,12,25,21,23,10,02,28,32,,,,1.94,0.98,1.67*07
$GPGSV,3,1,12,02,13,319,38,10,76,202,39,12,36,089,23,21,20,303,34*72
$GPGSV,3,2,12,23,39,154,37,24,24,055,28,25,35,136,40,28,36,228,38*73
$GPGSV,3,3,12,31,02,227,,32,64,305,41,46,12,248,,48,15,245,*79
$GPGLL,4506.12842,N,06839.58969,W,185131.00,A,A*71
$RDENS,9791,5348954,PC
$GPRMC,185132.00,A,4506.12877,N,06839.58916,W,1.791,44.73,180924,,,A*47
$GPVTG,44.73,T,,M,1.791,N,3.317,K,A*01
$GPGGA,185132.00,4506.12877,N,06839.58916,W,1,09,0.98,38.0,M,-29.0,M,,*5C
$GPGSA,A,3,24,12,25,21,23,10,02,28,32,,,,1.94,0.98,1.67*07
$GPGSV,3,1,12,02,13,319,38,10,76,202,40,12,36,089,25,21,20,303,35*7B
$GPGSV,3,2,12,23,39,154,38,24,24,055,28,25,35,136,40,28,36,228,38*7C
$GPGSV,3,3,12,31,02,227,,32,64,305,43,46,12,248,,48,15,245,*7B
$GPGLL,4506.12877,N,06839.58916,W,185132.00,A,A*7C
$RDENS,9792,5349032,PC
$RDENS,9793,5349110,PC
$GPRMC,185133.00,A,4506.12911,N,06839.58864,W,1.731,45.62,180924,,,A*48
$GPVTG,45.62,T,,M,1.731,N,3.206,K,A*0B
$GPGGA,185133.00,4506.12911,N,06839.58864,W,1,09,0.98,38.0,M,-29.0,M,,*58
$GPGSA,A,3,24,12,25,21,23,10,02,28,32,,,,1.94,0.98,1.67*07
$GPGSV,3,1,12,02,13,319,36,10,76,202,40,12,36,089,24,21,20,303,33*72
$GPGSV,3,2,12,23,39,154,37,24,24,055,28,25,35,136,40,28,36,228,38*73
$GPGSV,3,3,12,31,02,227,,32,64,305,42,46,12,248,,48,15,245,*7A
$GPGLL,4506.12911,N,06839.58864,W,185133.00,A,A*78
$RDENS,9794,5349189,PC
$GPRMC,185134.00,A,4506.12947,N,06839.58817,W,1.710,43.47,180924,,,A*4A
$GPVTG,43.47,T,,M,1.710,N,3.166,K,A*0C
$GPGGA,185134.00,4506.12947,N,06839.58817,W,1,09,0.98,38.1,M,-29.0,M,,*59
$GPGSA,A,3,24,12,25,21,23,10,02,28,32,,,,1.94,0.98,1.67*07
$GPGSV,3,1,12,02,13,319,37,10,76,202,41,12,36,089,22,21,20,303,35*72
$GPGSV,3,2,12,23,39,154,35,24,24,055,27,25,35,136,40,28,36,228,39*7F
$GPGSV,3,3,12,31,02,227,,32,64,305,41,46,12,248,,48,15,245,*79
$GPGLL,4506.12947,N,06839.58817,W,185134.00,A,A*78
$RDENS,9795,5349268,PC
$GPRMC,185135.00,A,4506.12985,N,06839.58775,W,1.682,39.75,180924,,,A*48
$GPVTG,39.75,T,,M,1.682,N,3.116,K,A*0D
$GPGGA,185135.00,4506.12985,N,06839.58775,W,1,09,0.98,38.1,M,-29.0,M,,*5D
$GPGSA,A,3,24,12,25,21,23,10,02,28,32,,,,1.94,0.98,1.67*07
$GPGSV,3,1,12,02,13,319,35,10,76,202,41,12,36,089,20,21,20,303,37*70
$GPGSV,3,2,12,23,39,154,38,24,24,055,26,25,35,136,38,28,36,228,39*7C
$GPGSV,3,3,12,31,02,227,,32,64,305,42,46,12,248,27,48,15,245,*7F
$GPGLL,4506.12985,N,06839.58775,W,185135.00,A,A*7C
$RDENS,9796,5349347,PC
$GPRMC,185136.00,A,4506.13026,N,06839.58738,W,1.692,35.48,180924,,,A*40
$GPVTG,35.48,T,,M,1.692,N,3.133,K,A*09
$GPGGA,185136.00,4506.13026,N,06839.58738,W,1,09,0.98,38.1,M,-29.0,M,,*56
$GPGSA,A,3,24,12,25,21,23,10,02,28,32,,,,1.94,0.98,1.67*07
$GPGSV,3,1,12,02,13,319,35,10,76,202,41,12,36,089,22,21,20,303,38*7D
$GPGSV,3,2,12,23,39,154,39,24,24,055,25,25,35,136,33,28,36,228,37*7B
$GPGSV,3,3,12,31,02,227,,32,65,305,41,46,12,248,27,48,15,245,*7D
$GPGLL,4506.13026,N,06839.58738,W,185136.00,A,A*77
$RDENS,9797,5349426,PC
$RDENS,9798,5349505,PC
$GPRMC,185137.00,A,4506.13067,N,06839.58710,W,1.651,30.89,180924,,,A*49
$GPVTG,30.89,T,,M,1.651,N,3.058,K,A*02
$GPGGA,185137.00,4506.13067,N,06839.58710,W,1,09,0.98,38.1,M,-29.0,M,,*58
$GPGSA,A,3,24,12,25,21,23,10,02,28,32,,,,1.94,0.98,1.67*07
$GPGSV,3,1,12,02,13,319,24,10,76,202,41,12,36,089,31,21,20,303,38*7F
$GPGSV,3,2,12,23,39,154,39,24,24,055,22,25,35,136,35,28,36,228,34*79
$GPGSV,3,3,12,31,02,227,,32,65,305,41,46,12,248,,48,15,245,*78
$GPGLL,4506.13067,N,06839.58710,W,185137.00,A,A*79
$RDENS,9799,5349583,PC
$GPRMC,185138.00,A,4506.13112,N,06839.58688,W,1.697,23.69,180924,,,A*43
$GPVTG,23.69,T,,M,1.697,N,3.143,K,A*0F
$GPGGA,185138.00,4506.13112,N,06839.58688,W,1,09,0.98,38.2,M,-29.0,M,,*57
$GPGSA,A,3,24,12,25,21,23,10,02,28,32,,,,1.94,0.98,1.67*07
$GPGSV,3,1,12,02,13,319,24,10,76,202,41,12,36,089,36,21,20,303,35*75
$GPGSV,3,2,12,23,39,154,38,24,24,055,20,25,35,136,36,28,36,228,31*7C
$GPGSV,3,3,12,31,02,227,,32,65,305,42,46,12,248,,48,15,245,*7B
$GPGLL,4506.13112,N,06839.58688,W,185138.00,A,A*75
$RDENS,9800,5349662,PC
$GPRMC,185139.00,A,4506.13158,N,06839.58673,W,1.736,18.18,180924,,,A*4C
$GPVTG,18.18,T,,M,1.736,N,3.215,K,A*0B
$GPGGA,185139.00,4506.13158,N,06839.58673,W,1,08,1.17,38.1,M,-29.0,M,,*58
$GPGSA,A,3,12,25,21,23,10,02,28,32,,,,,2.05,1.17,1.69*02
$GPGSV,3,1,12,02,13,319,25,10,76,202,40,12,36,089,37,21,20,303,31*70
$GPGSV,3,2,12,23,39,154,40,24,24,055,,25,35,136,36,28,36,228,31*71
$GPGSV,3,3,12,31,02,227,,32,65,305,42,46,12,248,,48,15,245,*7B
$GPGLL,4506.13158,N,06839.58673,W,185139.00,A,A*7E
$RDENS,9801,5349740,PC
$RDENS,9802,5349820,PC
$GPRMC,185140.00,A,4506.13204,N,06839.58667,W,1.790,12.47,180924,,,A*41
$GPVTG,12.47,T,,M,1.790,N,3.316,K,A*05
$GPGGA,185140.00,4506.13204,N,06839.58667,W,1,08,1.17,38.1,M,-29.0,M,,*59
$GPGSA,A,3,12,25,21,23,10,02,28,32,,,,,2.05,1.17,1.69*02
$GPGSV,3,1,12,02,13,319,27,10,76,202,39,12,36,089,40,21,20,303,30*7D
$GPGSV,3,2,12,23,39,154,40,24,24,055,22,25,35,136,36,28,36,228,32*72
$GPGSV,3,3,12,31,02,227,,32,65,305,42,46,12,248,30,48,15,245,*78
$GPGLL,4506.13204,N,06839.58667,W,185140.00,A,A*7F
$RDENS,9803,5349897,PC
$GPRMC,185141.00,A,4506.13255,N,06839.58663,W,1.835,6.89,180924,,,A*77
$GPVTG,6.89,T,,M,1.835,N,3.398,K,A*34
$GPGGA,185141.00,4506.13255,N,06839.58663,W,1,07,1.20,38.1,M,-29.0,M,,*53
$GPGSA,A,3,12,25,23,10,02,28,32,,,,,,2.13,1.20,1.76*0C
$GPGSV,3,1,12,02,13,319,27,10,76,202,39,12,36,089,43,21,20,303,*7D
$GPGSV,3,2,12,23,39,154,41,24,24,055,23,25,35,136,36,28,36,228,35*75
$GPGSV,3,3,12,31,02,227,,32,65,305,42,46,12,248,31,48,15,245,*79
$GPGLL,4506.13255,N,06839.58663,W,185141.00,A,A*7E
$RDENS,9804,5349976,PC
$GPRMC,185142.00,A,4506.13307,N,06839.58664,W,1.876,5.10,180924,,,A*71
$GPVTG,5.10,T,,M,1.876,N,3.474,K,A*35
$GPGGA,185142.00,4506.13307,N,06839.58664,W,1,08,1.20,38.1,M,-29.0,M,,*5E
$GPGSA,A,3,24,12,25,23,10,02,28,32,,,,,2.13,1.20,1.76*0A
$GPGSV,3,1,12,02,13,319,33,10,76,202,38,12,36,089,43,21,20,303,*79
$GPGSV,3,2,12,23,39,154,41,24,24,055,22,25,35,136,36,28,36,228,34*75
$GPGSV,3,3,12,31,02,227,,32,65,305,43,46,12,248,31,48,15,245,*78
$GPGLL,4506.13307,N,06839.58664,W,185142.00,A,A*7C
$RDENS,9805,5350056,PC
$GPRMC,185143.00,A,4506.13361,N,06839.58666,W,2.027,1.83,180924,,,A*73
$GPVTG,1.83,T,,M,2.027,N,3.754,K,A*35
$GPGGA,185143.00,4506.13361,N,06839.58666,W,1,08,1.02,38.1,M,-29.0,M,,*5D
$GPGSA,A,3,24,12,25,23,10,02,28,32,,,,,2.02,1.02,1.74*08
$GPGSV,3,1,12,02,13,319,28,10,76,202,38,12,36,089,43,21,20,303,*73
$GPGSV,3,2,12,23,39,154,41,24,24,055,21,25,35,136,36,28,36,228,29*7A
$GPGSV,3,3,12,31,02,227,,32,65,305,43,46,12,248,31,48,15,245,*78
$GPGLL,4506.13361,N,06839.58666,W,185143.00,A,A*7F
$RDENS,9806,5350134,PC
$RDENS,9807,5350213,PC
$GPRMC,185144.00,A,4506.13412,N,06839.58681,W,1.885,354.79,180924,,,A*7B
$GPVTG,354.79,T,,M,1.885,N,3.490,K,A*3B
$GPGGA,185144.00,4506.13412,N,06839.58681,W,1,08,1.02,38.0,M,-29.0,M,,*51
$GPGSA,A,3,24,12,25,23,10,02,28,32,,,,,2.02,1.02,1.74*08
$GPGSV,3,1,12,02,13,319,29,10,76,202,36,12,36,089,42,21,20,303,26*79
$GPGSV,3,2,12,23,39,154,37,24,24,055,24,25,35,136,35,28,36,228,29*7D
$GPGSV,3,3,12,31,02,227,,32,65,305,43,46,12,248,33,48,15,245,*7A
$GPGLL,4506.13412,N,06839.58681,W,185144.00,A,A*72
$RDENS,9808,5350291,PC
$GPRMC,185145.00,A,4506.13464,N,06839.58698,W,1.952,347.35,180924,,,A*72
$GPVTG,347.35,T,,M,1.952,N,3.615,K,A*35
$GPGGA,185145.00,4506.13464,N,06839.58698,W,1,09,0.98,38.0,M,-29.0,M,,*5A
$GPGSA,A,3,24,12,25,21,23,10,02,28,32,,,,1.94,0.98,1.67*07
$GPGSV,3,1,12,02,13,319,29,10,76,202,38,12,36,089,40,21,20,303,27*74
$GPGSV,3,2,12,23,39,154,37,24,24,055,32,25,35,136,38,28,36,228,30*7F
$GPGSV,3,3,12,31,02,227,,32,65,305,43,46,12,248,34,48,15,245,*7D
$GPGLL,4506.13464,N,06839.58698,W,185145.00,A,A*7A
$RDENS,9809,5350370,PC
$GPRMC,185146.00,A,4506.13515,N,06839.58725,W,2.014,343.48,180924,,,A*77
$GPVTG,343.48,T,,M,2.014,N,3.730,K,A*35
$GPGGA,185146.00,4506.13515,N,06839.58725,W,1,09,0.98,38.1,M,-29.0,M,,*58
$GPGSA,A,3,24,12,25,21,23,10,02,28,32,,,,1.94,0.98,1.67*07
$GPGSV,3,1,12,02,13,319,28,10,76,202,37,12,36,089,40,21,20,303,25*78
$GPGSV,3,2,12,23,39,154,39,24,24,055,33,25,35,136,39,28,36,228,34*75
$GPGSV,3,3,12,31,02,227,,32,65,305,40,46,12,248,34,48,15,245,*7E
$GPGLL,4506.13515,N,06839.58725,W,185146.00,A,A*79
$RDENS,9810,5350449,PC
$GPRMC,185147.00,A,4506.13568,N,06839.58755,W,2.068,340.19,180924,,,A*77
$GPVTG,340.19,T,,M,2.068,N,3.830,K,A*36
$GPGGA,185147.00,4506.13568,N,06839.58755,W,1,09,0.98,38.1,M,-29.0,M,,*54
$GPGSA,A,3,24,12,25,21,23,10,02,28,32,,,,1.94,0.98,1.67*07
$GPGSV,3,1,12,02,13,319,25,10,76,202,36,12,36,089,39,21,20,303,25*7A
$GPGSV,3,2,12,23,39,154,40,24,24,055,35,25,35,136,39,28,36,228,33*7A
$GPGSV,3,3,12,31,02,227,,32,65,305,41,46,12,248,35,48,15,245,*7E
$GPGLL,4506.13568,N,06839.58755,W,185147.00,A,A*75
$RDENS,9811,5350528,PC
$RDENS,9812,5350607,PC
$GPRMC,185148.00,A,4506.13621,N,06839.58793,W,2.125,336.21,180924,,,A*7E
$GPVTG,336.21,T,,M,2.125,N,3.935,K,A*30
$GPGGA,185148.00,4506.13621,N,06839.58793,W,1,09,0.98,38.2,M,-29.0,M,,*5C
$GPGSA,A,3,24,12,25,21,23,10,02,28,32,,,,1.94,0.98,1.67*07
$GPGSV,3,1,12,02,13,319,23,10,76,202,37,12,36,089,39,21,20,303,29*71
$GPGSV,3,2,12,23,39,154,38,24,24,055,36,25,35,136,39,28,36,228,33*76
$GPGSV,3,3,12,31,02,227,,32,65,305,42,46,12,248,36,48,15,245,*7E
$GPGLL,4506.13621,N,06839.58793,W,185148.00,A,A*7E
$RDENS,9813,5350685,PC
$GPRMC,185149.00,A,4506.13671,N,06839.58836,W,2.158,333.47,180924,,,A*75
$GPVTG,333.47,T,,M,2.158,N,3.996,K,A*36
$GPGGA,185149.00,4506.13671,N,06839.58836,W,1,09,0.98,38.3,M,-29.0,M,,*59
$GPGSA,A,3,24,12,25,21,23,10,02,28,32,,,,1.94,0.98,1.67*07
$GPGSV,3,1,12,02,13,319,23,10,76,202,36,12,36,089,39,21,20,303,28*71
$GPGSV,3,2,12,23,39,154,38,24,24,055,37,25,35,136,40,28,36,228,32*78
$GPGSV,3,3,12,31,02,227,,32,65,305,42,46,12,248,36,48,15,245,*7E
$GPGLL,4506.13671,N,06839.58836,W,185149.00,A,A*7A
$RDENS,9814,5350764,PC
$GPRMC,185150.00,A,4506.13724,N,06839.58884,W,2.265,330.05,180924,,,A*7D
$GPVTG,330.05,T,,M,2.265,N,4.195,K,A*32
$GPGGA,185150.00,4506.13724,N,06839.58884,W,1,09,0.98,38.3,M,-29.0,M,,*59
$GPGSA,A,3,24,12,25,21,23,10,02,28,32,,,,1.94,0.98,1.67*07
$GPGSV,3,1,12,02,13,319,23,10,76,202,36,12,36,089,39,21,20,303,29*70
$GPGSV,3,2,12,23,39,154,38,24,24,055,37,25,35,136,40,28,36,228,31*7B
$GPGSV,3,3,12,31,02,227,,32,65,305,43,46,12,248,35,48,15,245,*7C
$GPGLL,4506.13724,N,06839.58884,W,185150.00,A,A*7A
$RDENS,9815,5350843,PC
$RDENS,9816,5350922,PC
$GPRMC,185151.00,A,4506.13777,N,06839.58931,W,2.217,328.70,180924,,,A*7B
$GPVTG,328.70,T,,M,2.217,N,4.107,K,A*37
$GPGGA,185151.00,4506.13777,N,06839.58931,W,1,09,0.98,38.4,M,-29.0,M,,*56
$GPGSA,A,3,24,12,25,21,23,10,02,28,32,,,,1.94,0.98,1.67*07
$GPGSV,3,1,12,02,13,319,23,10,76,202,36,12,36,089,39,21,20,303,29*70
$GPGSV,3,2,12,23,39,154,39,24,24,055,37,25,35,136,40,28,36,228,31*7A
$GPGSV,3,3,12,31,02,227,,32,65,305,43,46,12,248,35,48,15,245,*7C
$GPGLL,4506.13777,N,06839.58931,W,185151.00,A,A*72
$RDENS,9817,5351000,PC
$GPRMC,185152.00,A,4506.13828,N,06839.58982,W,2.255,327.15,180924,,,A*7F
$GPVTG,327.15,T,,M,2.255,N,4.176,K,A*3B
$GPGGA,185152.00,4506.13828,N,06839.58982,W,1,09,0.98,38.3,M,-29.0,M,,*5F
$GPGSA,A,3,24,12,25,21,23,10,02,28,32,,,,1.94,0.98,1.67*07
$GPGSV,3,1,12,02,13,319,22,10,76,202,34,12,36,089,39,21,20,303,28*72
$GPGSV,3,2,12,23,39,154,38,24,24,055,37,25,35,136,39,28,36,228,30*74
$GPGSV,3,3,12,31,02,227,,32,65,305,43,46,12,248,35,48,15,245,*7C
$GPGLL,4506.13828,N,06839.58982,W,185152.00,A,A*7C
$RDENS,9818,5351079,PC
$GPRMC,185153.00,A,4506.13882,N,06839.59031,W,2.279,327.52,180924,,,A*73
$GPVTG,327.52,T,,M,2.279,N,4.221,K,A*37
$GPGGA,185153.00,4506.13882,N,06839.59031,W,1,10,0.86,38.5,M,-29.0,M,,*5F
$GPGSA,A,3,24,12,25,21,23,10,02,28,32,46,,,1.66,0.86,1.42*00
$GPGSV,3,1,12,02,13,319,21,10,76,202,35,12,36,089,39,21,20,303,27*7F
$GPGSV,3,2,12,23,39,154,38,24,24,055,37,25,35,136,38,28,36,228,29*7D
$GPGSV,3,3,12,31,02,227,,32,65,305,43,46,12,248,35,48,15,245,*7C
$GPGLL,4506.13882,N,06839.59031,W,185153.00,A,A*7D
$RDENS,9819,5351157,PC
$GPRMC,185154.00,A,4506.13934,N,06839.59086,W,2.311,325.14,180924,,,D*7E
$GPVTG,325.14,T,,M,2.311,N,4.280,K,D*36
$GPGGA,185154.00,4506.13934,N,06839.59086,W,2,10,0.86,38.5,M,-29.0,M,,0000*5B
$GPGSA,A,3,24,12,25,21,23,10,02,28,32,46,,,1.66,0.86,1.42*00
$GPGSV,3,1,12,02,13,319,25,10,76,202,36,12,36,089,40,21,20,303,26*77
$GPGSV,3,2,12,23,39,154,38,24,24,055,37,25,35,136,38,28,36,228,30*75
$GPGSV,3,3,12,31,02,227,,32,65,305,43,46,12,248,37,48,15,245,*7E
$GPGLL,4506.13934,N,06839.59086,W,185154.00,A,D*7F
$RDENS,9820,5351236,PC
$RDENS,9821,5351315,PC
$GPRMC,185155.00,A,4506.13984,N,06839.59145,W,2.400,322.65,180924,,,D*7C
$GPVTG,322.65,T,,M,2.400,N,4.445,K,D*3F
$GPGGA,185155.00,4506.13984,N,06839.59145,W,2,10,0.86,38.5,M,-29.0,M,,0000*5F
$GPGSA,A,3,24,12,25,21,23,10,02,28,32,46,,,1.66,0.86,1.42*00
$GPGSV,3,1,12,02,13,319,27,10,76,202,35,12,36,089,40,21,20,303,25*75
$GPGSV,3,2,12,23,39,154,38,24,24,055,37,25,35,136,38,28,36,228,34*71
$GPGSV,3,3,12,31,02,227,,32,65,305,43,46,12,248,36,48,15,245,*7F
$GPGLL,4506.13984,N,06839.59145,W,185155.00,A,D*7B
$RDENS,9822,5351394,PC
$GPRMC,185156.00,A,4506.14039,N,06839.59199,W,2.375,321.05,180924,,,D*76
$GPVTG,321.05,T,,M,2.375,N,4.398,K,D*38
$GPGGA,185156.00,4506.14039,N,06839.59199,W,2,10,0.86,38.6,M,-29.0,M,,0000*56
$GPGSA,A,3,24,12,25,21,23,10,02,28,32,46,,,1.66,0.86,1.42*00
$GPGSV,3,1,12,02,13,319,27,10,76,202,32,12,36,089,39,21,20,303,25*7C
$GPGSV,3,2,12,23,39,154,40,24,24,055,35,25,35,136,35,28,36,228,38*7D
$GPGSV,3,3,12,31,02,227,,32,65,305,38,46,12,248,36,48,15,245,*73
$GPGLL,4506.14039,N,06839.59199,W,185156.00,A,D*71
$RDENS,9823,5351472,PC
$GPRMC,185157.00,A,4506.14090,N,06839.59257,W,2.330,320.82,180924,,,D*7A
$GPVTG,320.82,T,,M,2.330,N,4.315,K,D*32
$GPGGA,185157.00,4506.14090,N,06839.59257,W,2,10,0.86,38.6,M,-29.0,M,,0000*55
$GPGSA,A,3,24,12,25,21,23,10,02,28,32,46,,,1.66,0.86,1.42*00
$GPGSV,3,1,12,02,13,319,29,10,76,202,36,12,36,089,38,21,20,303,24*76
$GPGSV,3,2,12,23,39,154,40,24,24,055,34,25,35,136,34,28,36,228,33*76
$GPGSV,3,3,12,31,02,227,,32,65,305,44,46,12,248,35,48,15,245,*7B
$GPGLL,4506.14090,N,06839.59257,W,185157.00,A,D*72
$RDENS,9824,5351551,PC
$GPRMC,185158.00,A,4506.14139,N,06839.59312,W,2.238,320.53,180924,,,D*72
$GPVTG,320.53,T,,M,2.238,N,4.145,K,D*30
$GPGGA,185158.00,4506.14139,N,06839.59312,W,2,10,0.86,38.5,M,-29.0,M,,0000*5B
$GPGSA,A,3,24,12,25,21,23,10,02,28,32,46,,,1.66,0.86,1.42*00
$GPGSV,3,1,12,02,13,319,28,10,76,201,36,12,36,089,39,21,20,303,27*76
$GPGSV,3,2,12,23,39,154,41,24,24,055,34,25,35,136,35,28,36,228,33*76
$GPGSV,3,3,12,31,02,227,20,32,65,305,43,46,12,248,36,48,15,245,*7D
$GPGLL,4506.14139,N,06839.59312,W,185158.00,A,D*7F
$RDENS,9825,5351629,PC
$RDENS,9826,5351708,PC
$GPRMC,185159.00,A,4506.14184,N,06839.59365,W,2.144,320.15,180924,,,D*7F
$GPVTG,320.15,T,,M,2.144,N,3.971,K,D*32
$GPGGA,185159.00,4506.14184,N,06839.59365,W,2,10,0.86,38.6,M,-29.0,M,,0000*5F
$GPGSA,A,3,24,12,25,21,23,10,02,28,32,46,,,1.66,0.86,1.42*00
$GPGSV,3,1,12,02,13,319,27,10,76,201,37,12,36,089,39,21,20,303,27*78
$GPGSV,3,2,12,23,39,154,41,24,24,055,33,25,35,136,35,28,36,228,34*76
$GPGSV,3,3,12,31,02,227,20,32,65,305,43,46,12,248,36,48,15,245,*7D
$GPGLL,4506.14184,N,06839.59365,W,185159.00,A,D*78
$RDENS,9827,5351788,PC
$GPRMC,185200.00,A,4506.14227,N,06839.59418,W,2.124,318.87,180924,,,D*71
$GPVTG,318.87,T,,M,2.124,N,3.934,K,D*35
$GPGGA,185200.00,4506.14227,N,06839.59418,W,2,10,0.86,38.6,M,-29.0,M,,0000*57
$GPGSA,A,3,24,12,25,21,23,10,02,28,32,46,,,1.66,0.86,1.42*00
$GPGSV,3,1,12,02,13,319,26,10,76,201,34,12,36,088,38,21,20,303,32*7E
$GPGSV,3,2,12,23,39,154,40,24,24,055,34,25,35,136,35,28,36,228,34*70
$GPGSV,3,3,12,31,02,227,18,32,65,305,43,46,12,248,35,48,15,245,*75
$GPGLL,4506.14227,N,06839.59418,W,185200.00,A,D*70
$RDENS,9828,5351866,PC
$GPRMC,185201.00,A,4506.14269,N,06839.59471,W,2.040,318.09,180924,,,D*70
$GPVTG,318.09,T,,M,2.040,N,3.778,K,D*36
$GPGGA,185201.00,4506.14269,N,06839.59471,W,2,10,0.86,38.6,M,-29.0,M,,0000*53
$GPGSA,A,3,24,12,25,21,23,10,02,28,32,46,,,1.66,0.86,1.42*00
$GPGSV,3,1,12,02,13,319,26,10,76,201,35,12,36,088,38,21,20,303,30*7D
$GPGSV,3,2,12,23,39,154,39,24,24,055,34,25,35,136,33,28,36,228,32*7E
$GPGSV,3,3,12,31,02,227,17,32,65,305,44,46,12,248,35,48,15,245,*7D
$GPGLL,4506.14269,N,06839.59471,W,185201.00,A,D*74
$RDENS,9829,5351945,PC
$GPRMC,185202.00,A,4506.14311,N,06839.59523,W,2.033,317.47,180924,,,D*7A
$GPVTG,317.47,T,,M,2.033,N,3.764,K,D*3A
$GPGGA,185202.00,4506.14311,N,06839.59523,W,2,10,0.86,38.6,M,-29.0,M,,0000*58
$GPGSA,A,3,24,12,25,21,23,10,02,28,32,46,,,1.66,0.86,1.42*00
$GPGSV,3,1,12,02,13,319,26,10,76,201,37,12,36,088,39,21,20,303,29*76
$GPGSV,3,2,12,23,39,154,40,24,24,055,35,25,35,136,35,28,36,228,35*70
$GPGSV,3,3,12,31,02,227,19,32,65,305,43,46,12,248,36,48,15,245,*77
$GPGLL,4506.14311,N,06839.59523,W,185202.00,A,D*7F
$RDENS,9830,5352024,PC
$RDENS,9831,5352103,PC
$GPRMC,185203.00,A,4506.14352,N,06839.59573,W,1.975,316.67,180924,,,D*72
$GPVTG,316.67,T,,M,1.975,N,3.658,K,D*3F
$GPGGA,185203.00,4506.14352,N,06839.59573,W,2,10,0.86,38.6,M,-29.0,M,,0000*5B
$GPGSA,A,3,24,12,25,21,23,10,02,28,32,46,,,1.66,0.86,1.42*00
$GPGSV,3,1,12,02,13,319,27,10,76,201,37,12,36,088,40,21,20,303,29*79
$GPGSV,3,2,12,23,39,154,39,24,24,055,36,25,35,136,38,28,36,228,35*70
$GPGSV,3,3,12,31,02,227,19,32,65,305,43,46,12,248,36,48,15,245,*77
$GPGLL,4506.14352,N,06839.59573,W,185203.00,A,D*7C
$RDENS,9832,5352181,PC
$GPRMC,185204.00,A,4506.14392,N,06839.59627,W,1.967,316.17,180924,,,D*7F
$GPVTG,316.17,T,,M,1.967,N,3.643,K,D*31
$GPGGA,185204.00,4506.14392,N,06839.59627,W,2,10,0.86,38.6,M,-29.0,M,,0000*52
$GPGSA,A,3,24,12,25,21,23,10,02,28,32,46,,,1.66,0.86,1.42*00
$GPGSV,3,1,12,02,13,319,27,10,76,201,37,12,36,088,38,21,20,303,32*7C
$GPGSV,3,2,12,23,39,154,39,24,24,055,37,25,35,136,38,28,36,228,32*76
$GPGSV,3,3,12,31,02,227,19,32,65,305,44,46,12,248,37,48,15,245,*71
$GPGLL,4506.14392,N,06839.59627,W,185204.00,A,D*75
$RDENS,9833,5352260,PC
$GPRMC,185205.00,A,4506.14429,N,06839.59677,W,1.943,315.82,180924,,,D*75
$GPVTG,315.82,T,,M,1.943,N,3.599,K,D*3C
$GPGGA,185205.00,4506.14429,N,06839.59677,W,2,10,0.86,38.6,M,-29.0,M,,0000*51
$GPGSA,A,3,24,12,25,21,23,10,02,28,32,46,,,1.66,0.86,1.42*00
$GPGSV,3,1,12,02,13,319,29,10,76,201,37,12,36,088,38,21,20,303,33*73
$GPGSV,3,2,12,23,39,154,38,24,24,055,37,25,35,136,38,28,36,228,34*71
$GPGSV,3,3,12,31,02,227,19,32,65,305,45,46,12,248,39,48,15,245,*7E
$GPGLL,4506.14429,N,06839.59677,W,185205.00,A,D*76
$RDENS,9834,5352338,PC
$RDENS,9835,5352417,PC
$GPRMC,185206.00,A,4506.14465,N,06839.59727,W,1.921,315.44,180924,,,D*74
$GPVTG,315.44,T,,M,1.921,N,3.558,K,D*3F
$GPGGA,185206.00,4506.14465,N,06839.59727,W,2,10,0.86,38.7,M,-29.0,M,,0000*5F
$GPGSA,A,3,24,12,25,21,23,10,02,28,32,46,,,1.66,0.86,1.42*00
$GPGSV,3,1,12,02,13,319,32,10,76,201,34,12,36,088,39,21,20,303,33*7B
$GPGSV,3,2,12,23,39,154,37,24,24,055,37,25,35,136,36,28,36,228,33*77
$GPGSV,3,3,12,31,02,227,18,32,65,305,44,46,12,248,37,48,15,245,*70
$GPGLL,4506.14465,N,06839.59727,W,185206.00,A,D*79
$RDENS,9836,5352496,PC
$GPRMC,185207.00,A,4506.14502,N,06839.59780,W,1.894,314.74,180924,,,D*75
$GPVTG,314.74,T,,M,1.894,N,3.508,K,D*37
$GPGGA,185207.00,4506.14502,N,06839.59780,W,2,10,0.86,38.7,M,-29.0,M,,0000*53
$GPGSA,A,3,24,12,25,21,23,10,02,28,32,46,,,1.66,0.86,1.42*00
$GPGSV,3,1,12,02,13,319,32,10,76,201,34,12,36,088,40,21,20,303,33*75
$GPGSV,3,2,12,23,39,154,37,24,24,055,37,25,35,136,35,28,36,228,33*74
$GPGSV,3,3,12,31,02,227,,32,65,305,44,46,12,248,37,48,15,245,*79
$GPGLL,4506.14502,N,06839.59780,W,185207.00,A,D*75
$RDENS,9837,5352575,PC
$GPRMC,185208.00,A,4506.14537,N,06839.59834,W,1.875,313.93,180924,,,D*7D
$GPVTG,313.93,T,,M,1.875,N,3.472,K,D*3A
$GPGGA,185208.00,4506.14537,N,06839.59834,W,2,10,0.86,38.7,M,-29.0,M,,0000*5A
$GPGSA,A,3,24,12,25,21,23,10,02,28,32,46,,,1.66,0.86,1.42*00
$GPGSV,3,1,12,02,13,319,31,10,76,201,35,12,36,088,40,21,20,303,33*77
$GPGSV,3,2,12,23,39,154,38,24,24,055,37,25,35,136,35,28,36,228,33*7B
$GPGSV,3,3,12,31,02,227,,32,65,305,45,46,12,248,38,48,15,245,*77
$GPGLL,4506.14537,N,06839.59834,W,185208.00,A,D*7C
$RDENS,9838,5352653,PC
$GPRMC,185209.00,A,4506.14573,N,06839.59887,W,1.909,313.94,180924,,,D*79
$GPVTG,313.94,T,,M,1.909,N,3.536,K,D*36
$GPGGA,185209.00,4506.14573,N,06839.59887,W,2,10,0.86,38.6,M,-29.0,M,,0000*52
$GPGSA,A,3,24,12,25,21,23,10,02,28,32,46,,,1.66,0.86,1.42*00
$GPGSV,3,1,12,02,13,319,31,10,76,201,34,12,36,088,39,21,20,302,33*79
$GPGSV,3,2,12,23,39,154,37,24,24,055,37,25,35,136,36,28,36,228,34*70
$GPGSV,3,3,12,31,02,227,,32,65,305,44,46,12,248,38,48,15,245,*76
$GPGLL,4506.14573,N,06839.59887,W,185209.00,A,D*75
$RDENS,9839,5352732,PC
$RDENS,9840,5352810,PC
$GPRMC,185210.00,A,4506.14608,N,06839.59938,W,1.836,313.75,180924,,,D*79
$GPVTG,313.75,T,,M,1.836,N,3.400,K,D*30
$GPGGA,185210.00,4506.14608,N,06839.59938,W,2,10,0.86,38.7,M,-29.0,M,,0000*51
$GPGSA,A,3,24,12,25,21,23,10,02,28,32,46,,,1.66,0.86,1.42*00
$GPGSV,3,1,12,02,13,319,30,10,76,201,35,12,36,088,38,21,20,302,33*78
$GPGSV,3,2,12,23,39,154,37,24,24,055,37,25,35,136,37,28,36,228,34*71
$GPGSV,3,3,12,31,02,227,,32,65,305,44,46,12,248,37,48,15,245,*79
$GPGLL,4506.14608,N,06839.59938,W,185210.00,A,D*77
$RDENS,9841,5352889,PC
$GPRMC,185211.00,A,4506.14642,N,06839.59988,W,1.831,313.96,180924,,,D*77
$GPVTG,313.96,T,,M,1.831,N,3.391,K,D*35
$GPGGA,185211.00,4506.14642,N,06839.59988,W,2,10,0.86,38.7,M,-29.0,M,,0000*55
$GPGSA,A,3,24,12,25,21,23,10,02,28,32,46,,,1.66,0.86,1.42*00
$GPGSV,3,1,12,02,13,319,23,10,76,201,37,12,36,088,39,21,20,302,33*79
$GPGSV,3,2,12,23,38,154,36,24,24,055,37,25,35,136,39,28,36,228,34*7F
$GPGSV,3,3,12,31,02,227,,32,65,305,42,46,12,248,35,48,15,245,*7D
$GPGLL,4506.14642,N,06839.59988,W,185211.00,A,D*73
$RDENS,9842,5352968,PC
$GPRMC,185212.00,A,4506.14678,N,06839.60037,W,1.803,314.94,180924,,,D*7E
$GPVTG,314.94,T,,M,1.803,N,3.339,K,D*33
$GPGGA,185212.00,4506.14678,N,06839.60037,W,2,10,0.86,38.6,M,-29.0,M,,0000*59
$GPGSA,A,3,24,12,25,21,23,10,02,28,32,46,,,1.66,0.86,1.42*00
$GPGSV,3,1,12,02,13,319,25,10,76,201,36,12,36,088,39,21,20,302,32*7F
$GPGSV,3,2,12,23,38,154,37,24,24,055,37,25,35,136,38,28,36,228,34*7F
$GPGSV,3,3,12,31,02,227,,32,65,305,43,46,12,248,35,48,15,245,*7C
$GPGLL,4506.14678,N,06839.60037,W,185212.00,A,D*7E
$RDENS,9843,5353047,PC
$GPRMC,185213.00,A,4506.14712,N,06839.60085,W,1.780,315.05,180924,,,D*76
$GPVTG,315.05,T,,M,1.780,N,3.297,K,D*3B
$GPGGA,185213.00,4506.14712,N,06839.60085,W,2,10,0.86,38.6,M,-29.0,M,,0000*5C
$GPGSA,A,3,24,12,25,21,23,10,02,28,32,46,,,1.66,0.86,1.42*00
$GPGSV,3,1,12,02,13,319,28,10,76,201,35,12,36,088,39,21,20,302,32*71
$GPGSV,3,2,12,23,38,154,36,24,24,055,37,25,36,136,38,28,36,228,35*7C
$GPGSV,3,3,12,31,02,227,,32,65,305,44,46,12,248,37,48,15,245,*79
$GPGLL,4506.14712,N,06839.60085,W,185213.00,A,D*7B
$RDENS,9844,5353125,PC
$RDENS,9845,5353204,PC
$GPRMC,185214.00,A,4506.14747,N,06839.60132,W,1.800,314.75,180924,,,D*7D
$GPVTG,314.75,T,,M,1.800,N,3.334,K,D*32
$GPGGA,185214.00,4506.14747,N,06839.60132,W,2,10,0.86,38.6,M,-29.0,M,,0000*56
$GPGSA,A,3,24,12,25,21,23,10,02,28,32,46,,,1.66,0.86,1.42*00
$GPGSV,3,1,12,02,13,319,30,10,76,201,35,12,36,088,40,21,20,302,33*77
$GPGSV,3,2,12,23,38,154,38,24,24,055,37,25,36,136,38,28,36,228,34*73
$GPGSV,3,3,12,31,02,227,,32,65,305,44,46,12,248,37,48,15,245,*79
$GPGLL,4506.14747,N,06839.60132,W,185214.00,A,D*71
$RDENS,9846,5353282,PC
$GPRMC,185215.00,A,4506.14781,N,06839.60180,W,1.797,314.63,180924,,,D*79
$GPVTG,314.63,T,,M,1.797,N,3.327,K,D*36
$GPGGA,185215.00,4506.14781,N,06839.60180,W,2,10,0.86,38.6,M,-29.0,M,,0000*54
$GPGSA,A,3,24,12,25,21,23,10,02,28,32,46,,,1.66,0.86,1.42*00
$GPGSV,3,1,12,02,13,319,30,10,76,201,35,12,36,088,38,21,20,302,33*78
$GPGSV,3,2,12,23,38,154,36,24,24,055,37,25,36,136,37,28,36,228,34*72
$GPGSV,3,3,12,31,02,227,,32,65,305,44,46,12,248,36,48,15,245,*78
$GPGLL,4506.14781,N,06839.60180,W,185215.00,A,D*73
$RDENS,9847,5353361,PC
$GPRMC,185216.00,A,4506.14817,N,06839.60229,W,1.863,315.05,180924,,,D*7F
$GPVTG,315.05,T,,M,1.863,N,3.450,K,D*34
$GPGGA,185216.00,4506.14817,N,06839.60229,W,2,10,0.86,38.5,M,-29.0,M,,0000*54
$GPGSA,A,3,24,12,25,21,23,10,02,28,32,46,,,1.66,0.86,1.42*00
$GPGSV,3,1,12,02,13,319,30,10,76,201,34,12,36,088,39,21,20,302,33*78
$GPGSV,3,2,12,23,38,154,36,24,24,055,37,25,36,136,38,28,37,228,34*7C
$GPGSV,3,3,12,31,02,227,,32,65,305,44,46,12,248,36,48,15,245,*78
$GPGLL,4506.14817,N,06839.60229,W,185216.00,A,D*70
$RDENS,9848,5353440,PC
$RDENS,9849,5353519,PC
$GPRMC,185217.00,A,4506.14856,N,06839.60280,W,1.988,315.76,180924,,,D*78
$GPVTG,315.76,T,,M,1.988,N,3.681,K,D*3A
$GPGGA,185217.00,4506.14856,N,06839.60280,W,2,10,0.86,38.5,M,-29.0,M,,0000*53
$GPGSA,A,3,24,12,25,21,23,10,02,28,32,46,,,1.66,0.86,1.42*00
$GPGSV,3,1,12,02,13,319,29,10,76,201,34,12,36,088,39,21,20,302,33*70
$GPGSV,3,2,12,23,38,154,37,24,24,055,38,25,36,136,38,28,37,228,34*72
$GPGSV,3,3,12,31,02,227,,32,65,305,44,46,12,248,36,48,15,245,*78
$GPGLL,4506.14856,N,06839.60280,W,185217.00,A,D*77
$RDENS,9850,5353597,PC
$GPRMC,185218.00,A,4506.14897,N,06839.60333,W,2.045,316.67,180924,,,D*7B
$GPVTG,316.67,T,,M,2.045,N,3.787,K,D*35
$GPGGA,185218.00,4506.14897,N,06839.60333,W,2,10,0.86,38.4,M,-29.0,M,,0000*59
$GPGSA,A,3,24,12,25,21,23,10,02,28,32,46,,,1.66,0.86,1.42*00
$GPGSV,3,1,12,02,13,319,29,10,76,201,34,12,36,088,39,21,20,302,33*70
$GPGSV,3,2,12,23,38,154,37,24,24,055,38,25,36,136,39,28,37,228,34*73
$GPGSV,3,3,12,31,02,227,,32,65,305,44,46,12,248,36,48,15,245,*78
$GPGLL,4506.14897,N,06839.60333,W,185218.00,A,D*7C
$RDENS,9851,5353676,PC
$GPRMC,185219.00,A,4506.14941,N,06839.60387,W,2.120,317.33,180924,,,D*7D
$GPVTG,317.33,T,,M,2.120,N,3.926,K,D*32
$GPGGA,185219.00,4506.14941,N,06839.60387,W,2,10,0.86,38.4,M,-29.0,M,,0000*5D
$GPGSA,A,3,24,12,25,21,23,10,02,28,32,46,,,1.66,0.86,1.42*00
$GPGSV,3,1,12,02,13,319,29,10,76,201,35,12,36,088,39,21,20,302,33*71
$GPGSV,3,2,12,23,38,154,36,24,24,055,37,25,36,136,39,28,37,228,35*7C
$GPGSV,3,3,12,31,02,227,,32,65,305,45,46,12,248,37,48,15,245,*78
$GPGLL,4506.14941,N,06839.60387,W,185219.00,A,D*78
$RDENS,9852,5353755,PC
$GPRMC,185220.00,A,4506.14985,N,06839.60442,W,2.155,317.72,180924,,,D*76
$GPVTG,317.72,T,,M,2.155,N,3.990,K,D*38
$GPGGA,185220.00,4506.14985,N,06839.60442,W,2,10,0.86,38.4,M,-29.0,M,,0000*51
$GPGSA,A,3,24,12,25,21,23,10,02,28,32,46,,,1.66,0.86,1.42*00
$GPGSV,3,1,12,02,13,319,30,10,76,201,35,12,36,088,39,21,20,302,33*79
$GPGSV,3,2,12,23,38,154,36,24,24,055,37,25,36,136,38,28,37,228,35*7D
$GPGSV,3,3,12,31,02,227,,32,65,306,44,46,12,248,36,48,15,245,*7B
$GPGLL,4506.14985,N,06839.60442,W,185220.00,A,D*74
$RDENS,9853,5353833,PC
$RDENS,9854,5353912,PC
$GPRMC,185221.00,A,4506.15030,N,06839.60499,W,2.211,317.80,180924,,,D*79
$GPVTG,317.80,T,,M,2.211,N,4.095,K,D*3D
$GPGGA,185221.00,4506.15030,N,06839.60499,W,2,10,0.86,38.4,M,-29.0,M,,0000*50
$GPGSA,A,3,24,12,25,21,23,10,02,28,32,46,,,1.66,0.86,1.42*00
$GPGSV,3,1,12,02,13,319,31,10,76,201,34,12,36,088,39,21,20,302,33*79
$GPGSV,3,2,12,23,38,154,37,24,24,055,37,25,36,136,37,28,37,228,36*70
$GPGSV,3,3,12,31,02,227,,32,65,306,44,46,12,248,37,48,15,245,*7A
$GPGLL,4506.15030,N,06839.60499,W,185221.00,A,D*75
$RDENS,9855,5353990,PC
$GPRMC,185222.00,A,4506.15076,N,06839.60557,W,2.283,318.01,180924,,,D*76
$GPVTG,318.01,T,,M,2.283,N,4.227,K,D*3B
$GPGGA,185222.00,4506.15076,N,06839.60557,W,2,10,0.86,38.3,M,-29.0,M,,0000*55
$GPGSA,A,3,24,12,25,21,23,10,02,28,32,46,,,1.66,0.86,1.42*00
$GPGSV,3,1,12,02,13,319,31,10,76,201,34,12,36,088,39,21,20,302,32*78
$GPGSV,3,2,12,23,38,154,36,24,24,055,37,25,36,136,37,28,37,228,35*72
$GPGSV,3,3,12,31,02,227,,32,65,306,44,46,12,248,36,48,15,245,*7B
$GPGLL,4506.15076,N,06839.60557,W,185222.00,A,D*77
$RDENS,9856,5354070,PC
$GPRMC,185223.00,A,4506.15122,N,06839.60615,W,2.253,318.01,180924,,,D*7F
$GPVTG,318.01,T,,M,2.253,N,4.173,K,D*34
$GPGGA,185223.00,4506.15122,N,06839.60615,W,2,10,0.86,38.2,M,-29.0,M,,0000*50
$GPGSA,A,3,24,12,25,21,23,10,02,28,32,46,,,1.66,0.86,1.42*00
$GPGSV,3,1,12,02,13,319,31,10,76,201,34,12,36,088,39,21,20,302,33*79
$GPGSV,3,2,12,23,38,154,37,24,24,055,38,25,36,136,38,28,37,228,35*73
$GPGSV,3,3,12,31,02,227,,32,65,306,45,46,12,248,36,48,15,245,*7A
$GPGLL,4506.15122,N,06839.60615,W,185223.00,A,D*73
$RDENS,9857,5354148,PC
$GPRMC,185224.00,A,4506.15168,N,06839.60674,W,2.266,318.11,180924,,,D*76
$GPVTG,318.11,T,,M,2.266,N,4.196,K,D*38
$GPGGA,185224.00,4506.15168,N,06839.60674,W,2,10,0.86,38.2,M,-29.0,M,,0000*5E
$GPGSA,A,3,24,12,25,21,23,10,02,28,32,46,,,1.66,0.86,1.42*00
$GPGSV,3,1,12,02,13,319,30,10,76,201,35,12,36,088,39,21,20,302,33*79
$GPGSV,3,2,12,23,38,154,37,24,24,055,37,25,36,136,38,28,37,228,35*7C
$GPGSV,3,3,12,31,02,227,,32,65,306,43,46,12,248,36,48,15,245,*7C
$GPGLL,4506.15168,N,06839.60674,W,185224.00,A,D*7D
$RDENS,9858,5354227,PC
$RDENS,9859,5354305,PC
$GPRMC,185225.00,A,4506.15215,N,06839.60732,W,2.269,318.56,180924,,,D*71
$GPVTG,318.56,T,,M,2.269,N,4.202,K,D*3A
$GPGGA,185225.00,4506.15215,N,06839.60732,W,2,10,0.86,38.2,M,-29.0,M,,0000*55
$GPGSA,A,3,24,12,25,21,23,10,02,28,32,46,,,1.66,0.86,1.42*00
$GPGSV,3,1,12,02,13,319,30,10,76,201,35,12,36,088,39,21,20,302,35*7F
$GPGSV,3,2,12,23,38,154,38,24,24,055,37,25,36,136,38,28,37,228,36*70
$GPGSV,3,3,12,31,02,227,,32,65,306,45,46,12,248,37,48,15,245,*7B
$GPGLL,4506.15215,N,06839.60732,W,185225.00,A,D*76
$RDENS,9860,5354384,PC
$GPRMC,185226.00,A,4506.15263,N,06839.60792,W,2.318,318.74,180924,,,D*7E
$GPVTG,318.74,T,,M,2.318,N,4.292,K,D*34
$GPGGA,185226.00,4506.15263,N,06839.60792,W,2,10,0.86,38.2,M,-29.0,M,,0000*5D
$GPGSA,A,3,24,12,25,21,23,10,02,28,32,46,,,1.66,0.86,1.42*00
$GPGSV,3,1,12,02,13,319,30,10,76,201,35,12,36,088,39,21,20,302,35*7F
$GPGSV,3,2,12,23,38,154,38,24,24,055,36,25,36,136,38,28,37,228,35*72
$GPGSV,3,3,12,31,02,227,,32,65,306,42,46,12,248,36,48,15,245,*7D
$GPGLL,4506.15263,N,06839.60792,W,185226.00,A,D*7E
$RDENS,9861,5354462,PC
$GPRMC,185227.00,A,4506.15312,N,06839.60851,W,2.317,319.37,180924,,,D*71
$GPVTG,319.37,T,,M,2.317,N,4.291,K,D*3E
$GPGGA,185227.00,4506.15312,N,06839.60851,W,2,10,0.86,38.2,M,-29.0,M,,0000*5B
$GPGSA,A,3,24,12,25,21,23,10,02,28,32,46,,,1.66,0.86,1.42*00
$GPGSV,3,1,12,02,13,319,29,10,76,201,35,12,36,088,40,21,20,302,35*79
$GPGSV,3,2,12,23,38,154,38,24,24,055,36,25,36,136,38,28,37,228,35*72
$GPGSV,3,3,12,31,02,227,,32,65,306,44,46,12,248,36,48,15,245,*7B
$GPGLL,4506.15312,N,06839.60851,W,185227.00,A,D*78
$RDENS,9862,5354541,PC
$RDENS,9863,5354620,PC
$GPRMC,185228.00,A,4506.15362,N,06839.60911,W,2.291,319.25,180924,,,D*70
$GPVTG,319.25,T,,M,2.291,N,4.242,K,D*3C
$GPGGA,185228.00,4506.15362,N,06839.60911,W,2,10,0.86,38.2,M,-29.0,M,,0000*56
$GPGSA,A,3,24,12,25,21,23,10,02,28,32,46,,,1.66,0.86,1.42*00
$GPGSV,3,1,12,02,13,319,29,10,76,201,34,12,36,088,38,21,20,302,34*76
$GPGSV,3,2,12,23,38,154,38,24,24,055,36,25,36,136,39,28,37,228,34*72
$GPGSV,3,3,12,31,02,227,,32,65,306,43,46,12,248,36,48,15,245,*7C
$GPGLL,4506.15362,N,06839.60911,W,185228.00,A,D*75
$RDENS,9864,5354699,PC
$GPRMC,185229.00,A,4506.15410,N,06839.60970,W,2.287,319.34,180924,,,D*73
$GPVTG,319.34,T,,M,2.287,N,4.235,K,D*3B
$GPGGA,185229.00,4506.15410,N,06839.60970,W,2,10,0.86,38.2,M,-29.0,M,,0000*52
$GPGSA,A,3,24,12,25,21,23,10,02,28,32,46,,,1.66,0.86,1.42*00
$GPGSV,3,1,12,02,13,319,29,10,76,201,34,12,36,088,39,21,20,302,33*70
$GPGSV,3,2,12,23,38,154,38,24,24,055,36,25,36,136,39,28,37,228,34*72
$GPGSV,3,3,12,31,02,227,,32,65,306,44,46,12,248,36,48,15,245,*7B
$GPGLL,4506.15410,N,06839.60970,W,185229.00,A,D*71
$RDENS,9865,5354777,PC
$GPRMC,185230.00,A,4506.15459,N,06839.61029,W,2.319,319.37,180924,,,D*77
$GPVTG,319.37,T,,M,2.319,N,4.294,K,D*35
$GPGGA,185230.00,4506.15459,N,06839.61029,W,2,10,0.86,38.2,M,-29.0,M,,0000*53
$GPGSA,A,3,24,12,25,21,23,10,02,28,32,46,,,1.66,0.86,1.42*00
$GPGSV,3,1,12,02,13,319,29,10,76,201,34,12,36,088,39,21,20,302,33*70
$GPGSV,3,2,12,23,38,154,38,24,24,055,36,25,36,136,38,28,37,228,34*73
$GPGSV,3,3,12,31,02,227,,32,65,306,44,46,12,248,36,48,15,245,*7B
$GPGLL,4506.15459,N,06839.61029,W,185230.00,A,D*70
$RDENS,9866,5354856,PC
$GPRMC,185231.00,A,4506.15508,N,06839.61089,W,2.327,319.43,180924,,,D*77
$GPVTG,319.43,T,,M,2.327,N,4.310,K,D*36
$GPGGA,185231.00,4506.15508,N,06839.61089,W,2,10,0.86,38.1,M,-29.0,M,,0000*5E
$GPGSA,A,3,24,12,25,21,23,10,02,28,32,46,,,1.66,0.86,1.42*00
$GPGSV,3,1,12,02,13,319,28,10,76,201,34,12,36,088,39,21,20,302,34*76
$GPGSV,3,2,12,23,38,154,38,24,24,055,36,25,36,136,39,28,37,228,34*72
$GPGSV,3,3,12,31,02,227,,32,65,306,44,46,12,248,36,48,15,245,*7B
$GPGLL,4506.15508,N,06839.61089,W,185231.00,A,D*7E
$RDENS,9867,5354935,PC
$RDENS,9868,5355014,PC
$GPRMC,185232.00,A,4506.15558,N,06839.61149,W,2.332,319.96,180924,,,D*70
$GPVTG,319.96,T,,M,2.332,N,4.319,K,D*33
$GPGGA,185232.00,4506.15558,N,06839.61149,W,2,10,0.86,38.1,M,-29.0,M,,0000*55
$GPGSA,A,3,24,12,25,21,23,10,02,28,32,46,,,1.66,0.86,1.42*00
$GPGSV,3,1,12,02,13,319,28,10,76,201,34,12,36,088,39,21,20,302,34*76
$GPGSV,3,2,12,23,38,154,38,24,24,055,37,25,36,136,39,28,37,228,34*73
$GPGSV,3,3,12,31,02,227,22,32,65,306,44,46,12,248,35,48,15,245,36*7D
$GPGLL,4506.15558,N,06839.61149,W,185232.00,A,D*75
$RDENS,9869,5355092,PC
$GPRMC,185233.00,A,4506.15608,N,06839.61207,W,2.313,320.53,180924,,,D*7E
$GPVTG,320.53,T,,M,2.313,N,4.283,K,D*31
$GPGGA,185233.00,4506.15608,N,06839.61207,W,2,10,0.86,38.1,M,-29.0,M,,0000*5B
$GPGSA,A,3,24,12,25,21,23,10,02,28,32,46,,,1.66,0.86,1.42*00
$GPGSV,3,1,12,02,13,319,28,10,76,201,34,12,36,088,39,21,20,302,34*76
$GPGSV,3,2,12,23,38,154,39,24,24,055,37,25,36,136,39,28,37,228,34*72
$GPGSV,3,3,12,31,02,227,21,32,65,306,44,46,12,248,35,48,15,245,36*7E
$GPGLL,4506.15608,N,06839.61207,W,185233.00,A,D*7B
$RDENS,9870,5355170,PC
$GPRMC,185234.00,A,4506.15657,N,06839.61264,W,2.321,321.05,180924,,,D*75
$GPVTG,321.05,T,,M,2.321,N,4.298,K,D*38
$GPGGA,185234.00,4506.15657,N,06839.61264,W,2,10,0.86,38.0,M,-29.0,M,,0000*52
$GPGSA,A,3,24,12,25,21,23,10,02,28,32,46,,,1.66,0.86,1.42*00
$GPGSV,3,1,12,02,13,319,27,10,76,201,35,12,36,088,39,21,20,302,34*78
$GPGSV,3,2,12,23,38,154,38,24,24,055,37,25,36,136,39,28,37,228,33*74
$GPGSV,3,3,12,31,02,227,20,32,65,306,43,46,12,248,35,48,15,245,35*7B
$GPGLL,4506.15657,N,06839.61264,W,185234.00,A,D*73
$RDENS,9871,5355250,PC
$GPRMC,185235.00,A,4506.15707,N,06839.61320,W,2.313,321.48,180924,,,D*79
$GPVTG,321.48,T,,M,2.313,N,4.284,K,D*3D
$GPGGA,185235.00,4506.15707,N,06839.61320,W,2,10,0.86,38.0,M,-29.0,M,,0000*56
$GPGSA,A,3,24,12,25,21,23,10,02,28,32,46,,,1.66,0.86,1.42*00
$GPGSV,3,1,12,02,13,319,27,10,76,201,34,12,36,088,38,21,20,302,34*78
$GPGSV,3,2,12,23,38,154,38,24,24,055,37,25,36,136,38,28,37,228,33*75
$GPGSV,3,3,12,31,02,227,22,32,65,306,42,46,12,248,35,48,15,245,35*78
$GPGLL,4506.15707,N,06839.61320,W,185235.00,A,D*77
$RDENS,9872,5355328,PC
$RDENS,9873,5355407,PC
$GPRMC,185236.00,A,4506.15758,N,06839.61376,W,2.330,322.23,180924,,,D*7C
$GPVTG,322.23,T,,M,2.330,N,4.316,K,D*38
$GPGGA,185236.00,4506.15758,N,06839.61376,W,2,10,0.86,38.0,M,-29.0,M,,0000*5C
$GPGSA,A,3,24,12,25,21,23,10,02,28,32,46,,,1.66,0.86,1.42*00
$GPGSV,3,1,12,02,13,319,27,10,76,201,34,12,36,088,39,21,20,302,34*79
$GPGSV,3,2,12,23,38,154,39,24,24,055,36,25,36,136,39,28,37,228,34*73
$GPGSV,3,3,12,31,02,227,22,32,65,306,43,46,12,248,35,48,15,245,35*79
$GPGLL,4506.15758,N,06839.61376,W,185236.00,A,D*7D
$RDENS,9874,5355485,PC
$GPRMC,185237.00,A,4506.15811,N,06839.61430,W,2.315,323.26,180924,,,D*79
$GPVTG,323.26,T,,M,2.315,N,4.287,K,D*32
$GPGGA,185237.00,4506.15811,N,06839.61430,W,2,10,0.86,38.0,M,-29.0,M,,0000*5A
$GPGSA,A,3,24,12,25,21,23,10,02,28,32,46,,,1.66,0.86,1.42*00
$GPGSV,3,1,12,02,13,319,26,10,76,201,34,12,36,088,39,21,20,302,34*78
$GPGSV,3,2,12,23,38,154,39,24,24,055,36,25,36,136,39,28,37,228,34*73
$GPGSV,3,3,12,31,02,227,21,32,65,306,43,46,12,248,35,48,15,245,34*7B
$GPGLL,4506.15811,N,06839.61430,W,185237.00,A,D*7B
$RDENS,9875,5355565,PC
$GPRMC,185238.00,A,4506.15864,N,06839.61485,W,2.317,324.04,180924,,,D*7F
$GPVTG,324.04,T,,M,2.317,N,4.292,K,D*33
$GPGGA,185238.00,4506.15864,N,06839.61485,W,2,10,0.86,38.0,M,-29.0,M,,0000*59
$GPGSA,A,3,24,12,25,21,23,10,02,28,32,46,,,1.66,0.86,1.42*00
$GPGSV,3,1,12,02,13,319,26,10,76,201,34,12,36,088,39,21,20,302,34*78
$GPGSV,3,2,12,23,38,154,39,24,24,055,36,25,36,136,39,28,37,228,35*72
$GPGSV,3,3,12,31,02,227,21,32,65,306,43,46,12,248,35,48,15,245,34*7B
$GPGLL,4506.15864,N,06839.61485,W,185238.00,A,D*78
$RDENS,9876,5355644,PC
$RDENS,9877,5355722,PC
$GPRMC,185239.00,A,4506.15916,N,06839.61540,W,2.319,324.42,180924,,,D*7E
$GPVTG,324.42,T,,M,2.319,N,4.295,K,D*38
$GPGGA,185239.00,4506.15916,N,06839.61540,W,2,10,0.86,38.1,M,-29.0,M,,0000*55
$GPGSA,A,3,24,12,25,21,23,10,02,28,32,46,,,1.66,0.86,1.42*00
$GPGSV,3,1,12,02,13,319,26,10,76,201,34,12,36,088,39,21,20,302,35*79
$GPGSV,3,2,12,23,38,154,39,24,24,055,37,25,36,136,39,28,37,228,35*73
$GPGSV,3,3,12,31,02,227,20,32,65,306,43,46,12,248,35,48,15,245,35*7B
$GPGLL,4506.15916,N,06839.61540,W,185239.00,A,D*75
$RDENS,9878,5355801,PC
$GPRMC,185240.00,A,4506.15968,N,06839.61594,W,2.309,324.30,180924,,,D*74
$GPVTG,324.30,T,,M,2.309,N,4.277,K,D*30
$GPGGA,185240.00,4506.15968,N,06839.61594,W,2,10,0.86,38.1,M,-29.0,M,,0000*5B
$GPGSA,A,3,24,12,25,21,23,10,02,28,32,46,,,1.66,0.86,1.42*00
$GPGSV,3,1,12,02,13,319,26,10,76,201,34,12,36,088,39,21,20,302,34*78
$GPGSV,3,2,12,23,38,154,39,24,24,055,37,25,36,136,39,28,37,228,34*72
$GPGSV,3,3,12,31,02,227,19,32,65,306,43,46,12,248,35,48,15,245,35*71
$GPGLL,4506.15968,N,06839.61594,W,185240.00,A,D*7B
$RDENS,9879,5355879,PC
$GPRMC,185241.00,A,4506.16019,N,06839.61650,W,2.320,323.44,180924,,,D*7D
$GPVTG,323.44,T,,M,2.320,N,4.298,K,D*3E
$GPGGA,185241.00,4506.16019,N,06839.61650,W,2,10,0.86,38.0,M,-29.0,M,,0000*5C
$GPGSA,A,3,24,12,25,21,23,10,02,28,32,46,,,1.66,0.86,1.42*00
$GPGSV,3,1,12,02,13,319,25,10,76,201,33,12,36,088,39,21,20,302,33*7B
$GPGSV,3,2,12,23,38,154,39,24,24,055,36,25,36,136,39,28,37,228,34*73
$GPGSV,3,3,12,31,02,227,19,32,65,306,43,46,12,248,35,48,15,245,35*71
$GPGLL,4506.16019,N,06839.61650,W,185241.00,A,D*7D
$RDENS,9880,5355958,PC
$GPRMC,185242.00,A,4506.16069,N,06839.61708,W,2.341,322.59,180924,,,D*7F
$GPVTG,322.59,T,,M,2.341,N,4.335,K,D*32
$GPGGA,185242.00,4506.16069,N,06839.61708,W,2,10,0.86,38.0,M,-29.0,M,,0000*54
$GPGSA,A,3,24,12,25,21,23,10,02,28,32,46,,,1.66,0.86,1.42*00
$GPGSV,3,1,12,02,13,319,25,10,76,200,34,12,36,088,39,21,20,302,33*7D
$GPGSV,3,2,12,23,38,154,38,24,24,055,36,25,36,136,38,28,37,228,34*73
$GPGSV,3,3,12,31,02,227,18,32,65,306,44,46,12,248,35,48,15,245,35*77
$GPGLL,4506.16069,N,06839.61708,W,185242.00,A,D*75
$RDENS,9881,5356038,PC
$RDENS,9882,5356116,PC
$GPRMC,185243.00,A,4506.16119,N,06839.61768,W,2.373,321.65,180924,,,D*73
$GPVTG,321.65,T,,M,2.373,N,4.396,K,D*36
$GPGGA,185243.00,4506.16119,N,06839.61768,W,2,10,0.86,38.0,M,-29.0,M,,0000*55
$GPGSA,A,3,24,12,25,21,23,10,02,28,32,46,,,1.66,0.86,1.42*00
$GPGSV,3,1,12,02,13,319,25,10,76,200,34,12,36,088,39,21,20,302,33*7D
$GPGSV,3,2,12,23,38,154,38,24,24,055,36,25,36,136,38,28,37,228,34*73
$GPGSV,3,3,12,31,02,227,18,32,65,306,44,46,12,248,35,48,15,245,36*74
$GPGLL,4506.16119,N,06839.61768,W,185243.00,A,D*74
$RDENS,9883,5356194,PC
$GPRMC,185244.00,A,4506.16170,N,06839.61829,W,2.392,320.75,180924,,,D*7E
$GPVTG,320.75,T,,M,2.392,N,4.430,K,D*32
$GPGGA,185244.00,4506.16170,N,06839.61829,W,2,10,0.86,38.0,M,-29.0,M,,0000*57
$GPGSA,A,3,24,12,25,21,23,10,02,28,32,46,,,1.66,0.86,1.42*00
$GPGSV,3,1,12,02,13,319,25,10,76,200,34,12,36,088,39,21,20,302,33*7D
$GPGSV,3,2,12,23,38,154,38,24,24,055,36,25,36,136,38,28,37,228,34*73
$GPGSV,3,3,12,31,02,227,19,32,65,306,44,46,12,248,35,48,15,245,36*75
$GPGLL,4506.16170,N,06839.61829,W,185244.00,A,D*76
$RDENS,9884,5356274,PC
$GPRMC,185245.00,A,4506.16220,N,06839.61890,W,2.372,320.09,180924,,,D*7E
$GPVTG,320.09,T,,M,2.372,N,4.393,K,D*39
$GPGGA,185245.00,4506.16220,N,06839.61890,W,2,10,0.86,38.0,M,-29.0,M,,0000*52
$GPGSA,A,3,24,12,25,21,23,10,02,28,32,46,,,1.66,0.86,1.42*00
$GPGSV,3,1,12,02,13,319,25,10,76,200,34,12,36,088,39,21,20,302,32*7C
$GPGSV,3,2,12,23,38,154,38,24,24,055,36,25,36,136,38,28,37,228,34*73
$GPGSV,3,3,12,31,02,227,19,32,65,306,44,46,12,248,36,48,15,245,36*76
$GPGLL,4506.16220,N,06839.61890,W,185245.00,A,D*73
$RDENS,9885,5356352,PC
$GPRMC,185246.00,A,4506.16270,N,06839.61951,W,2.391,319.94,180924,,,D*77
$GPVTG,319.94,T,,M,2.391,N,4.428,K,D*3D
$GPGGA,185246.00,4506.16270,N,06839.61951,W,2,10,0.86,38.0,M,-29.0,M,,0000*58
$GPGSA,A,3,24,12,25,21,23,10,02,28,32,46,,,1.66,0.86,1.42*00
$GPGSV,3,1,12,02,13,319,25,10,76,200,34,12,36,088,39,21,20,302,32*7C
$GPGSV,3,2,12,23,38,154,38,24,24,055,36,25,36,136,38,28,37,228,34*73
$GPGSV,3,3,12,31,02,227,21,32,65,306,44,46,12,248,36,48,15,245,35*7E
$GPGLL,4506.16270,N,06839.61951,W,185246.00,A,D*79
$RDENS,9886,5356430,PC
$RDENS,9887,5356509,PC
$GPRMC,185247.00,A,4506.16321,N,06839.62011,W,2.369,320.24,180924,,,D*7B
$GPVTG,320.24,T,,M,2.369,N,4.387,K,D*39
$GPGGA,185247.00,4506.16321,N,06839.62011,W,2,10,0.86,37.9,M,-29.0,M,,0000*54
$GPGSA,A,3,24,12,25,21,23,10,02,28,32,46,,,1.66,0.86,1.42*00
$GPGSV,3,1,12,02,13,319,24,10,76,200,34,12,36,088,39,21,20,302,33*7C
$GPGSV,3,2,12,23,38,154,38,24,24,055,36,25,36,136,38,28,37,228,34*73
$GPGSV,3,3,12,31,02,227,22,32,65,306,42,46,12,248,35,48,15,245,35*78
$GPGLL,4506.16321,N,06839.62011,W,185247.00,A,D*73
$RDENS,9888,5356589,PC
$GPRMC,185248.00,A,4506.16372,N,06839.62071,W,2.350,320.75,180924,,,D*7A
$GPVTG,320.75,T,,M,2.350,N,4.353,K,D*3E
$GPGGA,185248.00,4506.16372,N,06839.62071,W,2,10,0.86,38.0,M,-29.0,M,,0000*5D
$GPGSA,A,3,24,12,25,21,23,10,02,28,32,46,,,1.66,0.86,1.42*00
$GPGSV,3,1,12,02,13,319,24,10,76,200,33,12,36,088,39,21,20,302,33*7B
$GPGSV,3,2,12,23,38,154,39,24,24,055,36,25,36,136,39,28,37,228,34*73
$GPGSV,3,3,12,31,02,227,23,32,65,306,43,46,12,248,35,48,15,245,35*78
$GPGLL,4506.16372,N,06839.62071,W,185248.00,A,D*7C
$RDENS,9889,5356667,PC
$GPRMC,185249.00,A,4506.16425,N,06839.62129,W,2.342,321.49,180924,,,D*7F
$GPVTG,321.49,T,,M,2.342,N,4.337,K,D*31
$GPGGA,185249.00,4506.16425,N,06839.62129,W,2,10,0.86,37.9,M,-29.0,M,,0000*53
$GPGSA,A,3,24,12,25,21,23,10,02,28,32,46,,,1.66,0.86,1.42*00
$GPGSV,3,1,12,02,13,319,22,10,76,200,33,12,36,088,39,21,20,302,35*7B
$GPGSV,3,2,12,23,38,154,39,24,24,055,36,25,36,136,39,28,37,228,34*73
$GPGSV,3,3,12,31,02,227,22,32,65,306,41,46,12,248,35,48,15,245,35*7B
$GPGLL,4506.16425,N,06839.62129,W,185249.00,A,D*74
$RDENS,9890,5356746,PC
$GPRMC,185250.00,A,4506.16476,N,06839.62187,W,2.308,321.98,180924,,,D*77
$GPVTG,321.98,T,,M,2.308,N,4.274,K,D*35
$GPGGA,185250.00,4506.16476,N,06839.62187,W,2,10,0.86,37.9,M,-29.0,M,,0000*59
$GPGSA,A,3,24,12,25,21,23,10,02,28,32,46,,,1.66,0.86,1.42*00
$GPGSV,3,1,12,02,13,319,21,10,76,200,34,12,36,088,39,21,20,302,35*7F
$GPGSV,3,2,12,23,38,154,39,24,24,055,36,25,36,136,39,28,37,228,35*72
$GPGSV,3,3,12,31,02,227,21,32,65,306,43,46,12,248,34,48,15,245,35*7B
$GPGLL,4506.16476,N,06839.62187,W,185250.00,A,D*7E
$RDENS,9891,5356825,PC
$RDENS,9892,5356903,PC
$GPRMC,185251.00,A,4506.16528,N,06839.62244,W,2.332,322.16,180924,,,D*7C
$GPVTG,322.16,T,,M,2.332,N,4.319,K,D*33
$GPGGA,185251.00,4506.16528,N,06839.62244,W,2,10,0.86,37.8,M,-29.0,M,,0000*5F
$GPGSA,A,3,24,12,25,21,23,10,02,28,32,46,,,1.66,0.86,1.42*00
$GPGSV,3,1,12,02,13,319,19,10,76,200,34,12,36,088,39,21,20,302,35*74
$GPGSV,3,2,12,23,38,154,39,24,24,055,36,25,36,136,39,28,37,228,35*72
$GPGSV,3,3,12,31,02,227,20,32,65,306,43,46,12,248,34,48,15,245,35*7A
$GPGLL,4506.16528,N,06839.62244,W,185251.00,A,D*79
$RDENS,9893,5356982,PC
$GPRMC,185252.00,A,4506.16580,N,06839.62300,W,2.327,322.65,180924,,,D*7C
$GPVTG,322.65,T,,M,2.327,N,4.310,K,D*3A
$GPGGA,185252.00,4506.16580,N,06839.62300,W,2,10,0.86,37.8,M,-29.0,M,,0000*5F
$GPGSA,A,3,24,12,25,21,23,10,02,28,32,46,,,1.66,0.86,1.42*00
$GPGSV,3,1,12,02,13,319,18,10,76,200,36,12,36,088,39,21,20,302,35*77
$GPGSV,3,2,12,23,38,154,39,24,24,055,36,25,36,136,39,28,37,228,35*72
$GPGSV,3,3,12,31,02,227,19,32,65,306,43,46,12,248,35,48,15,245,35*71
$GPGLL,4506.16580,N,06839.62300,W,185252.00,A,D*79
$RDENS,9894,5357060,PC
$GPRMC,185253.00,A,4506.16631,N,06839.62356,W,2.301,322.92,180924,,,D*7B
$GPVTG,322.92,T,,M,2.301,N,4.261,K,D*31
$GPGGA,185253.00,4506.16631,N,06839.62356,W,2,10,0.86,37.8,M,-29.0,M,,0000*54
$GPGSA,A,3,24,12,25,21,23,10,02,28,32,46,,,1.66,0.86,1.42*00
$GPGSV,3,1,12,02,13,319,18,10,76,200,33,12,36,088,40,21,20,302,35*7C
$GPGSV,3,2,12,23,38,154,39,24,24,055,36,25,36,136,39,28,37,228,35*72
$GPGSV,3,3,12,31,02,227,,32,65,306,44,46,12,248,35,48,15,245,34*7F
$GPGLL,4506.16631,N,06839.62356,W,185253.00,A,D*72
$RDENS,9895,5357139,PC
$RDENS,9896,5357218,PC
$GPRMC,185254.00,A,4506.16683,N,06839.62411,W,2.319,322.83,180924,,,D*78
$GPVTG,322.83,T,,M,2.319,N,4.295,K,D*33
$GPGGA,185254.00,4506.16683,N,06839.62411,W,2,10,0.86,37.7,M,-29.0,M,,0000*51
$GPGSA,A,3,24,12,25,21,23,10,02,28,32,46,,,1.66,0.86,1.42*00
$GPGSV,3,1,12,02,13,319,17,10,76,200,34,12,36,088,40,21,20,302,36*77
$GPGSV,3,2,12,23,38,154,39,24,24,055,37,25,36,136,39,28,37,228,35*73
$GPGSV,3,3,12,31,02,227,,32,65,306,44,46,12,248,35,48,15,245,35*7E
$GPGLL,4506.16683,N,06839.62411,W,185254.00,A,D*78
$RDENS,9897,5357297,PC
$GPRMC,185255.00,A,4506.16735,N,06839.62466,W,2.335,322.80,180924,,,D*78
$GPVTG,322.80,T,,M,2.335,N,4.325,K,D*34
$GPGGA,185255.00,4506.16735,N,06839.62466,W,2,10,0.86,37.7,M,-29.0,M,,0000*5C
$GPGSA,A,3,24,12,25,21,23,10,02,28,32,46,,,1.66,0.86,1.42*00
$GPGSV,3,1,12,02,13,319,15,10,76,200,34,12,36,088,39,21,20,302,35*78
$GPGSV,3,2,12,23,38,155,39,24,24,055,37,25,36,136,39,28,37,228,35*72
$GPGSV,3,3,12,31,02,227,,32,65,306,43,46,12,248,35,48,15,245,35*79
$GPGLL,4506.16735,N,06839.62466,W,185255.00,A,D*75
$RDENS,9898,5357375,PC
$GPRMC,185256.00,A,4506.16787,N,06839.62522,W,2.329,323.06,180924,,,D*71
$GPVTG,323.06,T,,M,2.329,N,4.313,K,D*33
$GPGGA,185256.00,4506.16787,N,06839.62522,W,2,10,0.86,37.7,M,-29.0,M,,0000*57
$GPGSA,A,3,24,12,25,21,23,10,02,28,32,46,,,1.66,0.86,1.42*00
$GPGSV,3,1,12,02,13,319,15,10,76,200,33,12,36,088,39,21,20,302,34*7E
$GPGSV,3,2,12,23,38,155,39,24,23,055,36,25,36,136,39,28,37,228,34*75
$GPGSV,3,3,12,31,02,227,21,32,65,306,43,46,12,248,34,48,15,245,34*7A
$GPGLL,4506.16787,N,06839.62522,W,185256.00,A,D*7E
$RDENS,9899,5357454,PC
$GPRMC,185257.00,A,4506.16839,N,06839.62575,W,2.303,323.71,180924,,,D*70
$GPVTG,323.71,T,,M,2.303,N,4.265,K,D*3B
$GPGGA,185257.00,4506.16839,N,06839.62575,W,2,10,0.86,37.6,M,-29.0,M,,0000*5F
$GPGSA,A,3,24,12,25,21,23,10,02,28,32,46,,,1.66,0.86,1.42*00
$GPGSV,3,1,12,02,13,319,16,10,76,200,34,12,36,088,39,21,20,302,34*7A
$GPGSV,3,2,12,23,38,155,39,24,23,055,36,25,36,136,39,28,37,228,35*74
$GPGSV,3,3,12,31,02,227,21,32,65,306,43,46,12,248,35,48,15,245,35*7A
$GPGLL,4506.16839,N,06839.62575,W,185257.00,A,D*77
$RDENS,9900,5357534,PC
$RDENS,9901,5357612,PC
$GPRMC,185258.00,A,4506.16891,N,06839.62628,W,2.321,324.66,180924,,,D*77
$GPVTG,324.66,T,,M,2.321,N,4.298,K,D*38
$GPGGA,185258.00,4506.16891,N,06839.62628,W,2,10,0.86,37.6,M,-29.0,M,,0000*59
$GPGSA,A,3,24,12,25,21,23,10,02,28,32,46,,,1.66,0.86,1.42*00
$GPGSV,3,1,12,02,13,319,17,10,76,200,34,12,36,088,40,21,20,302,34*75
$GPGSV,3,2,12,23,38,155,39,24,23,055,35,25,36,136,40,28,37,228,35*79
$GPGSV,3,3,12,31,02,227,20,32,65,306,43,46,12,248,35,48,15,245,34*7A
$GPGLL,4506.16891,N,06839.62628,W,185258.00,A,D*71
$RDENS,9902,5357690,PC
$GPRMC,185259.00,A,4506.16944,N,06839.62679,W,2.292,325.25,180924,,,D*74
$GPVTG,325.25,T,,M,2.292,N,4.244,K,D*36
$GPGGA,185259.00,4506.16944,N,06839.62679,W,2,10,0.86,37.6,M,-29.0,M,,0000*55
$GPGSA,A,3,24,12,25,21,23,10,02,28,32,46,,,1.66,0.86,1.42*00
$GPGSV,3,1,12,02,13,319,16,10,76,200,34,12,36,088,40,21,20,302,33*73
$GPGSV,3,2,12,23,38,155,39,24,23,055,35,25,36,136,40,28,37,228,35*79
$GPGSV,3,3,12,31,02,227,19,32,65,306,43,46,12,248,34,48,15,245,34*71
$GPGLL,4506.16944,N,06839.62679,W,185259.00,A,D*7D
$RDENS,9903,5357769,PC
$GPRMC,185300.00,A,4506.16997,N,06839.62731,W,2.282,325.42,180924,,,D*7A
$GPVTG,325.42,T,,M,2.282,N,4.227,K,D*33
$GPGGA,185300.00,4506.16997,N,06839.62731,W,2,10,0.86,37.6,M,-29.0,M,,0000*5B
$GPGSA,A,3,24,12,25,21,23,10,02,28,32,46,,,1.66,0.86,1.42*00
$GPGSV,3,1,12,02,13,319,14,10,76,200,35,12,36,088,39,21,20,302,33*7E
$GPGSV,3,2,12,23,38,155,39,24,23,055,35,25,36,136,40,28,37,228,35*79
$GPGSV,3,3,12,31,02,227,,32,65,306,43,46,12,248,35,48,15,245,34*78
$GPGLL,4506.16997,N,06839.62731,W,185300.00,A,D*73
$RDENS,9904,5357848,PC
$GPRMC,185301.00,A,4506.17050,N,06839.62782,W,2.263,325.89,180924,,,D*78
$GPVTG,325.89,T,,M,2.263,N,4.191,K,D*35
$GPGGA,185301.00,4506.17050,N,06839.62782,W,2,10,0.86,37.6,M,-29.0,M,,0000*51
$GPGSA,A,3,24,12,25,21,23,10,02,28,32,46,,,1.66,0.86,1.42*00
$GPGSV,3,1,12,02,13,319,10,10,76,200,36,12,36,088,40,21,20,302,31*75
$GPGSV,3,2,12,23,38,155,39,24,23,055,34,25,36,136,40,28,37,228,36*7B
$GPGSV,3,3,12,31,02,227,,32,65,306,43,46,12,248,35,48,15,245,34*78
$GPGLL,4506.17050,N,06839.62782,W,185301.00,A,D*79
$RDENS,9905,5357926,PC
$RDENS,9906,5358006,PC
$GPRMC,185302.00,A,4506.17104,N,06839.62832,W,2.289,326.36,180924,,,D*7C
$GPVTG,326.36,T,,M,2.289,N,4.239,K,D*37
$GPGGA,185302.00,4506.17104,N,06839.62832,W,2,09,0.93,37.5,M,-29.0,M,,0000*59
$GPGSA,A,3,24,12,25,21,23,10,28,32,46,,,,1.74,0.93,1.47*00
$GPGSV,3,1,12,02,13,319,08,10,76,200,36,12,36,088,40,21,20,302,31*7C
$GPGSV,3,2,12,23,38,155,39,24,23,055,34,25,36,136,40,28,37,228,35*78
$GPGSV,3,3,12,31,02,227,,32,65,306,42,46,12,248,35,48,15,245,33*7E
$GPGLL,4506.17104,N,06839.62832,W,185302.00,A,D*7E
$RDENS,9907,5358084,PC
$GPRMC,185303.00,A,4506.17158,N,06839.62881,W,2.274,327.02,180924,,,D*78
$GPVTG,327.02,T,,M,2.274,N,4.211,K,D*39
$GPGGA,185303.00,4506.17158,N,06839.62881,W,2,09,0.93,37.5,M,-29.0,M,,0000*59
$GPGSA,A,3,24,12,25,21,23,10,28,32,46,,,,1.74,0.93,1.47*00
$GPGSV,3,1,12,02,13,319,08,10,76,200,36,12,36,088,40,21,20,302,30*7D
$GPGSV,3,2,12,23,38,155,38,24,23,055,33,25,36,136,40,28,37,228,34*7F
$GPGSV,3,3,12,31,03,228,,32,65,306,42,46,12,248,35,48,15,245,33*70
$GPGLL,4506.17158,N,06839.62881,W,185303.00,A,D*7E
$RDENS,9908,5358162,PC
$GPRMC,185304.00,A,4506.17212,N,06839.62928,W,2.286,327.91,180924,,,D*77
$GPVTG,327.91,T,,M,2.286,N,4.234,K,D*39
$GPGGA,185304.00,4506.17212,N,06839.62928,W,2,09,0.93,37.4,M,-29.0,M,,0000*50
$GPGSA,A,3,24,12,25,21,23,10,28,32,46,,,,1.74,0.93,1.47*00
$GPGSV,3,1,12,02,13,319,08,10,76,200,36,12,36,088,40,21,20,302,29*75
$GPGSV,3,2,12,23,38,155,38,24,23,055,32,25,36,136,40,28,37,228,34*7E
$GPGSV,3,3,12,31,03,228,,32,65,306,42,46,12,248,35,48,15,245,32*71
$GPGLL,4506.17212,N,06839.62928,W,185304.00,A,D*76
$RDENS,9909,5358241,PC
$RDENS,9910,5358320,PC
$GPRMC,185305.00,A,4506.17266,N,06839.62975,W,2.236,328.51,180924,,,D*75
$GPVTG,328.51,T,,M,2.236,N,4.140,K,D*31
$GPGGA,185305.00,4506.17266,N,06839.62975,W,2,09,0.93,37.4,M,-29.0,M,,0000*5A
$GPGSA,A,3,24,12,25,21,23,10,28,32,46,,,,1.74,0.93,1.47*00
$GPGSV,3,1,12,02,13,319,08,10,76,200,37,12,36,088,40,21,20,302,29*74
$GPGSV,3,2,12,23,38,155,38,24,23,055,32,25,36,136,39,28,37,228,34*70
$GPGSV,3,3,12,31,03,228,,32,65,306,42,46,12,248,35,48,15,245,32*71
$GPGLL,4506.17266,N,06839.62975,W,185305.00,A,D*7C
$RDENS,9911,5358399,PC
$GPRMC,185306.00,A,4506.17319,N,06839.63020,W,2.219,328.85,180924,,,D*73
$GPVTG,328.85,T,,M,2.219,N,4.110,K,D*30
$GPGGA,185306.00,4506.17319,N,06839.63020,W,2,09,0.93,37.4,M,-29.0,M,,0000*58
$GPGSA,A,3,24,12,25,21,23,10,28,32,46,,,,1.74,0.93,1.47*00
$GPGSV,3,1,12,02,13,319,08,10,76,200,36,12,36,088,40,21,20,302,28*74
$GPGSV,3,2,12,23,38,155,38,24,23,055,31,25,36,136,39,28,37,228,34*73
$GPGSV,3,3,12,31,03,228,,32,65,306,42,46,12,248,35,48,15,245,32*71
$GPGLL,4506.17319,N,06839.63020,W,185306.00,A,D*7E
$RDENS,9912,5358477,PC
$GPRMC,185307.00,A,4506.17374,N,06839.63066,W,2.246,329.28,180924,,,D*77
$GPVTG,329.28,T,,M,2.246,N,4.160,K,D*3B
$GPGGA,185307.00,4506.17374,N,06839.63066,W,2,09,0.93,37.3,M,-29.0,M,,0000*57
$GPGSA,A,3,24,12,25,21,23,10,28,32,46,,,,1.74,0.93,1.47*00
$GPGSV,3,1,12,02,13,319,08,10,76,200,36,12,36,088,40,21,20,302,28*74
$GPGSV,3,2,12,23,38,155,38,24,23,055,32,25,36,136,39,28,37,228,34*70
$GPGSV,3,3,12,31,03,228,,32,65,306,42,46,12,248,35,48,15,245,32*71
$GPGLL,4506.17374,N,06839.63066,W,185307.00,A,D*76
$RDENS,9913,5358556,PC
$GPRMC,185308.00,A,4506.17428,N,06839.63113,W,2.304,329.08,180924,,,D*70
$GPVTG,329.08,T,,M,2.304,N,4.266,K,D*3B
$GPGGA,185308.00,4506.17428,N,06839.63113,W,2,09,0.93,37.3,M,-29.0,M,,0000*55
$GPGSA,A,3,24,12,25,21,23,10,28,32,46,,,,1.74,0.93,1.47*00
$GPGSV,3,1,12,02,13,319,,10,76,200,36,12,36,088,40,21,20,302,28*7C
$GPGSV,3,2,12,23,38,155,38,24,23,055,33,25,36,136,39,28,37,228,34*71
$GPGSV,3,3,12,31,03,228,,32,65,306,42,46,12,248,35,48,15,245,32*71
$GPGLL,4506.17428,N,06839.63113,W,185308.00,A,D*74
$RDENS,9914,5358635,PC
$RDENS,9915,5358714,PC
$GPRMC,185309.00,A,4506.17483,N,06839.63161,W,2.343,328.72,180924,,,D*7A
$GPVTG,328.72,T,,M,2.343,N,4.339,K,D*3F
$GPGGA,185309.00,4506.17483,N,06839.63161,W,2,09,0.93,37.3,M,-29.0,M,,0000*50
$GPGSA,A,3,24,12,25,21,23,10,28,32,46,,,,1.74,0.93,1.47*00
$GPGSV,3,1,12,02,13,319,16,10,76,200,35,12,36,088,40,21,20,302,29*79
$GPGSV,3,2,12,23,38,155,38,24,23,055,33,25,36,136,40,28,37,228,35*7E
$GPGSV,3,3,12,31,03,228,,32,65,306,42,46,12,248,35,48,15,245,32*71
$GPGLL,4506.17483,N,06839.63161,W,185309.00,A,D*71
$RDENS,9916,5358792,PC
$GPRMC,185310.00,A,4506.17538,N,06839.63209,W,2.320,328.24,180924,,,D*78
$GPVTG,328.24,T,,M,2.320,N,4.297,K,D*3C
$GPGGA,185310.00,4506.17538,N,06839.63209,W,2,10,0.91,37.2,M,-29.0,M,,0000*5F
$GPGSA,A,3,24,12,25,21,23,10,28,32,46,48,,,1.65,0.91,1.38*06
$GPGSV,3,1,12,02,13,319,14,10,76,200,36,12,36,088,40,21,20,302,29*78
$GPGSV,3,2,12,23,38,155,38,24,23,055,34,25,36,136,40,28,37,228,35*79
$GPGSV,3,3,12,31,03,228,,32,65,306,42,46,12,248,35,48,15,245,33*70
$GPGLL,4506.17538,N,06839.63209,W,185310.00,A,D*75
$RDENS,9917,5358871,PC
$GPRMC,185311.00,A,4506.17592,N,06839.63258,W,2.300,327.80,180924,,,D*7E
$GPVTG,327.80,T,,M,2.300,N,4.260,K,D*37
$GPGGA,185311.00,4506.17592,N,06839.63258,W,2,10,0.91,37.1,M,-29.0,M,,0000*59
$GPGSA,A,3,24,12,25,21,23,10,28,32,46,48,,,1.65,0.91,1.38*06
$GPGSV,3,1,12,02,13,319,10,10,76,200,35,12,36,088,40,21,20,302,34*73
$GPGSV,3,2,12,23,38,155,38,24,23,055,34,25,36,136,40,28,37,228,35*79
$GPGSV,3,3,12,31,03,228,,32,65,306,41,46,12,248,35,48,15,245,33*73
$GPGLL,4506.17592,N,06839.63258,W,185311.00,A,D*70
$RDENS,9918,5358949,PC
$GPRMC,185312.00,A,4506.17646,N,06839.63308,W,2.330,327.64,180924,,,D*7A
$GPVTG,327.64,T,,M,2.330,N,4.315,K,D*3D
$GPGGA,185312.00,4506.17646,N,06839.63308,W,2,10,0.91,37.1,M,-29.0,M,,0000*54
$GPGSA,A,3,24,12,25,21,23,10,28,32,46,48,,,1.65,0.91,1.38*06
$GPGSV,3,1,12,02,13,319,10,10,76,200,36,12,36,088,40,21,20,302,33*77
$GPGSV,3,2,12,23,38,155,40,24,23,055,35,25,36,136,40,28,37,228,36*74
$GPGSV,3,3,12,31,03,228,,32,65,306,42,46,12,248,36,48,15,245,36*76
$GPGLL,4506.17646,N,06839.63308,W,185312.00,A,D*7D
$RDENS,9919,5359028,PC
$RDENS,9920,5359107,PC
$GPRMC,185313.00,A,4506.17701,N,06839.63358,W,2.348,328.21,180924,,,D*7D
$GPVTG,328.21,T,,M,2.348,N,4.348,K,D*34
$GPGGA,185313.00,4506.17701,N,06839.63358,W,2,10,0.91,37.1,M,-29.0,M,,0000*52
$GPGSA,A,3,24,12,25,21,23,10,28,32,46,48,,,1.65,0.91,1.38*06
$GPGSV,3,1,12,02,13,319,08,10,76,200,35,12,36,088,40,21,20,302,32*7C
$GPGSV,3,2,12,23,38,155,39,24,23,055,34,25,36,136,40,28,37,228,35*78
$GPGSV,3,3,12,31,03,228,,32,65,306,43,46,12,248,35,48,15,245,34*76
$GPGLL,4506.17701,N,06839.63358,W,185313.00,A,D*7B
$RDENS,9921,5359185,PC
$GPRMC,185314.00,A,4506.17756,N,06839.63408,W,2.357,328.14,180924,,,D*72
$GPVTG,328.14,T,,M,2.357,N,4.366,K,D*30
$GPGGA,185314.00,4506.17756,N,06839.63408,W,2,10,0.91,37.1,M,-29.0,M,,0000*55
$GPGSA,A,3,24,12,25,21,23,10,28,32,46,48,,,1.65,0.91,1.38*06
$GPGSV,3,1,12,02,13,319,08,10,76,200,35,12,36,088,40,21,20,302,31*7F
$GPGSV,3,2,12,23,38,155,39,24,23,055,35,25,36,136,40,28,37,228,35*79
$GPGSV,3,3,12,31,03,228,,32,65,306,43,46,12,248,35,48,15,245,34*76
$GPGLL,4506.17756,N,06839.63408,W,185314.00,A,D*7C
$RDENS,9922,5359264,PC
$GPRMC,185315.00,A,4506.17811,N,06839.63457,W,2.312,327.76,180924,,,D*7F
$GPVTG,327.76,T,,M,2.312,N,4.283,K,D*30
$GPGGA,185315.00,4506.17811,N,06839.63457,W,2,10,0.91,37.1,M,-29.0,M,,0000*52
$GPGSA,A,3,24,12,25,21,23,10,28,32,46,48,,,1.65,0.91,1.38*06
$GPGSV,3,1,12,02,13,319,08,10,76,200,35,12,36,088,40,21,20,302,31*7F
$GPGSV,3,2,12,23,38,155,39,24,23,055,34,25,36,136,40,28,37,228,35*78
$GPGSV,3,3,12,31,03,228,,32,65,306,42,46,12,248,35,48,15,245,33*70
$GPGLL,4506.17811,N,06839.63457,W,185315.00,A,D*7B
$RDENS,9923,5359342,PC
$RDENS,9924,5359422,PC
$GPRMC,185316.00,A,4506.17866,N,06839.63505,W,2.301,328.16,180924,,,D*71
$GPVTG,328.16,T,,M,2.301,N,4.261,K,D*37
$GPGGA,185316.00,4506.17866,N,06839.63505,W,2,10,0.91,37.1,M,-29.0,M,,0000*57
$GPGSA,A,3,24,12,25,21,23,10,28,32,46,48,,,1.65,0.91,1.38*06
$GPGSV,3,1,12,02,13,319,08,10,76,200,35,12,36,088,40,21,20,302,30*7E
$GPGSV,3,2,12,23,38,155,38,24,23,055,33,25,36,136,40,28,37,228,34*7F
$GPGSV,3,3,12,31,03,228,,32,65,306,43,46,12,248,35,48,15,245,32*70
$GPGLL,4506.17866,N,06839.63505,W,185316.00,A,D*7E
$RDENS,9925,5359500,PC
$GPRMC,185317.00,A,4506.17921,N,06839.63553,W,2.341,329.12,180924,,,D*70
$GPVTG,329.12,T,,M,2.341,N,4.335,K,D*36
$GPGGA,185317.00,4506.17921,N,06839.63553,W,2,10,0.91,37.1,M,-29.0,M,,0000*57
$GPGSA,A,3,24,12,25,21,23,10,28,32,46,48,,,1.65,0.91,1.38*06
$GPGSV,3,1,12,02,13,319,08,10,76,200,35,12,36,088,40,21,20,302,29*76
$GPGSV,3,2,12,23,38,155,38,24,23,055,32,25,36,136,40,28,37,228,34*7E
$GPGSV,3,3,12,31,03,228,,32,65,306,42,46,12,248,35,48,15,245,33*70
$GPGLL,4506.17921,N,06839.63553,W,185317.00,A,D*7E
$RDENS,9926,5359579,PC
$GPRMC,185318.00,A,4506.17976,N,06839.63599,W,2.297,329.10,180924,,,D*73
$GPVTG,329.10,T,,M,2.297,N,4.255,K,D*39
$GPGGA,185318.00,4506.17976,N,06839.63599,W,2,10,0.91,37.1,M,-29.0,M,,0000*5C
$GPGSA,A,3,24,12,25,21,23,10,28,32,46,48,,,1.65,0.91,1.38*06
$GPGSV,3,1,12,02,13,319,08,10,76,200,36,12,36,088,40,21,20,302,29*75
$GPGSV,3,2,12,23,38,155,38,24,23,055,32,25,36,136,39,28,37,228,34*70
$GPGSV,3,3,12,31,03,228,,32,65,306,42,46,12,248,35,48,15,245,32*71
$GPGLL,4506.17976,N,06839.63599,W,185318.00,A,D*75
$RDENS,9927,5359657,PC
$GPRMC,185319.00,A,4506.18031,N,06839.63645,W,2.308,329.27,180924,,,D*76
$GPVTG,329.27,T,,M,2.308,N,4.274,K,D*39
$GPGGA,185319.00,4506.18031,N,06839.63645,W,2,10,0.91,37.1,M,-29.0,M,,0000*5A
