$GPRMC,182122.00,A,4506.10068,N,06839.61731,W,0.240,,180924,,,A*66
$GPVTG,,T,,M,0.240,N,0.445,K,A*20
$GPGGA,182122.00,4506.10068,N,06839.61731,W,1,08,0.97,35.3,M,-29.0,M,,*5F
$GPGSA,A,3,24,12,25,21,23,10,28,32,,,,,1.84,0.97,1.56*09
$GPGSV,3,1,12,02,08,329,17,10,79,277,40,12,31,104,26,15,04,094,*78
$GPGSV,3,2,12,21,17,315,19,23,54,149,36,24,37,055,37,25,23,146,26*7F
$GPGSV,3,3,12,28,23,221,35,32,53,289,43,46,12,248,,48,15,245,*71
$GPGLL,4506.10068,N,06839.61731,W,182122.00,A,A*7F
$RDENS,7493,5168113,PC
$GPRMC,182123.00,A,4506.10074,N,06839.61737,W,0.267,,180924,,,A*69
$GPVTG,,T,,M,0.267,N,0.495,K,A*28
$GPGGA,182123.00,4506.10074,N,06839.61737,W,1,08,0.97,35.2,M,-29.0,M,,*54
$GPGSA,A,3,24,12,25,21,23,10,28,32,,,,,1.84,0.97,1.56*09
$GPGSV,3,1,12,02,08,329,16,10,79,277,40,12,31,104,27,15,04,094,*78
$GPGSV,3,2,12,21,17,315,19,23,54,149,39,24,37,055,38,25,23,146,26*7F
$GPGSV,3,3,12,28,23,221,35,32,53,289,44,46,12,248,,48,15,245,*76
$GPGLL,4506.10074,N,06839.61737,W,182123.00,A,A*75
$RDENS,7494,5168191,PC
$GPRMC,182124.00,A,4506.10077,N,06839.61744,W,0.305,,180924,,,A*6C
$GPVTG,,T,,M,0.305,N,0.566,K,A*20
$GPGGA,182124.00,4506.10077,N,06839.61744,W,1,08,0.97,35.2,M,-29.0,M,,*54
$GPGSA,A,3,24,12,25,21,23,10,28,32,,,,,1.84,0.97,1.56*09
$GPGSV,3,1,12,02,08,329,16,10,79,277,40,12,31,104,29,15,04,094,*76
$GPGSV,3,2,12,21,17,315,28,23,54,149,39,24,36,055,37,25,23,146,26*73
$GPGSV,3,3,12,28,23,221,36,32,53,289,42,46,12,248,,48,15,245,*73
$GPGLL,4506.10077,N,06839.61744,W,182124.00,A,A*75
$RDENS,7495,5168271,PC
$GPRMC,182125.00,A,4506.10083,N,06839.61753,W,0.390,,180924,,,A*6C
$GPVTG,,T,,M,0.390,N,0.722,K,A*2E
$GPGGA,182125.00,4506.10083,N,06839.61753,W,1,08,0.97,35.2,M,-29.0,M,,*58
$GPGSA,A,3,24,12,25,21,23,10,28,32,,,,,1.84,0.97,1.56*09
$GPGSV,3,1,12,02,08,329,16,10,79,277,43,12,31,104,33,15,04,094,*7E
$GPGSV,3,2,12,21,17,315,25,23,54,149,40,24,36,055,37,25,23,146,23*75
$GPGSV,3,3,12,28,23,221,37,32,53,289,40,46,12,248,,48,15,245,*70
$GPGLL,4506.10083,N,06839.61753,W,182125.00,A,A*79
$RDENS,7496,5168349,PC
$GPRMC,182126.00,A,4506.10087,N,06839.61770,W,0.535,,180924,,,A*63
$GPVTG,,T,,M,0.535,N,0.991,K,A*21
$GPGGA,182126.00,4506.10087,N,06839.61770,W,1,08,0.97,35.3,M,-29.0,M,,*5F
$GPGSA,A,3,24,12,25,21,23,10,28,32,,,,,1.84,0.97,1.56*09
$GPGSV,3,1,12,02,08,329,17,10,79,277,43,12,31,104,33,15,04,094,*7F
$GPGSV,3,2,12,21,17,315,26,23,54,149,40,24,36,055,37,25,23,146,23*76
$GPGSV,3,3,12,28,23,221,37,32,53,289,40,46,12,248,,48,15,245,*70
$GPGLL,4506.10087,N,06839.61770,W,182126.00,A,A*7F
$RDENS,7497,5168428,PC
$RDENS,7498,5168507,PC
$GPRMC,182127.00,A,4506.10093,N,06839.61794,W,0.743,30.36,180924,,,A*46
$GPVTG,30.36,T,,M,0.743,N,1.375,K,A*0B
$GPGGA,182127.00,4506.10093,N,06839.61794,W,1,08,0.97,35.3,M,-29.0,M,,*51
$GPGSA,A,3,24,12,25,21,23,10,28,32,,,,,1.84,0.97,1.56*09
$GPGSV,3,1,12,02,08,329,19,10,79,277,41,12,31,104,34,15,04,094,*74
$GPGSV,3,2,12,21,17,315,22,23,54,149,40,24,36,055,35,25,23,146,21*72
$GPGSV,3,3,12,28,23,221,39,32,53,289,39,46,12,248,,48,15,245,*70
$GPGLL,4506.10093,N,06839.61794,W,182127.00,A,A*71
$RDENS,7499,5168585,PC
$GPRMC,182128.00,A,4506.10101,N,06839.61820,W,0.878,340.23,180924,,,A*74
$GPVTG,340.23,T,,M,0.878,N,1.627,K,A*3E
$GPGGA,182128.00,4506.10101,N,06839.61820,W,1,08,0.97,35.2,M,-29.0,M,,*55
$GPGSA,A,3,24,12,25,21,23,10,28,32,,,,,1.84,0.97,1.56*09
$GPGSV,3,1,12,02,08,329,20,10,79,277,42,12,31,104,34,15,04,094,*7D
$GPGSV,3,2,12,21,17,315,21,23,54,149,40,24,36,055,34,25,23,146,20*71
$GPGSV,3,3,12,28,24,221,39,32,53,289,39,46,12,248,,48,15,245,*77
$GPGLL,4506.10101,N,06839.61820,W,182128.00,A,A*74
$RDENS,7500,5168664,PC
$GPRMC,182129.00,A,4506.10112,N,06839.61851,W,1.043,317.95,180924,,,A*7F
$GPVTG,317.95,T,,M,1.043,N,1.932,K,A*3B
$GPGGA,182129.00,4506.10112,N,06839.61851,W,1,08,0.97,35.3,M,-29.0,M,,*51
$GPGSA,A,3,24,12,25,21,23,10,28,32,,,,,1.84,0.97,1.56*09
$GPGSV,3,1,12,02,08,329,21,10,79,277,42,12,31,104,34,15,04,094,*7C
$GPGSV,3,2,12,21,17,315,18,23,54,149,40,24,36,055,34,25,23,146,21*7A
$GPGSV,3,3,12,28,24,221,39,32,53,289,39,46,12,248,,48,15,245,*77
$GPGLL,4506.10112,N,06839.61851,W,182129.00,A,A*71
$RDENS,7501,5168742,PC
$RDENS,7502,5168820,PC
$GPRMC,182130.00,A,4506.10129,N,06839.61890,W,1.355,310.36,180924,,,A*78
$GPVTG,310.36,T,,M,1.355,N,2.509,K,A*36
$GPGGA,182130.00,4506.10129,N,06839.61890,W,1,08,0.97,35.2,M,-29.0,M,,*5D
$GPGSA,A,3,24,12,25,21,23,10,28,32,,,,,1.84,0.97,1.56*09
$GPGSV,3,1,12,02,08,329,21,10,79,277,41,12,31,104,33,15,04,094,*78
$GPGSV,3,2,12,21,17,315,17,23,54,149,39,24,36,055,34,25,23,146,20*7A
$GPGSV,3,3,12,28,24,221,39,32,53,289,39,46,12,248,,48,15,245,*77
$GPGLL,4506.10129,N,06839.61890,W,182130.00,A,A*7C
$RDENS,7503,5168899,PC
$GPRMC,182131.00,A,4506.10148,N,06839.61936,W,1.496,307.05,180924,,,A*7D
$GPVTG,307.05,T,,M,1.496,N,2.771,K,A*35
$GPGGA,182131.00,4506.10148,N,06839.61936,W,1,08,0.97,35.2,M,-29.0,M,,*56
$GPGSA,A,3,24,12,25,21,23,10,28,32,,,,,1.84,0.97,1.56*09
$GPGSV,3,1,12,02,08,329,20,10,79,277,41,12,31,104,36,15,04,094,*7C
$GPGSV,3,2,12,21,17,315,20,23,54,149,40,24,36,055,33,25,23,146,22*75
$GPGSV,3,3,12,28,24,221,40,32,53,289,39,46,12,248,,48,15,245,*79
$GPGLL,4506.10148,N,06839.61936,W,182131.00,A,A*77
$RDENS,7504,5168979,PC
$GPRMC,182132.00,A,4506.10168,N,06839.61990,W,1.702,304.15,180924,,,A*7C
$GPVTG,304.15,T,,M,1.702,N,3.153,K,A*3E
$GPGGA,182132.00,4506.10168,N,06839.61990,W,1,08,0.97,35.2,M,-29.0,M,,*5B
$GPGSA,A,3,24,12,25,21,23,10,28,32,,,,,1.84,0.97,1.56*09
$GPGSV,3,1,12,02,08,329,18,10,79,277,41,12,31,104,34,15,04,094,*75
$GPGSV,3,2,12,21,17,315,23,23,54,149,40,24,36,055,33,25,23,146,24*70
$GPGSV,3,3,12,28,24,221,40,32,54,289,39,46,12,248,,48,15,245,*7E
$GPGLL,4506.10168,N,06839.61990,W,182132.00,A,A*7A
$RDENS,7505,5169057,PC
$GPRMC,182133.00,A,4506.10189,N,06839.62050,W,1.885,302.51,180924,,,A*72
$GPVTG,302.51,T,,M,1.885,N,3.492,K,A*30
$GPGGA,182133.00,4506.10189,N,06839.62050,W,1,08,0.97,35.2,M,-29.0,M,,*53
$GPGSA,A,3,24,12,25,21,23,10,28,32,,,,,1.84,0.97,1.56*09
$GPGSV,3,1,12,02,08,329,17,10,79,277,43,12,31,104,34,15,04,094,*78
$GPGSV,3,2,12,21,17,315,25,23,54,149,40,24,36,055,35,25,23,146,25*71
$GPGSV,3,3,12,28,24,221,40,32,54,289,39,46,12,248,,48,15,245,*7E
$GPGLL,4506.10189,N,06839.62050,W,182133.00,A,A*72
$RDENS,7506,5169136,PC
$RDENS,7507,5169215,PC
$GPRMC,182134.00,A,4506.10213,N,06839.62113,W,1.905,301.82,180924,,,A*77
$GPVTG,301.82,T,,M,1.905,N,3.528,K,A*34
$GPGGA,182134.00,4506.10213,N,06839.62113,W,1,08,0.97,35.2,M,-29.0,M,,*52
$GPGSA,A,3,24,12,25,21,23,10,28,32,,,,,1.84,0.97,1.56*09
$GPGSV,3,1,12,02,08,329,14,10,79,277,42,12,31,104,34,15,04,094,*7A
$GPGSV,3,2,12,21,17,315,25,23,54,149,40,24,36,055,35,25,23,146,25*71
$GPGSV,3,3,12,28,24,221,38,32,54,289,37,46,12,248,,48,15,245,*7F
$GPGLL,4506.10213,N,06839.62113,W,182134.00,A,A*73
$RDENS,7508,5169293,PC
$GPRMC,182135.00,A,4506.10237,N,06839.62177,W,1.927,300.96,180924,,,A*76
$GPVTG,300.96,T,,M,1.927,N,3.569,K,A*35
$GPGGA,182135.00,4506.10237,N,06839.62177,W,1,08,0.97,35.2,M,-29.0,M,,*57
$GPGSA,A,3,24,12,25,21,23,10,28,32,,,,,1.84,0.97,1.56*09
$GPGSV,3,1,12,02,08,329,13,10,79,277,41,12,31,104,36,15,04,094,*7C
$GPGSV,3,2,12,21,17,315,25,23,54,149,40,24,36,055,34,25,23,146,23*76
$GPGSV,3,3,12,28,24,221,38,32,54,289,40,46,12,248,,48,15,245,*7F
$GPGLL,4506.10237,N,06839.62177,W,182135.00,A,A*76
$RDENS,7509,5169372,PC
$GPRMC,182136.00,A,4506.10262,N,06839.62241,W,1.901,300.85,180924,,,A*75
$GPVTG,300.85,T,,M,1.901,N,3.520,K,A*3E
$GPGGA,182136.00,4506.10262,N,06839.62241,W,1,08,0.97,35.3,M,-29.0,M,,*53
$GPGSA,A,3,24,12,25,21,23,10,28,32,,,,,1.84,0.97,1.56*09
$GPGSV,3,1,12,02,08,329,12,10,79,277,40,12,31,104,34,15,04,094,*7E
$GPGSV,3,2,12,21,17,315,26,23,54,149,40,24,36,055,33,25,23,146,23*72
$GPGSV,3,3,12,28,24,221,38,32,54,289,39,46,12,248,,48,15,245,*71
$GPGLL,4506.10262,N,06839.62241,W,182136.00,A,A*73
$RDENS,7510,5169451,PC
$GPRMC,182137.00,A,4506.10284,N,06839.62305,W,1.864,299.32,180924,,,A*72
$GPVTG,299.32,T,,M,1.864,N,3.452,K,A*35
$GPGGA,182137.00,4506.10284,N,06839.62305,W,1,08,0.97,35.3,M,-29.0,M,,*5B
$GPGSA,A,3,24,12,25,21,23,10,28,32,,,,,1.84,0.97,1.56*09
$GPGSV,3,1,12,02,08,329,11,10,79,277,36,12,31,104,33,15,04,094,*7B
$GPGSV,3,2,12,21,17,315,26,23,54,149,39,24,36,055,34,25,23,146,25*7D
$GPGSV,3,3,12,28,24,221,38,32,54,289,37,46,12,248,,48,15,245,*7F
$GPGLL,4506.10284,N,06839.62305,W,182137.00,A,A*7B
$RDENS,7511,5169529,PC
$RDENS,7512,5169608,PC
$GPRMC,182138.00,A,4506.10304,N,06839.62373,W,1.997,298.08,180924,,,A*70
$GPVTG,298.08,T,,M,1.997,N,3.699,K,A*35
$GPGGA,182138.00,4506.10304,N,06839.62373,W,1,08,0.97,35.3,M,-29.0,M,,*5C
$GPGSA,A,3,24,12,25,21,23,10,28,32,,,,,1.84,0.97,1.56*09
$GPGSV,3,1,12,02,08,329,15,10,79,277,37,12,31,104,32,15,04,094,*7F
$GPGSV,3,2,12,21,17,315,24,23,54,149,39,24,36,055,32,25,23,146,25*79
$GPGSV,3,3,12,28,24,221,36,32,54,289,37,46,12,248,,48,15,245,*71
$GPGLL,4506.10304,N,06839.62373,W,182138.00,A,A*7C
$RDENS,7513,5169687,PC
$GPRMC,182139.00,A,4506.10323,N,06839.62442,W,2.001,296.66,180924,,,A*72
$GPVTG,296.66,T,,M,2.001,N,3.706,K,A*31
$GPGGA,182139.00,4506.10323,N,06839.62442,W,1,08,0.97,35.3,M,-29.0,M,,*5D
$GPGSA,A,3,24,12,25,21,23,10,28,32,,,,,1.84,0.97,1.57*08
$GPGSV,3,1,12,02,08,329,17,10,79,277,38,12,31,104,32,15,04,094,*72
$GPGSV,3,2,12,21,17,315,23,23,54,149,41,24,36,055,32,25,23,146,23*77
$GPGSV,3,3,12,28,24,221,37,32,54,289,37,46,12,248,,48,15,245,*70
$GPGLL,4506.10323,N,06839.62442,W,182139.00,A,A*7D
$RDENS,7514,5169766,PC
$GPRMC,182140.00,A,4506.10345,N,06839.62510,W,2.027,296.48,180924,,,A*72
$GPVTG,296.48,T,,M,2.027,N,3.755,K,A*3F
$GPGGA,182140.00,4506.10345,N,06839.62510,W,1,07,1.06,35.4,M,-29.0,M,,*54
$GPGSA,A,3,24,12,21,23,10,28,32,,,,,,1.99,1.06,1.69*07
$GPGSV,3,1,12,02,08,329,16,10,79,277,35,12,31,104,35,15,04,094,*79
$GPGSV,3,2,12,21,17,315,25,23,54,149,42,24,36,055,32,25,23,146,21*70
$GPGSV,3,3,12,28,24,221,39,32,54,289,41,46,12,248,,48,15,245,*7F
$GPGLL,4506.10345,N,06839.62510,W,182140.00,A,A*75
$RDENS,7515,5169845,PC
$RDENS,7516,5169923,PC
$GPRMC,182141.00,A,4506.10365,N,06839.62580,W,1.944,294.99,180924,,,A*79
$GPVTG,294.99,T,,M,1.944,N,3.600,K,A*3F
$GPGGA,182141.00,4506.10365,N,06839.62580,W,1,08,0.97,35.7,M,-29.0,M,,*5B
$GPGSA,A,3,24,12,25,21,23,10,28,32,,,,,1.84,0.97,1.57*08
$GPGSV,3,1,12,02,08,329,14,10,79,277,40,12,31,104,33,15,04,094,*7F
$GPGSV,3,2,12,21,17,315,25,23,54,149,41,24,36,055,34,25,23,146,28*7C
$GPGSV,3,3,12,28,24,221,37,32,54,289,41,46,12,248,,48,15,245,*71
$GPGLL,4506.10365,N,06839.62580,W,182141.00,A,A*7F
$RDENS,7517,5170001,PC
$GPRMC,182142.00,A,4506.10386,N,06839.62650,W,1.965,295.14,180924,,,A*7E
$GPVTG,295.14,T,,M,1.965,N,3.639,K,A*32
$GPGGA,182142.00,4506.10386,N,06839.62650,W,1,08,0.97,35.8,M,-29.0,M,,*54
$GPGSA,A,3,24,12,25,21,23,10,28,32,,,,,1.84,0.97,1.57*08
$GPGSV,3,1,12,02,08,329,11,10,79,277,40,12,31,104,33,15,04,094,*7A
$GPGSV,3,2,12,21,17,315,22,23,54,149,39,24,36,055,22,25,23,146,27*7C
$GPGSV,3,3,12,28,24,221,39,32,54,289,42,46,12,248,,48,15,245,*7C
$GPGLL,4506.10386,N,06839.62650,W,182142.00,A,A*7F
$RDENS,7518,5170080,PC
$GPRMC,182143.00,A,4506.10404,N,06839.62720,W,1.928,293.47,180924,,,A*7D
$GPVTG,293.47,T,,M,1.928,N,3.571,K,A*34
$GPGGA,182143.00,4506.10404,N,06839.62720,W,1,08,0.97,36.0,M,-29.0,M,,*55
$GPGSA,A,3,24,12,25,21,23,10,28,32,,,,,1.84,0.97,1.57*08
$GPGSV,3,1,12,02,08,329,09,10,79,277,39,12,31,104,36,15,04,094,*78
$GPGSV,3,2,12,21,17,315,21,23,54,149,40,24,36,055,30,25,23,146,28*7D
$GPGSV,3,3,12,28,24,221,39,32,54,289,42,46,12,248,,48,15,245,*7C
$GPGLL,4506.10404,N,06839.62720,W,182143.00,A,A*75
$RDENS,7519,5170159,PC
$GPRMC,182144.00,A,4506.10424,N,06839.62791,W,1.986,293.04,180924,,,A*71
$GPVTG,293.04,T,,M,1.986,N,3.678,K,A*3D
$GPGGA,182144.00,4506.10424,N,06839.62791,W,1,08,0.97,36.0,M,-29.0,M,,*5A
$GPGSA,A,3,24,12,25,21,23,10,28,32,,,,,1.84,0.97,1.57*08
$GPGSV,3,1,12,02,08,329,11,10,79,277,39,12,31,104,33,15,04,094,*74
$GPGSV,3,2,12,21,17,315,17,23,54,149,40,24,36,055,29,25,23,146,29*71
$GPGSV,3,3,12,28,24,221,39,32,54,289,42,46,12,248,,48,15,245,*7C
$GPGLL,4506.10424,N,06839.62791,W,182144.00,A,A*7A
$RDENS,7520,5170238,PC
$RDENS,7521,5170317,PC
$GPRMC,182145.00,A,4506.10443,N,06839.62866,W,2.007,292.54,180924,,,A*71
$GPVTG,292.54,T,,M,2.007,N,3.717,K,A*32
$GPGGA,182145.00,4506.10443,N,06839.62866,W,1,08,0.97,36.1,M,-29.0,M,,*5C
$GPGSA,A,3,24,12,25,21,23,10,28,32,,,,,1.84,0.97,1.57*08
$GPGSV,3,1,12,02,08,329,15,10,79,277,39,12,31,104,33,15,04,094,*70
$GPGSV,3,2,12,21,17,315,16,23,54,149,40,24,36,055,29,25,23,146,31*79
$GPGSV,3,3,12,28,24,221,38,32,54,289,41,46,12,248,,48,15,245,*7E
$GPGLL,4506.10443,N,06839.62866,W,182145.00,A,A*7D
$RDENS,7522,5170395,PC
$GPRMC,182146.00,A,4506.10460,N,06839.62941,W,1.990,291.02,180924,,,A*73
$GPVTG,291.02,T,,M,1.990,N,3.686,K,A*3F
$GPGGA,182146.00,4506.10460,N,06839.62941,W,1,08,0.97,36.0,M,-29.0,M,,*5B
$GPGSA,A,3,24,12,25,21,23,10,28,32,,,,,1.84,0.97,1.57*08
$GPGSV,3,1,12,02,08,329,15,10,79,277,39,12,31,104,34,15,04,094,*77
$GPGSV,3,2,12,21,17,315,13,23,54,149,41,24,36,055,30,25,23,146,35*71
$GPGSV,3,3,12,28,24,221,38,32,54,289,42,46,12,248,,48,15,245,*7D
$GPGLL,4506.10460,N,06839.62941,W,182146.00,A,A*7B
$RDENS,7523,5170474,PC
$GPRMC,182147.00,A,4506.10480,N,06839.63016,W,2.037,290.32,180924,,,A*73
$GPVTG,290.32,T,,M,2.037,N,3.773,K,A*31
$GPGGA,182147.00,4506.10480,N,06839.63016,W,1,08,0.97,36.1,M,-29.0,M,,*5F
$GPGSA,A,3,24,12,25,21,23,10,28,32,,,,,1.84,0.97,1.57*08
$GPGSV,3,1,12,02,08,329,14,10,79,277,40,12,31,104,33,15,04,094,*7F
$GPGSV,3,2,12,21,17,315,11,23,54,149,41,24,36,055,31,25,23,146,34*73
$GPGSV,3,3,12,28,24,221,38,32,54,289,42,46,12,248,,48,15,245,*7D
$GPGLL,4506.10480,N,06839.63016,W,182147.00,A,A*7E
$RDENS,7524,5170553,PC
$GPRMC,182148.00,A,4506.10495,N,06839.63093,W,1.993,289.24,180924,,,A*7E
$GPVTG,289.24,T,,M,1.993,N,3.691,K,A*37
$GPGGA,182148.00,4506.10495,N,06839.63093,W,1,08,0.97,36.1,M,-29.0,M,,*59
$GPGSA,A,3,24,12,25,21,23,10,28,32,,,,,1.84,0.97,1.57*08
$GPGSV,3,1,12,02,08,329,13,10,79,277,38,12,31,104,33,15,04,094,*77
$GPGSV,3,2,12,21,17,315,10,23,54,149,41,24,36,055,31,25,23,146,34*72
$GPGSV,3,3,12,28,24,221,38,32,54,289,42,46,12,248,,48,15,245,*7D
$GPGLL,4506.10495,N,06839.63093,W,182148.00,A,A*78
$RDENS,7525,5170632,PC
$RDENS,7526,5170710,PC
$GPRMC,182149.00,A,4506.10512,N,06839.63168,W,1.991,288.77,180924,,,A*71
$GPVTG,288.77,T,,M,1.991,N,3.688,K,A*3A
$GPGGA,182149.00,4506.10512,N,06839.63168,W,1,08,0.97,36.1,M,-29.0,M,,*53
$GPGSA,A,3,24,12,25,21,23,10,28,32,,,,,1.84,0.97,1.57*08
$GPGSV,3,1,12,02,08,329,11,10,79,277,38,12,31,104,34,15,04,094,*72
$GPGSV,3,2,12,21,17,315,14,23,54,149,41,24,36,055,31,25,23,146,30*72
$GPGSV,3,3,12,28,24,221,38,32,54,289,41,46,12,248,,48,15,245,*7E
$GPGLL,4506.10512,N,06839.63168,W,182149.00,A,A*72
$RDENS,7527,5170789,PC
$GPRMC,182150.00,A,4506.10529,N,06839.63243,W,2.016,288.64,180924,,,A*7C
$GPVTG,288.64,T,,M,2.016,N,3.734,K,A*3B
$GPGGA,182150.00,4506.10529,N,06839.63243,W,1,08,0.97,36.1,M,-29.0,M,,*59
$GPGSA,A,3,24,12,25,21,23,10,28,32,,,,,1.84,0.97,1.57*08
$GPGSV,3,1,12,02,08,329,10,10,79,277,38,12,31,104,33,15,04,094,*74
$GPGSV,3,2,12,21,17,315,15,23,54,149,41,24,36,055,32,25,23,146,31*71
$GPGSV,3,3,12,28,24,221,38,32,54,289,41,46,12,248,,48,15,245,*7E
$GPGLL,4506.10529,N,06839.63243,W,182150.00,A,A*78
$RDENS,7528,5170867,PC
$GPRMC,182151.00,A,4506.10548,N,06839.63319,W,2.018,288.50,180924,,,A*7D
$GPVTG,288.50,T,,M,2.018,N,3.737,K,A*31
$GPGGA,182151.00,4506.10548,N,06839.63319,W,1,08,0.97,36.1,M,-29.0,M,,*51
$GPGSA,A,3,24,12,25,21,23,10,28,32,,,,,1.84,0.97,1.57*08
$GPGSV,3,1,12,02,08,329,09,10,79,277,40,12,31,104,33,15,04,094,*73
$GPGSV,3,2,12,21,17,315,16,23,54,149,41,24,36,055,31,25,23,146,32*72
$GPGSV,3,3,12,28,24,221,38,32,54,289,41,46,12,248,,48,15,245,*7E
$GPGLL,4506.10548,N,06839.63319,W,182151.00,A,A*70
$RDENS,7529,5170946,PC
$GPRMC,182152.00,A,4506.10565,N,06839.63395,W,2.030,288.18,180924,,,A*73
$GPVTG,288.18,T,,M,2.030,N,3.759,K,A*3F
$GPGGA,182152.00,4506.10565,N,06839.63395,W,1,08,0.97,36.1,M,-29.0,M,,*59
$GPGSA,A,3,24,12,25,21,23,10,28,32,,,,,1.84,0.97,1.57*08
$GPGSV,3,1,12,02,08,329,09,10,79,277,39,12,31,104,34,15,04,094,*7A
$GPGSV,3,2,12,21,17,315,16,23,54,149,42,24,36,055,32,25,23,146,32*72
$GPGSV,3,3,12,28,24,221,38,32,54,289,42,46,12,248,,48,15,245,*7D
$GPGLL,4506.10565,N,06839.63395,W,182152.00,A,A*78
$RDENS,7530,5171025,PC
$RDENS,7531,5171104,PC
$GPRMC,182153.00,A,4506.10580,N,06839.63471,W,1.999,287.73,180924,,,A*7F
$GPVTG,287.73,T,,M,1.999,N,3.702,K,A*3A
$GPGGA,182153.00,4506.10580,N,06839.63471,W,1,08,0.97,36.2,M,-29.0,M,,*5D
$GPGSA,A,3,24,12,25,21,23,10,28,32,,,,,1.84,0.97,1.57*08
$GPGSV,3,1,12,02,08,329,09,10,79,277,38,12,31,104,33,15,04,094,*7C
$GPGSV,3,2,12,21,17,315,14,23,54,149,41,24,36,055,32,25,23,146,33*72
$GPGSV,3,3,12,28,24,221,38,32,54,289,42,46,12,248,,48,15,245,*7D
$GPGLL,4506.10580,N,06839.63471,W,182153.00,A,A*7F
$RDENS,7532,5171183,PC
$GPRMC,182154.00,A,4506.10596,N,06839.63549,W,2.051,288.04,180924,,,A*74
$GPVTG,288.04,T,,M,2.051,N,3.798,K,A*38
$GPGGA,182154.00,4506.10596,N,06839.63549,W,1,08,0.97,36.2,M,-29.0,M,,*57
$GPGSA,A,3,24,12,25,21,23,10,28,32,,,,,1.84,0.97,1.57*08
$GPGSV,3,1,12,02,08,329,09,10,79,276,38,12,31,104,34,15,04,094,*7A
$GPGSV,3,2,12,21,17,315,14,23,54,149,41,24,36,055,31,25,23,146,33*71
$GPGSV,3,3,12,28,24,221,38,32,54,289,41,46,12,248,,48,15,245,*7E
$GPGLL,4506.10596,N,06839.63549,W,182154.00,A,A*75
$RDENS,7533,5171261,PC
$GPRMC,182155.00,A,4506.10613,N,06839.63626,W,2.019,287.68,180924,,,A*78
$GPVTG,287.68,T,,M,2.019,N,3.739,K,A*3A
$GPGGA,182155.00,4506.10613,N,06839.63626,W,1,08,0.97,36.2,M,-29.0,M,,*52
$GPGSA,A,3,24,12,25,21,23,10,28,32,,,,,1.84,0.97,1.57*08
$GPGSV,3,1,12,02,08,329,09,10,79,276,38,12,31,104,34,15,04,094,*7A
$GPGSV,3,2,12,21,17,315,15,23,54,149,41,24,36,055,31,25,23,146,33*70
$GPGSV,3,3,12,28,24,221,38,32,54,289,41,46,12,248,,48,15,245,*7E
$GPGLL,4506.10613,N,06839.63626,W,182155.00,A,A*70
$RDENS,7534,5171340,PC
$RDENS,7535,5171419,PC
$GPRMC,182156.00,A,4506.10628,N,06839.63704,W,2.042,286.67,180924,,,A*72
$GPVTG,286.67,T,,M,2.042,N,3.782,K,A*3A
$GPGGA,182156.00,4506.10628,N,06839.63704,W,1,08,0.97,36.2,M,-29.0,M,,*58
$GPGSA,A,3,24,12,25,21,23,10,28,32,,,,,1.84,0.97,1.57*08
$GPGSV,3,1,12,02,08,329,,10,79,276,38,12,31,104,35,15,04,094,*72
$GPGSV,3,2,12,21,17,315,16,23,54,149,40,24,36,055,31,25,23,146,33*72
$GPGSV,3,3,12,28,24,221,38,32,54,289,40,46,12,248,,48,15,245,*7F
$GPGLL,4506.10628,N,06839.63704,W,182156.00,A,A*7A
$RDENS,7536,5171497,PC
$GPRMC,182157.00,A,4506.10642,N,06839.63782,W,2.035,285.72,180924,,,A*76
$GPVTG,285.72,T,,M,2.035,N,3.769,K,A*38
$GPGGA,182157.00,4506.10642,N,06839.63782,W,1,08,0.97,36.2,M,-29.0,M,,*5B
$GPGSA,A,3,24,12,25,21,23,10,28,32,,,,,1.84,0.97,1.57*08
$GPGSV,3,1,12,02,08,329,,10,79,276,38,12,31,104,34,15,04,094,*73
$GPGSV,3,2,12,21,17,315,16,23,54,149,40,24,36,055,32,25,23,146,33*71
$GPGSV,3,3,12,28,24,221,37,32,54,289,42,46,12,248,,48,15,245,*72
$GPGLL,4506.10642,N,06839.63782,W,182157.00,A,A*79
$RDENS,7537,5171577,PC
$GPRMC,182158.00,A,4506.10656,N,06839.63861,W,2.051,285.57,180924,,,A*7B
$GPVTG,285.57,T,,M,2.051,N,3.798,K,A*33
$GPGGA,182158.00,4506.10656,N,06839.63861,W,1,08,0.97,36.2,M,-29.0,M,,*53
$GPGSA,A,3,24,12,25,21,23,10,28,32,,,,,1.84,0.97,1.57*08
$GPGSV,3,1,12,02,08,329,,10,79,276,38,12,31,104,35,15,04,094,*72
$GPGSV,3,2,12,21,17,315,15,23,54,149,40,24,36,055,32,25,23,146,35*74
$GPGSV,3,3,12,28,24,221,37,32,54,289,42,46,12,248,,48,15,245,*72
$GPGLL,4506.10656,N,06839.63861,W,182158.00,A,A*71
$RDENS,7538,5171654,PC
$GPRMC,182159.00,A,4506.10669,N,06839.63941,W,2.086,285.10,180924,,,A*7C
$GPVTG,285.10,T,,M,2.086,N,3.863,K,A*31
$GPGGA,182159.00,4506.10669,N,06839.63941,W,1,08,0.97,36.3,M,-29.0,M,,*5C
$GPGSA,A,3,24,12,25,21,23,10,28,32,,,,,1.84,0.97,1.57*08
$GPGSV,3,1,12,02,08,329,,10,79,276,38,12,31,104,35,15,04,094,*72
$GPGSV,3,2,12,21,17,315,15,23,54,149,41,24,36,055,32,25,23,146,35*75
$GPGSV,3,3,12,28,24,221,37,32,54,289,42,46,12,248,,48,15,245,*72
$GPGLL,4506.10669,N,06839.63941,W,182159.00,A,A*7F
$RDENS,7539,5171734,PC
$RDENS,7540,5171812,PC
$GPRMC,182200.00,A,4506.10681,N,06839.64021,W,2.041,284.46,180924,,,A*74
$GPVTG,284.46,T,,M,2.041,N,3.780,K,A*3A
$GPGGA,182200.00,4506.10681,N,06839.64021,W,1,08,0.97,36.3,M,-29.0,M,,*5D
$GPGSA,A,3,24,12,25,21,23,10,28,32,,,,,1.84,0.97,1.57*08
$GPGSV,3,1,12,02,08,329,,10,79,276,38,12,31,104,32,15,04,094,*75
$GPGSV,3,2,12,21,17,315,16,23,54,149,41,24,36,055,31,25,23,146,34*74
$GPGSV,3,3,12,28,24,221,37,32,54,289,40,46,12,248,,48,15,245,*70
$GPGLL,4506.10681,N,06839.64021,W,182200.00,A,A*7E
$RDENS,7541,5171891,PC
$GPRMC,182201.00,A,4506.10694,N,06839.64100,W,2.084,284.63,180924,,,A*7D
$GPVTG,284.63,T,,M,2.084,N,3.859,K,A*3F
$GPGGA,182201.00,4506.10694,N,06839.64100,W,1,08,0.97,36.3,M,-29.0,M,,*5A
$GPGSA,A,3,24,12,25,21,23,10,28,32,,,,,1.84,0.97,1.57*08
$GPGSV,3,1,12,02,08,329,,10,79,276,38,12,31,104,33,15,04,094,*74
$GPGSV,3,2,12,21,17,315,15,23,54,149,41,24,36,055,31,25,23,146,34*77
$GPGSV,3,3,12,28,24,221,37,32,54,289,40,46,12,248,,48,15,245,*70
$GPGLL,4506.10694,N,06839.64100,W,182201.00,A,A*79
$RDENS,7542,5171970,PC
$GPRMC,182202.00,A,4506.10710,N,06839.64180,W,2.096,285.32,180924,,,A*7D
$GPVTG,285.32,T,,M,2.096,N,3.882,K,A*3F
$GPGGA,182202.00,4506.10710,N,06839.64180,W,1,08,0.97,36.2,M,-29.0,M,,*5D
$GPGSA,A,3,24,12,25,21,23,10,28,32,,,,,1.84,0.97,1.57*08
$GPGSV,3,1,12,02,08,329,,10,79,276,38,12,31,104,34,15,04,094,*73
$GPGSV,3,2,12,21,17,315,16,23,54,149,41,24,36,055,32,25,23,146,34*77
$GPGSV,3,3,12,28,24,221,37,32,54,289,42,46,12,248,,48,15,245,*72
$GPGLL,4506.10710,N,06839.64180,W,182202.00,A,A*7F
$RDENS,7543,5172048,PC
$GPRMC,182203.00,A,4506.10724,N,06839.64259,W,2.073,285.25,180924,,,A*71
$GPVTG,285.25,T,,M,2.073,N,3.840,K,A*3C
$GPGGA,182203.00,4506.10724,N,06839.64259,W,1,08,0.97,36.2,M,-29.0,M,,*5C
$GPGSA,A,3,24,12,25,21,23,10,28,32,,,,,1.84,0.97,1.57*08
$GPGSV,3,1,12,02,08,329,,10,79,276,38,12,31,104,33,15,04,094,*74
$GPGSV,3,2,12,21,17,315,17,23,54,149,41,24,36,055,31,25,23,146,34*75
$GPGSV,3,3,12,28,24,221,38,32,54,289,40,46,12,248,,48,15,245,*7F
$GPGLL,4506.10724,N,06839.64259,W,182203.00,A,A*7E
$RDENS,7544,5172127,PC
$RDENS,7545,5172206,PC
$GPRMC,182204.00,A,4506.10737,N,06839.64337,W,2.020,284.99,180924,,,A*7D
$GPVTG,284.99,T,,M,2.020,N,3.740,K,A*33
$GPGGA,182204.00,4506.10737,N,06839.64337,W,1,08,0.97,36.3,M,-29.0,M,,*51
$GPGSA,A,3,24,12,25,21,23,10,28,32,,,,,1.84,0.97,1.57*08
$GPGSV,3,1,12,02,08,329,,10,79,276,38,12,31,104,33,15,04,094,*74
$GPGSV,3,2,12,21,17,315,17,23,54,149,41,24,36,055,31,25,23,146,33*72
$GPGSV,3,3,12,28,24,221,38,32,54,289,41,46,12,248,,48,15,245,*7E
$GPGLL,4506.10737,N,06839.64337,W,182204.00,A,A*72
$RDENS,7546,5172285,PC
$GPRMC,182205.00,A,4506.10755,N,06839.64412,W,2.025,285.16,180924,,,A*7B
$GPVTG,285.16,T,,M,2.025,N,3.751,K,A*30
$GPGGA,182205.00,4506.10755,N,06839.64412,W,1,08,0.97,36.1,M,-29.0,M,,*56
$GPGSA,A,3,24,12,25,21,23,10,28,32,,,,,1.84,0.97,1.57*08
$GPGSV,3,1,12,02,08,329,,10,79,276,38,12,31,104,33,15,04,094,*74
$GPGSV,3,2,12,21,17,314,18,23,54,149,41,24,36,055,31,25,23,146,31*7E
$GPGSV,3,3,12,28,24,221,38,32,54,289,41,46,12,248,,48,15,245,*7E
$GPGLL,4506.10755,N,06839.64412,W,182205.00,A,A*77
$RDENS,7547,5172363,PC
$GPRMC,182206.00,A,4506.10770,N,06839.64488,W,2.058,285.33,180924,,,A*71
$GPVTG,285.33,T,,M,2.058,N,3.811,K,A*36
$GPGGA,182206.00,4506.10770,N,06839.64488,W,1,08,0.97,36.2,M,-29.0,M,,*52
$GPGSA,A,3,24,12,25,21,23,10,28,32,,,,,1.85,0.97,1.57*09
$GPGSV,3,1,12,02,08,329,,10,79,276,38,12,31,104,32,15,04,094,*75
$GPGSV,3,2,12,21,17,314,16,23,54,149,41,24,36,055,31,25,23,146,30*71
$GPGSV,3,3,12,28,24,221,40,32,54,289,41,46,12,248,,48,15,245,*71
$GPGLL,4506.10770,N,06839.64488,W,182206.00,A,A*70
$RDENS,7548,5172442,PC
$RDENS,7549,5172521,PC
$GPRMC,182207.00,A,4506.10785,N,06839.64567,W,2.078,286.68,180924,,,A*75
$GPVTG,286.68,T,,M,2.078,N,3.849,K,A*34
$GPGGA,182207.00,4506.10785,N,06839.64567,W,1,08,0.97,36.1,M,-29.0,M,,*5A
$GPGSA,A,3,24,12,25,21,23,10,28,32,,,,,1.85,0.97,1.57*09
$GPGSV,3,1,12,02,08,329,,10,79,276,38,12,31,104,34,15,04,094,*73
$GPGSV,3,2,12,21,17,314,15,23,53,149,41,24,36,055,31,25,23,146,32*77
$GPGSV,3,3,12,28,24,221,38,32,54,289,42,46,12,248,,48,15,245,*7D
$GPGLL,4506.10785,N,06839.64567,W,182207.00,A,A*7B
$RDENS,7550,5172599,PC
$GPRMC,182208.00,A,4506.10800,N,06839.64644,W,2.021,286.22,180924,,,A*78
$GPVTG,286.22,T,,M,2.021,N,3.743,K,A*33
$GPGGA,182208.00,4506.10800,N,06839.64644,W,1,08,0.97,36.0,M,-29.0,M,,*54
$GPGSA,A,3,24,12,25,21,23,10,28,32,,,,,1.85,0.97,1.57*09
$GPGSV,3,1,12,02,08,329,,10,79,276,38,12,31,104,34,15,04,094,*73
$GPGSV,3,2,12,21,17,314,10,23,53,149,40,24,36,055,31,25,23,146,32*73
$GPGSV,3,3,12,28,24,221,38,32,54,289,41,46,12,248,,48,15,245,*7E
$GPGLL,4506.10800,N,06839.64644,W,182208.00,A,A*74
$RDENS,7551,5172678,PC
$GPRMC,182209.00,A,4506.10813,N,06839.64722,W,2.054,286.37,180924,,,A*7C
$GPVTG,286.37,T,,M,2.054,N,3.805,K,A*38
$GPGGA,182209.00,4506.10813,N,06839.64722,W,1,07,1.28,36.0,M,-29.0,M,,*5C
$GPGSA,A,3,24,12,25,23,10,28,32,,,,,,2.58,1.28,2.24*0B
$GPGSV,3,1,12,02,08,329,,10,79,276,38,12,31,104,33,15,04,094,*74
$GPGSV,3,2,12,21,17,314,08,23,53,149,40,24,36,055,31,25,24,145,32*7E
$GPGSV,3,3,12,28,24,221,39,32,54,289,41,46,12,248,,48,15,245,*7F
$GPGLL,4506.10813,N,06839.64722,W,182209.00,A,A*76
$RDENS,7552,5172757,PC
$GPRMC,182210.00,A,4506.10826,N,06839.64801,W,2.094,286.24,180924,,,A*72
$GPVTG,286.24,T,,M,2.094,N,3.879,K,A*3D
$GPGGA,182210.00,4506.10826,N,06839.64801,W,1,07,1.28,36.1,M,-29.0,M,,*5D
$GPGSA,A,3,24,12,25,23,10,28,32,,,,,,2.58,1.28,2.24*0B
$GPGSV,3,1,12,02,08,329,,10,79,276,39,12,31,104,33,15,04,094,*75
$GPGSV,3,2,12,21,17,314,08,23,53,149,40,24,36,055,31,25,24,145,31*7D
$GPGSV,3,3,12,28,24,221,39,32,54,289,41,46,12,248,,48,15,245,*7F
$GPGLL,4506.10826,N,06839.64801,W,182210.00,A,A*76
$RDENS,7553,5172835,PC
$RDENS,7554,5172915,PC
$GPRMC,182211.00,A,4506.10840,N,06839.64880,W,2.041,286.26,180924,,,A*70
$GPVTG,286.26,T,,M,2.041,N,3.779,K,A*38
$GPGGA,182211.00,4506.10840,N,06839.64880,W,1,07,1.28,36.1,M,-29.0,M,,*55
$GPGSA,A,3,24,12,25,23,10,28,32,,,,,,2.58,1.28,2.24*0B
$GPGSV,3,1,12,02,08,329,,10,79,276,39,12,31,104,32,15,04,094,*74
$GPGSV,3,2,12,21,17,314,08,23,53,149,40,24,36,055,30,25,24,145,31*7C
$GPGSV,3,3,12,28,24,221,39,32,54,289,41,46,12,248,,48,15,245,*7F
$GPGLL,4506.10840,N,06839.64880,W,182211.00,A,A*7E
$RDENS,7555,5172992,PC
$GPRMC,182212.00,A,4506.10854,N,06839.64958,W,2.019,285.63,180924,,,A*7D
$GPVTG,285.63,T,,M,2.019,N,3.739,K,A*33
$GPGGA,182212.00,4506.10854,N,06839.64958,W,1,07,1.28,36.1,M,-29.0,M,,*57
$GPGSA,A,3,24,12,25,23,10,28,32,,,,,,2.58,1.28,2.24*0B
$GPGSV,3,1,12,02,08,329,,10,79,276,39,12,31,104,32,15,04,094,*74
$GPGSV,3,2,12,21,17,314,08,23,53,149,41,24,36,055,30,25,24,145,30*7C
$GPGSV,3,3,12,28,24,221,39,32,54,289,42,46,12,248,,48,15,245,*7C
$GPGLL,4506.10854,N,06839.64958,W,182212.00,A,A*7C
$RDENS,7556,5173072,PC
$GPRMC,182213.00,A,4506.10867,N,06839.65037,W,2.032,285.24,180924,,,A*77
$GPVTG,285.24,T,,M,2.032,N,3.764,K,A*31
$GPGGA,182213.00,4506.10867,N,06839.65037,W,1,07,1.28,36.2,M,-29.0,M,,*54
$GPGSA,A,3,24,12,25,23,10,28,32,,,,,,2.58,1.28,2.24*0B
$GPGSV,3,1,12,02,08,329,,10,79,276,39,12,31,104,32,15,04,094,*74
$GPGSV,3,2,12,21,17,314,08,23,53,149,41,24,36,055,31,25,24,145,31*7C
$GPGSV,3,3,12,28,24,221,39,32,54,289,41,46,12,248,,48,15,245,*7F
$GPGLL,4506.10867,N,06839.65037,W,182213.00,A,A*7C
$RDENS,7557,5173150,PC
$GPRMC,182214.00,A,4506.10881,N,06839.65113,W,2.016,285.53,180924,,,A*79
$GPVTG,285.53,T,,M,2.016,N,3.733,K,A*35
$GPGGA,182214.00,4506.10881,N,06839.65113,W,1,08,0.97,36.2,M,-29.0,M,,*56
$GPGSA,A,3,24,12,25,21,23,10,28,32,,,,,1.85,0.97,1.57*09
$GPGSV,3,1,12,02,08,329,,10,79,276,40,12,31,104,33,15,04,094,*7B
$GPGSV,3,2,12,21,17,314,08,23,53,149,41,24,36,055,30,25,24,145,30*7C
$GPGSV,3,3,12,28,24,221,38,32,54,289,41,46,12,248,,48,15,245,*7E
$GPGLL,4506.10881,N,06839.65113,W,182214.00,A,A*74
$RDENS,7558,5173229,PC
$RDENS,7559,5173308,PC
$GPRMC,182215.00,A,4506.10896,N,06839.65190,W,2.050,285.76,180924,,,A*70
$GPVTG,285.76,T,,M,2.050,N,3.798,K,A*31
$GPGGA,182215.00,4506.10896,N,06839.65190,W,1,08,0.97,36.2,M,-29.0,M,,*5A
$GPGSA,A,3,24,12,25,21,23,10,28,32,,,,,1.85,0.97,1.57*09
$GPGSV,3,1,12,02,08,329,,10,79,276,39,12,31,104,33,15,04,094,*75
$GPGSV,3,2,12,21,17,314,08,23,53,149,40,24,36,055,29,25,24,145,30*75
$GPGSV,3,3,12,28,24,221,38,32,54,289,41,46,12,248,,48,15,245,*7E
$GPGLL,4506.10896,N,06839.65190,W,182215.00,A,A*78
$RDENS,7560,5173387,PC
$GPRMC,182216.00,A,4506.10911,N,06839.65267,W,2.032,285.92,180924,,,A*78
$GPVTG,285.92,T,,M,2.032,N,3.764,K,A*3C
$GPGGA,182216.00,4506.10911,N,06839.65267,W,1,08,0.97,36.2,M,-29.0,M,,*5C
$GPGSA,A,3,24,12,25,21,23,10,28,32,,,,,1.85,0.97,1.57*09
$GPGSV,3,1,12,02,08,329,,10,79,276,39,12,31,104,33,15,04,094,*75
$GPGSV,3,2,12,21,17,314,08,23,53,149,40,24,36,055,29,25,24,145,30*75
$GPGSV,3,3,12,28,24,221,39,32,54,290,41,46,12,248,,48,15,245,*77
$GPGLL,4506.10911,N,06839.65267,W,182216.00,A,A*7E
$RDENS,7561,5173465,PC
$GPRMC,182217.00,A,4506.10926,N,06839.65344,W,2.050,285.89,180924,,,A*73
$GPVTG,285.89,T,,M,2.050,N,3.796,K,A*3F
$GPGGA,182217.00,4506.10926,N,06839.65344,W,1,08,0.97,36.1,M,-29.0,M,,*5A
$GPGSA,A,3,24,12,25,21,23,10,28,32,,,,,1.85,0.97,1.57*09
$GPGSV,3,1,12,02,08,329,,10,79,276,39,12,31,104,33,15,04,094,*75
$GPGSV,3,2,12,21,17,314,08,23,53,149,41,24,36,055,30,25,24,145,30*7C
$GPGSV,3,3,12,28,24,221,39,32,54,290,41,46,12,248,,48,15,245,*77
$GPGLL,4506.10926,N,06839.65344,W,182217.00,A,A*7B
$RDENS,7562,5173544,PC
$GPRMC,182218.00,A,4506.10939,N,06839.65422,W,2.041,284.93,180924,,,A*7F
$GPVTG,284.93,T,,M,2.041,N,3.780,K,A*32
$GPGGA,182218.00,4506.10939,N,06839.65422,W,1,08,0.97,36.2,M,-29.0,M,,*5F
$GPGSA,A,3,24,12,25,21,23,10,28,32,,,,,1.85,0.97,1.57*09
$GPGSV,3,1,12,02,08,329,,10,79,276,40,12,31,104,33,15,04,094,*7B
$GPGSV,3,2,12,21,17,314,08,23,53,149,40,24,36,055,30,25,24,145,30*7D
$GPGSV,3,3,12,28,24,221,39,32,54,290,41,46,12,248,,48,15,245,*77
$GPGLL,4506.10939,N,06839.65422,W,182218.00,A,A*7D
$RDENS,7563,5173623,PC
$RDENS,7564,5173701,PC
$GPRMC,182219.00,A,4506.10950,N,06839.65498,W,2.007,284.99,180924,,,A*78
$GPVTG,284.99,T,,M,2.007,N,3.718,K,A*3B
$GPGGA,182219.00,4506.10950,N,06839.65498,W,1,08,0.97,36.2,M,-29.0,M,,*50
$GPGSA,A,3,24,12,25,21,23,10,28,32,,,,,1.85,0.97,1.57*09
$GPGSV,3,1,12,02,08,329,,10,79,276,39,12,31,104,33,15,04,094,*75
$GPGSV,3,2,12,21,17,314,08,23,53,149,40,24,36,055,29,25,24,145,29*7D
$GPGSV,3,3,12,28,24,221,39,32,54,290,41,46,12,248,,48,15,245,*77
$GPGLL,4506.10950,N,06839.65498,W,182219.00,A,A*72
$RDENS,7565,5173780,PC
$GPRMC,182220.00,A,4506.10962,N,06839.65576,W,2.066,284.17,180924,,,A*73
$GPVTG,284.17,T,,M,2.066,N,3.826,K,A*38
$GPGGA,182220.00,4506.10962,N,06839.65576,W,1,08,0.97,36.3,M,-29.0,M,,*5B
$GPGSA,A,3,24,12,25,21,23,10,28,32,,,,,1.85,0.97,1.57*09
$GPGSV,3,1,12,02,08,329,,10,79,276,39,12,31,104,33,15,04,094,*75
$GPGSV,3,2,12,21,17,314,08,23,53,149,41,24,36,055,30,25,24,145,30*7C
$GPGSV,3,3,12,28,24,221,39,32,54,290,41,46,12,248,,48,15,245,*77
$GPGLL,4506.10962,N,06839.65576,W,182220.00,A,A*78
$RDENS,7566,5173859,PC
$GPRMC,182221.00,A,4506.10976,N,06839.65655,W,2.035,283.72,180924,,,A*77
$GPVTG,283.72,T,,M,2.035,N,3.769,K,A*3E
$GPGGA,182221.00,4506.10976,N,06839.65655,W,1,08,0.97,36.3,M,-29.0,M,,*5D
$GPGSA,A,3,24,12,25,21,23,10,28,32,,,,,1.85,0.97,1.57*09
$GPGSV,3,1,12,02,08,329,,10,79,276,39,12,31,104,33,15,04,094,*75
$GPGSV,3,2,12,21,17,314,08,23,53,149,40,24,36,055,30,25,24,145,30*7D
$GPGSV,3,3,12,28,24,221,39,32,54,290,41,46,12,248,,48,15,245,*77
$GPGLL,4506.10976,N,06839.65655,W,182221.00,A,A*7E
$RDENS,7567,5173938,PC
$RDENS,7568,5174017,PC
$GPRMC,182222.00,A,4506.10988,N,06839.65733,W,2.006,283.32,180924,,,A*70
$GPVTG,283.32,T,,M,2.006,N,3.716,K,A*32
$GPGGA,182222.00,4506.10988,N,06839.65733,W,1,08,0.97,36.3,M,-29.0,M,,*5E
$GPGSA,A,3,24,12,25,21,23,10,28,32,,,,,1.85,0.97,1.57*09
$GPGSV,3,1,12,02,08,329,,10,79,276,39,12,31,104,33,15,04,094,*75
$GPGSV,3,2,12,21,17,314,08,23,53,149,40,24,36,055,31,25,24,145,30*7C
$GPGSV,3,3,12,28,24,221,39,32,54,290,41,46,12,248,,48,15,245,*77
$GPGLL,4506.10988,N,06839.65733,W,182222.00,A,A*7D
$RDENS,7569,5174095,PC
$GPRMC,182223.00,A,4506.11002,N,06839.65809,W,2.008,283.77,180924,,,A*72
$GPVTG,283.77,T,,M,2.008,N,3.719,K,A*32
$GPGGA,182223.00,4506.11002,N,06839.65809,W,1,08,0.97,36.3,M,-29.0,M,,*53
$GPGSA,A,3,24,12,25,21,23,10,28,32,,,,,1.85,0.97,1.57*09
$GPGSV,3,1,12,02,08,329,,10,79,276,39,12,31,104,33,15,04,094,*75
$GPGSV,3,2,12,21,17,314,08,23,53,149,41,24,36,055,30,25,24,145,31*7D
$GPGSV,3,3,12,28,24,221,39,32,54,290,40,46,12,248,,48,15,245,*76
$GPGLL,4506.11002,N,06839.65809,W,182223.00,A,A*70
$RDENS,7570,5174174,PC
$GPRMC,182224.00,A,4506.11016,N,06839.65886,W,2.033,283.99,180924,,,A*7F
$GPVTG,283.99,T,,M,2.033,N,3.764,K,A*30
$GPGGA,182224.00,4506.11016,N,06839.65886,W,1,08,0.97,36.3,M,-29.0,M,,*56
$GPGSA,A,3,24,12,25,21,23,10,28,32,,,,,1.85,0.97,1.57*09
$GPGSV,3,1,12,02,08,329,,10,79,276,39,12,31,104,32,15,04,094,*74
$GPGSV,3,2,12,21,17,314,08,23,53,149,41,24,36,055,30,25,24,145,30*7C
$GPGSV,3,3,12,28,24,221,39,32,54,290,42,46,12,248,,48,15,245,*74
$GPGLL,4506.11016,N,06839.65886,W,182224.00,A,A*75
$RDENS,7571,5174252,PC
$GPRMC,182225.00,A,4506.11030,N,06839.65963,W,2.025,283.96,180924,,,A*78
$GPVTG,283.96,T,,M,2.025,N,3.750,K,A*3F
$GPGGA,182225.00,4506.11030,N,06839.65963,W,1,07,1.28,36.3,M,-29.0,M,,*53
$GPGSA,A,3,24,12,25,23,10,28,32,,,,,,2.58,1.28,2.24*0B
$GPGSV,3,1,12,02,08,329,,10,79,276,39,12,31,104,32,15,04,094,*74
$GPGSV,3,2,12,21,17,314,,23,53,149,40,24,36,055,30,25,24,145,29*7D
$GPGSV,3,3,12,28,24,221,39,32,54,290,41,46,12,248,,48,15,245,*77
$GPGLL,4506.11030,N,06839.65963,W,182225.00,A,A*7A
$RDENS,7572,5174331,PC
$RDENS,7573,5174410,PC
$GPRMC,182226.00,A,4506.11043,N,06839.66041,W,2.055,284.16,180924,,,A*7D
$GPVTG,284.16,T,,M,2.055,N,3.806,K,A*3B
$GPGGA,182226.00,4506.11043,N,06839.66041,W,1,07,1.28,36.3,M,-29.0,M,,*5E
$GPGSA,A,3,24,12,25,23,10,28,32,,,,,,2.58,1.28,2.24*0B
$GPGSV,3,1,12,02,08,329,,10,79,276,39,12,31,104,33,15,04,094,*75
$GPGSV,3,2,12,21,17,314,,23,53,149,40,24,36,055,29,25,24,145,28*74
$GPGSV,3,3,12,28,24,221,39,32,54,290,41,46,12,248,,48,15,245,*77
$GPGLL,4506.11043,N,06839.66041,W,182226.00,A,A*77
$RDENS,7574,5174489,PC
$GPRMC,182227.00,A,4506.11058,N,06839.66118,W,2.047,284.59,180924,,,A*73
$GPVTG,284.59,T,,M,2.047,N,3.790,K,A*33
$GPGGA,182227.00,4506.11058,N,06839.66118,W,1,07,1.28,36.3,M,-29.0,M,,*58
$GPGSA,A,3,24,12,25,23,10,28,32,,,,,,2.58,1.28,2.24*0B
$GPGSV,3,1,12,02,08,329,,10,79,276,39,12,31,104,31,15,04,094,*77
$GPGSV,3,2,12,21,17,314,,23,53,149,40,24,36,055,29,25,24,145,28*74
$GPGSV,3,3,12,28,24,221,39,32,54,290,41,46,12,248,,48,15,245,*77
$GPGLL,4506.11058,N,06839.66118,W,182227.00,A,A*71
$RDENS,7575,5174568,PC
$GPRMC,182228.00,A,4506.11068,N,06839.66196,W,2.033,283.27,180924,,,A*74
$GPVTG,283.27,T,,M,2.033,N,3.765,K,A*34
$GPGGA,182228.00,4506.11068,N,06839.66196,W,1,07,1.28,36.3,M,-29.0,M,,*52
$GPGSA,A,3,24,12,25,23,10,28,32,,,,,,2.58,1.28,2.24*0B
$GPGSV,3,1,12,02,08,329,,10,79,276,39,12,31,104,31,15,04,094,*77
$GPGSV,3,2,12,21,17,314,,23,53,149,41,24,36,055,31,25,24,145,29*7D
$GPGSV,3,3,12,28,24,221,39,32,54,290,40,46,12,248,,48,15,245,*76
$GPGLL,4506.11068,N,06839.66196,W,182228.00,A,A*7B
$RDENS,7576,5174646,PC
$GPRMC,182229.00,A,4506.11081,N,06839.66275,W,2.040,282.16,180924,,,A*7B
$GPVTG,282.16,T,,M,2.040,N,3.778,K,A*3F
$GPGGA,182229.00,4506.11081,N,06839.66275,W,1,07,1.28,36.2,M,-29.0,M,,*5B
$GPGSA,A,3,24,12,25,23,10,28,32,,,,,,2.58,1.28,2.24*0B
$GPGSV,3,1,12,02,08,329,,10,79,276,39,12,31,104,30,15,04,094,*76
$GPGSV,3,2,12,21,17,314,,23,53,149,40,24,36,055,32,25,24,145,31*76
$GPGSV,3,3,12,28,24,221,39,32,54,290,40,46,12,248,,48,15,245,*76
$GPGLL,4506.11081,N,06839.66275,W,182229.00,A,A*73
$RDENS,7577,5174725,PC
$RDENS,7578,5174804,PC
$GPRMC,182230.00,A,4506.11096,N,06839.66353,W,2.048,281.71,180924,,,A*7A
$GPVTG,281.71,T,,M,2.048,N,3.792,K,A*31
$GPGGA,182230.00,4506.11096,N,06839.66353,W,1,07,1.28,36.2,M,-29.0,M,,*50
$GPGSA,A,3,24,12,25,23,10,28,32,,,,,,2.58,1.28,2.24*0B
$GPGSV,3,1,12,02,08,329,,10,79,276,39,12,31,104,30,15,04,094,*76
$GPGSV,3,2,12,21,17,314,,23,53,149,41,24,36,055,32,25,24,145,31*77
$GPGSV,3,3,12,28,24,221,39,32,54,290,41,46,12,248,,48,15,245,*77
$GPGLL,4506.11096,N,06839.66353,W,182230.00,A,A*78
$RDENS,7579,5174882,PC
$GPRMC,182231.00,A,4506.11109,N,06839.66431,W,2.033,281.88,180924,,,A*75
$GPVTG,281.88,T,,M,2.033,N,3.765,K,A*33
$GPGGA,182231.00,4506.11109,N,06839.66431,W,1,07,1.28,36.1,M,-29.0,M,,*56
$GPGSA,A,3,24,12,25,23,10,28,32,,,,,,2.58,1.28,2.24*0B
$GPGSV,3,1,12,02,08,329,,10,79,276,37,12,31,104,31,15,04,094,*79
$GPGSV,3,2,12,21,17,314,18,23,53,149,41,24,36,055,32,25,24,145,30*7F
$GPGSV,3,3,12,28,24,221,38,32,54,290,41,46,12,248,,48,15,245,*76
$GPGLL,4506.11109,N,06839.66431,W,182231.00,A,A*7D
$RDENS,7580,5174962,PC
$GPRMC,182232.00,A,4506.11122,N,06839.66510,W,2.082,282.55,180924,,,A*74
$GPVTG,282.55,T,,M,2.082,N,3.856,K,A*35
$GPGGA,182232.00,4506.11122,N,06839.66510,W,1,07,1.28,36.1,M,-29.0,M,,*5E
$GPGSA,A,3,24,12,25,23,10,28,32,,,,,,2.58,1.28,2.24*0B
$GPGSV,3,1,12,02,08,329,,10,79,276,38,12,31,104,30,15,04,094,*77
$GPGSV,3,2,12,21,17,314,20,23,53,149,41,24,36,055,32,25,24,145,30*74
$GPGSV,3,3,12,28,24,221,38,32,54,290,41,46,12,248,,48,15,245,*76
$GPGLL,4506.11122,N,06839.66510,W,182232.00,A,A*75
$RDENS,7581,5175040,PC
$RDENS,7582,5175119,PC
$GPRMC,182233.00,A,4506.11134,N,06839.66591,W,2.068,280.75,180924,,,A*7F
$GPVTG,280.75,T,,M,2.068,N,3.830,K,A*31
$GPGGA,182233.00,4506.11134,N,06839.66591,W,1,07,1.28,36.2,M,-29.0,M,,*52
$GPGSA,A,3,24,12,25,23,10,28,32,,,,,,2.58,1.28,2.24*0B
$GPGSV,3,1,12,02,08,329,,10,79,276,38,12,31,104,30,15,04,094,*77
$GPGSV,3,2,12,21,17,314,20,23,53,149,41,24,36,055,31,25,24,145,31*76
$GPGSV,3,3,12,28,24,221,39,32,54,290,42,46,12,248,,48,15,245,*74
$GPGLL,4506.11134,N,06839.66591,W,182233.00,A,A*7A
$RDENS,7583,5175197,PC
$GPRMC,182234.00,A,4506.11146,N,06839.66671,W,2.095,280.30,180924,,,A*73
$GPVTG,280.30,T,,M,2.095,N,3.879,K,A*3F
$GPGGA,182234.00,4506.11146,N,06839.66671,W,1,07,1.28,36.2,M,-29.0,M,,*5D
$GPGSA,A,3,24,12,25,23,10,28,32,,,,,,2.58,1.28,2.24*0B
$GPGSV,3,1,12,02,08,329,,10,79,276,38,12,31,104,33,15,04,094,*74
$GPGSV,3,2,12,21,17,314,18,23,53,149,41,24,36,055,31,25,24,145,31*7D
$GPGSV,3,3,12,28,24,221,38,32,54,290,41,46,12,248,,48,15,245,*76
$GPGLL,4506.11146,N,06839.66671,W,182234.00,A,A*75
$RDENS,7584,5175276,PC
$GPRMC,182235.00,A,4506.11160,N,06839.66749,W,2.102,281.28,180924,,,A*7B
$GPVTG,281.28,T,,M,2.102,N,3.894,K,A*3B
$GPGGA,182235.00,4506.11160,N,06839.66749,W,1,08,0.97,36.2,M,-29.0,M,,*58
$GPGSA,A,3,24,12,25,21,23,10,28,32,,,,,1.85,0.97,1.58*06
$GPGSV,3,1,12,02,08,329,,10,79,276,38,12,31,104,32,15,04,094,*75
$GPGSV,3,2,12,21,17,314,15,23,53,149,40,24,36,055,31,25,24,145,30*70
$GPGSV,3,3,12,28,24,221,38,32,54,290,41,46,12,248,,48,15,245,*76
$GPGLL,4506.11160,N,06839.66749,W,182235.00,A,A*7A
$RDENS,7585,5175355,PC
$GPRMC,182236.00,A,4506.11168,N,06839.66828,W,2.024,281.28,180924,,,A*7D
$GPVTG,281.28,T,,M,2.024,N,3.748,K,A*30
$GPGGA,182236.00,4506.11168,N,06839.66828,W,1,08,0.97,36.3,M,-29.0,M,,*5A
$GPGSA,A,3,24,12,25,21,23,10,28,32,,,,,1.85,0.97,1.58*06
$GPGSV,3,1,12,02,08,329,,10,79,276,38,12,31,104,26,15,04,094,*70
$GPGSV,3,2,12,21,17,314,14,23,53,149,40,24,36,055,30,25,24,145,29*78
$GPGSV,3,3,12,28,24,221,38,32,54,290,41,46,12,248,,48,15,245,*76
$GPGLL,4506.11168,N,06839.66828,W,182236.00,A,A*79
$RDENS,7586,5175433,PC
$RDENS,7587,5175511,PC
$GPRMC,182237.00,A,4506.11179,N,06839.66904,W,1.989,281.20,180924,,,A*76
$GPVTG,281.20,T,,M,1.989,N,3.684,K,A*34
$GPGGA,182237.00,4506.11179,N,06839.66904,W,1,08,0.97,36.3,M,-29.0,M,,*54
$GPGSA,A,3,24,12,25,21,23,10,28,32,,,,,1.85,0.97,1.58*06
$GPGSV,3,1,12,02,08,329,,10,79,276,36,12,31,104,31,15,04,094,*78
$GPGSV,3,2,12,21,17,314,14,23,53,149,40,24,36,055,29,25,24,145,26*7F
$GPGSV,3,3,12,28,24,221,39,32,54,290,40,46,12,248,,48,15,245,*76
$GPGLL,4506.11179,N,06839.66904,W,182237.00,A,A*77
$RDENS,7588,5175590,PC
$GPRMC,182238.00,A,4506.11191,N,06839.66977,W,1.879,280.09,180924,,,A*7F
$GPVTG,280.09,T,,M,1.879,N,3.479,K,A*30
$GPGGA,182238.00,4506.11191,N,06839.66977,W,1,08,0.97,36.4,M,-29.0,M,,*5E
$GPGSA,A,3,24,12,25,21,23,10,28,32,,,,,1.85,0.97,1.58*06
$GPGSV,3,1,12,02,08,329,,10,79,274,38,12,31,104,33,15,04,094,*76
$GPGSV,3,2,12,21,17,314,18,23,53,149,40,24,36,055,29,25,24,145,25*70
$GPGSV,3,3,12,28,24,221,39,32,54,290,42,46,12,248,,48,15,245,*74
$GPGLL,4506.11191,N,06839.66977,W,182238.00,A,A*7A
$RDENS,7589,5175669,PC
$GPRMC,182239.00,A,4506.11204,N,06839.67049,W,1.880,281.11,180924,,,A*7A
$GPVTG,281.11,T,,M,1.880,N,3.482,K,A*3A
$GPGGA,182239.00,4506.11204,N,06839.67049,W,1,08,0.97,36.4,M,-29.0,M,,*55
$GPGSA,A,3,24,12,25,21,23,10,28,32,,,,,1.85,0.97,1.58*06
$GPGSV,3,1,12,02,08,329,,10,79,274,38,12,31,104,36,15,04,094,*73
$GPGSV,3,2,12,21,17,314,21,23,53,149,41,24,36,055,29,25,24,145,22*7C
$GPGSV,3,3,12,28,24,221,40,32,54,290,42,46,12,248,,48,15,245,*7A
$GPGLL,4506.11204,N,06839.67049,W,182239.00,A,A*71
$RDENS,7590,5175748,PC
$GPRMC,182240.00,A,4506.11218,N,06839.67117,W,1.790,281.81,180924,,,A*74
$GPVTG,281.81,T,,M,1.790,N,3.315,K,A*34
$GPGGA,182240.00,4506.11218,N,06839.67117,W,1,08,0.97,36.4,M,-29.0,M,,*5C
$GPGSA,A,3,24,12,25,21,23,10,28,32,,,,,1.85,0.97,1.58*06
$GPGSV,3,1,12,02,08,329,,10,79,274,39,12,31,104,36,15,04,094,*72
$GPGSV,3,2,12,21,17,314,22,23,53,149,40,24,36,055,30,25,24,145,21*75
$GPGSV,3,3,12,28,24,221,40,32,54,290,42,46,12,248,,48,15,245,*7A
$GPGLL,4506.11218,N,06839.67117,W,182240.00,A,A*78
$RDENS,7591,5175827,PC
$RDENS,7592,5175905,PC
$GPRMC,182241.00,A,4506.11229,N,06839.67187,W,1.857,281.85,180924,,,A*7E
$GPVTG,281.85,T,,M,1.857,N,3.439,K,A*3D
$GPGGA,182241.00,4506.11229,N,06839.67187,W,1,08,0.97,36.5,M,-29.0,M,,*57
$GPGSA,A,3,24,12,25,21,23,10,28,32,,,,,1.85,0.97,1.58*06
$GPGSV,3,1,12,02,08,329,,10,79,274,39,12,31,104,36,15,04,094,*72
$GPGSV,3,2,12,21,17,314,23,23,53,149,40,24,36,055,30,25,24,145,20*75
$GPGSV,3,3,12,28,24,221,40,32,54,290,43,46,12,248,,48,15,245,*7B
$GPGLL,4506.11229,N,06839.67187,W,182241.00,A,A*72
$RDENS,7593,5175984,PC
$GPRMC,182242.00,A,4506.11241,N,06839.67258,W,1.873,283.50,180924,,,A*7E
$GPVTG,283.50,T,,M,1.873,N,3.469,K,A*34
$GPGGA,182242.00,4506.11241,N,06839.67258,W,1,08,0.97,36.6,M,-29.0,M,,*58
$GPGSA,A,3,24,12,25,21,23,10,28,32,,,,,1.85,0.97,1.58*06
$GPGSV,3,1,12,02,08,329,,10,79,274,38,12,31,104,37,15,04,094,*72
$GPGSV,3,2,12,21,17,314,23,23,53,149,39,24,36,055,29,25,24,145,21*72
$GPGSV,3,3,12,28,24,221,39,32,54,290,42,46,12,248,,48,15,245,*74
$GPGLL,4506.11241,N,06839.67258,W,182242.00,A,A*7E
$RDENS,7594,5176062,PC
$GPRMC,182243.00,A,4506.11256,N,06839.67328,W,1.874,286.15,180924,,,A*7C
$GPVTG,286.15,T,,M,1.874,N,3.471,K,A*3E
$GPGGA,182243.00,4506.11256,N,06839.67328,W,1,08,0.97,36.6,M,-29.0,M,,*59
$GPGSA,A,3,24,12,25,21,23,10,28,32,,,,,1.85,0.97,1.58*06
$GPGSV,3,1,12,02,08,329,,10,79,274,40,12,31,104,37,15,03,095,*7B
$GPGSV,3,2,12,21,17,314,24,23,53,149,41,24,36,055,29,25,24,145,20*7B
$GPGSV,3,3,12,28,24,221,39,32,54,290,41,46,12,248,,48,15,245,*77
$GPGLL,4506.11256,N,06839.67328,W,182243.00,A,A*7F
$RDENS,7595,5176141,PC
$RDENS,7596,5176220,PC
$GPRMC,182244.00,A,4506.11271,N,06839.67396,W,1.841,286.80,180924,,,A*71
$GPVTG,286.80,T,,M,1.841,N,3.410,K,A*33
$GPGGA,182244.00,4506.11271,N,06839.67396,W,1,08,0.97,36.5,M,-29.0,M,,*5D
$GPGSA,A,3,24,12,25,21,23,10,28,32,,,,,1.85,0.97,1.58*06
$GPGSV,3,1,12,02,08,329,,10,79,274,38,12,31,104,37,15,03,095,*74
$GPGSV,3,2,12,21,17,314,24,23,53,149,40,24,36,055,29,25,24,145,18*71
$GPGSV,3,3,12,28,24,221,39,32,54,290,41,46,12,248,,48,15,245,*77
$GPGLL,4506.11271,N,06839.67396,W,182244.00,A,A*78
$RDENS,7597,5176299,PC
$GPRMC,182245.00,A,4506.11285,N,06839.67464,W,1.834,284.83,180924,,,A*72
$GPVTG,284.83,T,,M,1.834,N,3.396,K,A*39
$GPGGA,182245.00,4506.11285,N,06839.67464,W,1,07,1.06,36.5,M,-29.0,M,,*5B
$GPGSA,A,3,24,12,21,23,10,28,32,,,,,,2.00,1.06,1.70*0C
$GPGSV,3,1,12,02,08,329,,10,79,274,38,12,31,104,36,15,03,095,*75
$GPGSV,3,2,12,21,17,314,23,23,53,149,40,24,36,055,29,25,24,145,*7F
$GPGSV,3,3,12,28,24,221,40,32,54,290,41,46,12,248,,48,15,245,*79
$GPGLL,4506.11285,N,06839.67464,W,182245.00,A,A*78
$RDENS,7598,5176377,PC
$GPRMC,182246.00,A,4506.11298,N,06839.67533,W,1.842,283.90,180924,,,A*7A
$GPVTG,283.90,T,,M,1.842,N,3.411,K,A*35
$GPGGA,182246.00,4506.11298,N,06839.67533,W,1,07,1.06,36.4,M,-29.0,M,,*56
$GPGSA,A,3,24,12,21,23,10,28,32,,,,,,2.01,1.06,1.70*0D
$GPGSV,3,1,12,02,08,329,,10,79,274,39,12,31,104,36,15,03,095,*74
$GPGSV,3,2,12,21,17,314,22,23,53,149,40,24,36,055,29,25,24,145,22*7E
$GPGSV,3,3,12,28,24,221,40,32,54,290,41,46,12,248,,48,15,245,*79
$GPGLL,4506.11298,N,06839.67533,W,182246.00,A,A*74
$RDENS,7599,5176455,PC
$GPRMC,182247.00,A,4506.11311,N,06839.67603,W,1.846,283.85,180924,,,A*7B
$GPVTG,283.85,T,,M,1.846,N,3.418,K,A*3C
$GPGGA,182247.00,4506.11311,N,06839.67603,W,1,07,1.06,36.4,M,-29.0,M,,*57
$GPGSA,A,3,24,12,21,23,10,28,32,,,,,,2.01,1.06,1.70*0D
$GPGSV,3,1,12,02,08,329,,10,79,274,40,12,31,104,35,15,03,095,*79
$GPGSV,3,2,12,21,17,314,23,23,53,149,41,24,36,055,30,25,24,145,23*77
$GPGSV,3,3,12,28,24,221,40,32,54,290,41,46,12,248,,48,15,245,*79
$GPGLL,4506.11311,N,06839.67603,W,182247.00,A,A*75
$RDENS,7600,5176535,PC
$RDENS,7601,5176613,PC
$GPRMC,182248.00,A,4506.11323,N,06839.67672,W,1.837,283.86,180924,,,A*76
$GPVTG,283.86,T,,M,1.837,N,3.401,K,A*31
$GPGGA,182248.00,4506.11323,N,06839.67672,W,1,08,0.97,36.4,M,-29.0,M,,*59
$GPGSA,A,3,24,12,25,21,23,10,28,32,,,,,1.85,0.97,1.58*06
$GPGSV,3,1,12,02,08,329,,10,79,274,38,12,31,104,35,15,03,095,*76
$GPGSV,3,2,12,21,17,314,21,23,53,149,41,24,36,055,29,25,24,145,22*7C
$GPGSV,3,3,12,28,24,221,40,32,54,290,41,46,12,248,,48,15,245,*79
$GPGLL,4506.11323,N,06839.67672,W,182248.00,A,A*7D
$RDENS,7602,5176692,PC
$GPRMC,182249.00,A,4506.11336,N,06839.67739,W,1.778,283.63,180924,,,A*72
$GPVTG,283.63,T,,M,1.778,N,3.292,K,A*32
$GPGGA,182249.00,4506.11336,N,06839.67739,W,1,08,0.97,36.4,M,-29.0,M,,*52
$GPGSA,A,3,24,12,25,21,23,10,28,32,,,,,1.85,0.97,1.58*06
$GPGSV,3,1,12,02,08,329,,10,79,274,39,12,31,104,34,15,03,095,*76
$GPGSV,3,2,12,21,17,314,21,23,53,149,40,24,36,055,29,25,24,145,25*7A
$GPGSV,3,3,12,28,24,221,39,32,54,290,42,46,12,248,,48,15,245,*74
$GPGLL,4506.11336,N,06839.67739,W,182249.00,A,A*76
$RDENS,7603,5176770,PC
$GPRMC,182250.00,A,4506.11345,N,06839.67807,W,1.839,283.30,180924,,,A*70
$GPVTG,283.30,T,,M,1.839,N,3.406,K,A*35
$GPGGA,182250.00,4506.11345,N,06839.67807,W,1,08,0.97,36.4,M,-29.0,M,,*5C
$GPGSA,A,3,24,12,25,21,23,10,28,32,,,,,1.85,0.97,1.58*06
$GPGSV,3,1,12,02,08,329,,10,79,274,38,12,31,104,34,15,03,095,*77
$GPGSV,3,2,12,21,17,314,21,23,53,149,40,24,36,055,29,25,24,145,25*7A
$GPGSV,3,3,12,28,24,221,40,32,54,290,42,46,12,248,,48,15,245,*7A
$GPGLL,4506.11345,N,06839.67807,W,182250.00,A,A*78
$RDENS,7604,5176849,PC
$GPRMC,182251.00,A,4506.11354,N,06839.67874,W,1.764,282.97,180924,,,A*7E
$GPVTG,282.97,T,,M,1.764,N,3.267,K,A*3F
$GPGGA,182251.00,4506.11354,N,06839.67874,W,1,08,0.97,36.5,M,-29.0,M,,*58
$GPGSA,A,3,24,12,25,21,23,10,28,32,,,,,1.85,0.97,1.58*06
$GPGSV,3,1,12,02,08,329,,10,79,274,37,12,31,104,34,15,03,095,*78
$GPGSV,3,2,12,21,17,314,21,23,53,149,40,24,36,055,29,25,24,145,24*7B
$GPGSV,3,3,12,28,24,221,39,32,54,290,41,46,12,248,,48,15,245,*77
$GPGLL,4506.11354,N,06839.67874,W,182251.00,A,A*7D
$RDENS,7605,5176928,PC
$RDENS,7606,5177007,PC
$GPRMC,182252.00,A,4506.11363,N,06839.67942,W,1.795,283.04,180924,,,A*78
$GPVTG,283.04,T,,M,1.795,N,3.325,K,A*3D
$GPGGA,182252.00,4506.11363,N,06839.67942,W,1,08,0.97,36.6,M,-29.0,M,,*58
$GPGSA,A,3,24,12,25,21,23,10,28,32,,,,,1.85,0.97,1.58*06
$GPGSV,3,1,12,02,08,329,,10,79,274,39,12,31,104,34,15,03,095,*76
$GPGSV,3,2,12,21,17,314,22,23,53,149,39,24,36,054,28,25,24,145,25*77
$GPGSV,3,3,12,28,24,221,39,32,54,290,42,46,12,248,,48,15,245,*74
$GPGLL,4506.11363,N,06839.67942,W,182252.00,A,A*7E
$RDENS,7607,5177085,PC
$GPRMC,182253.00,A,4506.11374,N,06839.68013,W,1.929,283.79,180924,,,A*7E
$GPVTG,283.79,T,,M,1.929,N,3.573,K,A*3B
$GPGGA,182253.00,4506.11374,N,06839.68013,W,1,08,0.97,36.7,M,-29.0,M,,*5C
$GPGSA,A,3,24,12,25,21,23,10,28,32,,,,,1.85,0.97,1.58*06
$GPGSV,3,1,12,02,08,329,,10,79,274,39,12,31,104,35,15,03,095,*77
$GPGSV,3,2,12,21,17,314,23,23,53,149,40,24,36,054,28,25,24,145,25*78
$GPGSV,3,3,12,28,24,221,39,32,54,290,42,46,12,248,,48,15,245,*74
$GPGLL,4506.11374,N,06839.68013,W,182253.00,A,A*7B
$RDENS,7608,5177164,PC
$GPRMC,182254.00,A,4506.11389,N,06839.68085,W,1.964,284.05,180924,,,A*71
$GPVTG,284.05,T,,M,1.964,N,3.637,K,A*3D
$GPGGA,182254.00,4506.11389,N,06839.68085,W,1,08,0.97,36.8,M,-29.0,M,,*59
$GPGSA,A,3,24,12,25,21,23,10,28,32,,,,,1.85,0.97,1.58*06
$GPGSV,3,1,12,02,08,329,,10,79,274,39,12,31,104,35,15,03,095,*77
$GPGSV,3,2,12,21,17,314,23,23,53,149,41,24,36,054,30,25,24,145,25*70
$GPGSV,3,3,12,28,24,221,39,32,54,290,42,46,12,248,,48,15,245,*74
$GPGLL,4506.11389,N,06839.68085,W,182254.00,A,A*71
$RDENS,7609,5177242,PC
$RDENS,7610,5177322,PC
$GPRMC,182255.00,A,4506.11405,N,06839.68162,W,2.095,285.05,180924,,,A*7E
$GPVTG,285.05,T,,M,2.095,N,3.879,K,A*3C
$GPGGA,182255.00,4506.11405,N,06839.68162,W,1,08,0.97,36.8,M,-29.0,M,,*53
$GPGSA,A,3,24,12,25,21,23,10,28,32,,,,,1.85,0.97,1.58*06
$GPGSV,3,1,12,02,08,329,,10,79,274,39,12,31,104,35,15,03,095,*77
$GPGSV,3,2,12,21,17,314,23,23,53,149,39,24,36,054,31,25,24,145,23*78
$GPGSV,3,3,12,28,24,221,39,32,54,290,42,46,12,248,,48,15,245,*74
$GPGLL,4506.11405,N,06839.68162,W,182255.00,A,A*7B
$RDENS,7611,5177400,PC
$GPRMC,182256.00,A,4506.11424,N,06839.68241,W,2.100,286.55,180924,,,A*77
$GPVTG,286.55,T,,M,2.100,N,3.890,K,A*30
$GPGGA,182256.00,4506.11424,N,06839.68241,W,1,08,0.97,36.8,M,-29.0,M,,*51
$GPGSA,A,3,24,12,25,21,23,10,28,32,,,,,1.85,0.97,1.58*06
$GPGSV,3,1,12,02,08,329,,10,79,274,40,12,31,104,35,15,03,095,*79
$GPGSV,3,2,12,21,17,314,23,23,53,149,39,24,36,054,31,25,24,145,22*79
$GPGSV,3,3,12,28,24,221,40,32,54,290,42,46,12,248,,48,15,245,*7A
$GPGLL,4506.11424,N,06839.68241,W,182256.00,A,A*79
$RDENS,7612,5177479,PC
$GPRMC,182257.00,A,4506.11446,N,06839.68320,W,2.171,288.54,180924,,,A*7D
$GPVTG,288.54,T,,M,2.171,N,4.021,K,A*3C
$GPGGA,182257.00,4506.11446,N,06839.68320,W,1,08,0.97,36.7,M,-29.0,M,,*5D
$GPGSA,A,3,24,12,25,21,23,10,28,32,,,,,1.85,0.97,1.58*06
$GPGSV,3,1,12,02,08,329,,10,79,274,39,12,31,104,35,15,03,095,*77
$GPGSV,3,2,12,21,17,314,20,23,53,149,39,24,36,054,30,25,24,145,21*78
$GPGSV,3,3,12,28,24,221,41,32,54,290,42,46,12,248,,48,15,245,*7B
$GPGLL,4506.11446,N,06839.68320,W,182257.00,A,A*7A
$RDENS,7613,5177558,PC
$GPRMC,182258.00,A,4506.11472,N,06839.68398,W,2.144,289.58,180924,,,A*7D
$GPVTG,289.58,T,,M,2.144,N,3.970,K,A*3D
$GPGGA,182258.00,4506.11472,N,06839.68398,W,1,08,0.97,36.7,M,-29.0,M,,*56
$GPGSA,A,3,24,12,25,21,23,10,28,32,,,,,1.85,0.97,1.58*06
$GPGSV,3,1,12,02,08,329,,10,79,274,40,12,31,104,35,15,03,095,*79
$GPGSV,3,2,12,21,17,314,17,23,53,149,39,24,36,054,31,25,24,145,22*7E
$GPGSV,3,3,12,28,24,221,40,32,54,290,42,46,12,248,,48,15,245,*7A
$GPGLL,4506.11472,N,06839.68398,W,182258.00,A,A*71
$RDENS,7614,5177636,PC
$RDENS,7615,5177715,PC
$GPRMC,182259.00,A,4506.11498,N,06839.68476,W,2.172,290.55,180924,,,A*7F
$GPVTG,290.55,T,,M,2.172,N,4.023,K,A*35
$GPGGA,182259.00,4506.11498,N,06839.68476,W,1,08,0.97,36.6,M,-29.0,M,,*55
$GPGSA,A,3,24,12,25,21,23,10,28,32,,,,,1.85,0.97,1.58*06
$GPGSV,3,1,12,02,08,329,,10,79,274,40,12,31,104,35,15,03,095,*79
$GPGSV,3,2,12,21,17,314,14,23,53,149,39,24,36,054,31,25,24,145,23*7C
$GPGSV,3,3,12,28,24,221,40,32,54,290,42,46,12,248,,48,15,245,*7A
$GPGLL,4506.11498,N,06839.68476,W,182259.00,A,A*73
$RDENS,7616,5177794,PC
$GPRMC,182300.00,A,4506.11526,N,06839.68555,W,2.187,292.50,180924,,,A*7B
$GPVTG,292.50,T,,M,2.187,N,4.050,K,A*3C
$GPGGA,182300.00,4506.11526,N,06839.68555,W,1,08,0.97,36.7,M,-29.0,M,,*5D
$GPGSA,A,3,24,12,25,21,23,10,28,32,,,,,1.85,0.97,1.58*06
$GPGSV,3,1,12,02,08,329,,10,79,274,40,12,31,104,35,15,03,095,*79
$GPGSV,3,2,12,21,17,314,10,23,53,149,40,24,36,054,32,25,24,145,25*73
$GPGSV,3,3,12,28,24,221,40,32,54,290,43,46,12,248,,48,15,245,*7B
$GPGLL,4506.11526,N,06839.68555,W,182300.00,A,A*7A
$RDENS,7617,5177873,PC
$GPRMC,182301.00,A,4506.11553,N,06839.68634,W,2.210,294.29,180924,,,A*79
$GPVTG,294.29,T,,M,2.210,N,4.094,K,A*31
$GPGGA,182301.00,4506.11553,N,06839.68634,W,1,07,1.27,36.7,M,-29.0,M,,*5F
$GPGSA,A,3,24,12,25,23,10,28,32,,,,,,2.58,1.27,2.24*04
$GPGSV,3,1,12,02,08,329,,10,79,274,40,12,31,104,35,15,03,095,*79
$GPGSV,3,2,12,21,17,314,08,23,53,149,39,24,36,054,32,25,24,145,25*74
$GPGSV,3,3,12,28,24,221,40,32,54,290,42,46,12,248,,48,15,245,*7A
$GPGLL,4506.11553,N,06839.68634,W,182301.00,A,A*7D
$RDENS,7618,5177951,PC
$GPRMC,182302.00,A,4506.11581,N,06839.68714,W,2.233,294.09,180924,,,A*75
$GPVTG,294.09,T,,M,2.233,N,4.136,K,A*3B
$GPGGA,182302.00,4506.11581,N,06839.68714,W,1,07,1.27,36.7,M,-29.0,M,,*50
$GPGSA,A,3,24,12,25,23,10,28,32,,,,,,2.58,1.27,2.24*04
$GPGSV,3,1,12,02,08,329,,10,79,274,39,12,31,104,35,15,03,095,*77
$GPGSV,3,2,12,21,17,314,08,23,53,149,39,24,36,054,31,25,24,145,25*77
$GPGSV,3,3,12,28,24,221,40,32,54,290,42,46,12,248,,48,15,245,*7A
$GPGLL,4506.11581,N,06839.68714,W,182302.00,A,A*72
$RDENS,7619,5178031,PC
$RDENS,7620,5178109,PC
$GPRMC,182303.00,A,4506.11608,N,06839.68794,W,2.224,292.87,180924,,,A*78
$GPVTG,292.87,T,,M,2.224,N,4.118,K,A*31
$GPGGA,182303.00,4506.11608,N,06839.68794,W,1,07,1.27,36.6,M,-29.0,M,,*5A
$GPGSA,A,3,24,12,25,23,10,28,32,,,,,,2.58,1.27,2.24*04
$GPGSV,3,1,12,02,08,329,,10,79,274,41,12,31,104,35,15,03,095,*78
$GPGSV,3,2,12,21,17,314,08,23,53,149,39,24,36,054,30,25,24,145,24*77
$GPGSV,3,3,12,28,24,221,40,32,54,290,42,46,12,248,,48,15,245,*7A
$GPGLL,4506.11608,N,06839.68794,W,182303.00,A,A*79
$RDENS,7621,5178188,PC
$GPRMC,182304.00,A,4506.11633,N,06839.68873,W,2.142,292.34,180924,,,A*7A
$GPVTG,292.34,T,,M,2.142,N,3.966,K,A*3C
$GPGGA,182304.00,4506.11633,N,06839.68873,W,1,07,1.27,36.5,M,-29.0,M,,*50
$GPGSA,A,3,24,12,25,23,10,28,32,,,,,,2.58,1.27,2.24*04
$GPGSV,3,1,12,02,08,329,,10,79,274,40,12,31,104,32,15,03,095,*7E
$GPGSV,3,2,12,21,17,314,08,23,53,149,40,24,36,054,31,25,24,145,22*7E
$GPGSV,3,3,12,28,24,221,40,32,54,290,40,46,12,248,,48,15,245,*78
$GPGLL,4506.11633,N,06839.68873,W,182304.00,A,A*70
$RDENS,7622,5178267,PC
$GPRMC,182305.00,A,4506.11654,N,06839.68952,W,2.148,291.43,180924,,,A*71
$GPVTG,291.43,T,,M,2.148,N,3.978,K,A*3A
$GPGGA,182305.00,4506.11654,N,06839.68952,W,1,07,1.27,36.6,M,-29.0,M,,*51
$GPGSA,A,3,24,12,25,23,10,28,32,,,,,,2.58,1.27,2.24*04
$GPGSV,3,1,12,02,08,329,,10,79,274,39,12,31,104,30,15,03,095,*72
$GPGSV,3,2,12,21,17,314,08,23,53,149,40,24,36,054,29,25,24,145,20*75
$GPGSV,3,3,12,28,24,221,40,32,54,290,42,46,12,248,,48,15,245,*7A
$GPGLL,4506.11654,N,06839.68952,W,182305.00,A,A*72
$RDENS,7623,5178345,PC
$GPRMC,182306.00,A,4506.11676,N,06839.69030,W,2.120,290.04,180924,,,A*72
$GPVTG,290.04,T,,M,2.120,N,3.927,K,A*3C
$GPGGA,182306.00,4506.11676,N,06839.69030,W,1,08,0.97,36.6,M,-29.0,M,,*5B
$GPGSA,A,3,24,12,25,21,23,10,28,32,,,,,1.86,0.97,1.58*05
$GPGSV,3,1,12,02,08,329,,10,79,274,36,12,31,104,31,15,03,095,*7C
$GPGSV,3,2,12,21,17,314,14,23,53,149,40,24,36,054,29,25,24,145,25*7D
$GPGSV,3,3,12,28,24,221,38,32,54,290,41,46,12,248,,48,15,245,*76
$GPGLL,4506.11676,N,06839.69030,W,182306.00,A,A*7D
$RDENS,7624,5178424,PC
$RDENS,7625,5178503,PC
$GPRMC,182307.00,A,4506.11693,N,06839.69107,W,2.109,288.10,180924,,,A*7A
$GPVTG,288.10,T,,M,2.109,N,3.906,K,A*38
$GPGGA,182307.00,4506.11693,N,06839.69107,W,1,08,0.97,36.6,M,-29.0,M,,*54
$GPGSA,A,3,24,12,25,21,23,10,28,32,,,,,1.86,0.97,1.58*05
$GPGSV,3,1,12,02,08,329,,10,79,274,38,12,31,104,31,15,03,095,*72
$GPGSV,3,2,12,21,17,314,16,23,53,149,40,24,36,054,28,25,24,145,26*7D
$GPGSV,3,3,12,28,24,221,38,32,54,290,41,46,12,248,,48,15,245,*76
$GPGLL,4506.11693,N,06839.69107,W,182307.00,A,A*72
$RDENS,7626,5178581,PC
$GPRMC,182308.00,A,4506.11708,N,06839.69187,W,2.124,285.72,180924,,,A*78
$GPVTG,285.72,T,,M,2.124,N,3.934,K,A*3F
$GPGGA,182308.00,4506.11708,N,06839.69187,W,1,08,0.97,36.7,M,-29.0,M,,*51
$GPGSA,A,3,24,12,25,21,23,10,28,32,,,,,1.86,0.97,1.58*05
$GPGSV,3,1,12,02,08,329,,10,79,274,38,12,31,104,31,15,03,095,*72
$GPGSV,3,2,12,21,17,314,17,23,53,149,40,24,36,054,27,25,24,145,28*7D
$GPGSV,3,3,12,28,24,221,38,32,54,290,41,46,12,248,,48,15,245,*76
$GPGLL,4506.11708,N,06839.69187,W,182308.00,A,A*76
$RDENS,7627,5178660,PC
$GPRMC,182309.00,A,4506.11726,N,06839.69266,W,2.065,286.23,180924,,,A*7A
$GPVTG,286.23,T,,M,2.065,N,3.825,K,A*3D
$GPGGA,182309.00,4506.11726,N,06839.69266,W,1,08,0.97,36.7,M,-29.0,M,,*50
$GPGSA,A,3,24,12,25,21,23,10,28,32,,,,,1.86,0.97,1.58*05
$GPGSV,3,1,12,02,08,329,,10,79,274,39,12,31,104,32,15,03,095,*70
$GPGSV,3,2,12,21,17,314,16,23,53,149,41,24,36,054,28,25,24,145,30*7B
$GPGSV,3,3,12,28,24,221,38,32,54,290,40,46,12,248,,48,15,245,*77
$GPGLL,4506.11726,N,06839.69266,W,182309.00,A,A*77
$RDENS,7628,5178739,PC
$RDENS,7629,5178817,PC
$GPRMC,182310.00,A,4506.11744,N,06839.69344,W,2.081,285.93,180924,,,A*75
$GPVTG,285.93,T,,M,2.081,N,3.854,K,A*39
$GPGGA,182310.00,4506.11744,N,06839.69344,W,1,08,0.97,36.7,M,-29.0,M,,*5D
$GPGSA,A,3,24,12,25,21,23,10,28,32,,,,,1.86,0.97,1.58*05
$GPGSV,3,1,12,02,08,329,,10,79,274,39,12,31,104,32,15,03,095,*70
$GPGSV,3,2,12,21,17,314,15,23,53,149,41,24,36,054,27,25,24,145,31*76
$GPGSV,3,3,12,28,24,221,38,32,54,290,41,46,12,248,,48,15,245,*76
$GPGLL,4506.11744,N,06839.69344,W,182310.00,A,A*7A
$RDENS,7630,5178896,PC
$GPRMC,182311.00,A,4506.11761,N,06839.69424,W,2.102,285.03,180924,,,A*71
$GPVTG,285.03,T,,M,2.102,N,3.892,K,A*30
$GPGGA,182311.00,4506.11761,N,06839.69424,W,1,08,0.97,36.7,M,-29.0,M,,*5A
$GPGSA,A,3,24,12,25,21,23,10,28,32,,,,,1.86,0.97,1.58*05
$GPGSV,3,1,12,02,08,329,,10,79,274,39,12,31,104,31,15,03,095,*73
$GPGSV,3,2,12,21,17,314,15,23,53,149,41,24,36,054,26,25,24,145,31*77
$GPGSV,3,3,12,28,24,221,39,32,54,290,42,46,12,248,,48,15,245,*74
$GPGLL,4506.11761,N,06839.69424,W,182311.00,A,A*7D
$RDENS,7631,5178975,PC
$GPRMC,182312.00,A,4506.11776,N,06839.69501,W,2.044,284.95,180924,,,A*7F
$GPVTG,284.95,T,,M,2.044,N,3.785,K,A*34
$GPGGA,182312.00,4506.11776,N,06839.69501,W,1,08,0.97,36.7,M,-29.0,M,,*59
$GPGSA,A,3,24,12,25,21,23,10,28,32,,,,,1.86,0.97,1.58*05
$GPGSV,3,1,12,02,08,329,,10,79,274,39,12,31,104,30,15,03,095,*72
$GPGSV,3,2,12,21,17,314,18,23,53,149,41,24,36,054,25,25,24,145,30*78
$GPGSV,3,3,12,28,24,221,39,32,54,290,41,46,12,248,,48,15,245,*77
$GPGLL,4506.11776,N,06839.69501,W,182312.00,A,A*7E
$RDENS,7632,5179054,PC
$GPRMC,182313.00,A,4506.11788,N,06839.69577,W,1.990,284.57,180924,,,A*73
$GPVTG,284.57,T,,M,1.990,N,3.685,K,A*38
$GPGGA,182313.00,4506.11788,N,06839.69577,W,1,08,0.97,36.8,M,-29.0,M,,*57
$GPGSA,A,3,24,12,25,21,23,10,28,32,,,,,1.86,0.97,1.58*05
$GPGSV,3,1,12,02,08,329,,10,79,274,39,12,31,104,31,15,03,095,*73
$GPGSV,3,2,12,21,17,314,23,23,53,149,40,24,36,054,25,25,24,145,20*70
$GPGSV,3,3,12,28,24,221,39,32,54,290,41,46,12,248,,48,15,245,*77
$GPGLL,4506.11788,N,06839.69577,W,182313.00,A,A*7F
$RDENS,7633,5179132,PC
$RDENS,7634,5179211,PC
$GPRMC,182314.00,A,4506.11802,N,06839.69651,W,1.976,285.49,180924,,,A*78
$GPVTG,285.49,T,,M,1.976,N,3.659,K,A*3F
$GPGGA,182314.00,4506.11802,N,06839.69651,W,1,08,0.97,36.8,M,-29.0,M,,*5A
$GPGSA,A,3,24,12,25,21,23,10,28,32,,,,,1.86,0.97,1.58*05
$GPGSV,3,1,12,02,08,329,,10,79,274,38,12,31,104,35,15,03,095,*76
$GPGSV,3,2,12,21,17,314,24,23,53,149,38,24,36,054,29,25,24,145,19*7E
