$GPRMC,181457.00,A,4506.13865,N,06839.55624,W,1.338,116.84,180924,,,D*78
$GPVTG,116.84,T,,M,1.338,N,2.478,K,D*32
$GPGGA,181457.00,4506.13865,N,06839.55624,W,2,09,0.91,40.0,M,-29.0,M,,0000*5A
$GPGSA,A,3,24,12,25,21,23,10,28,32,48,,,,1.68,0.91,1.41*07
$GPGSV,4,1,13,02,06,331,21,10,77,289,37,12,29,107,34,15,06,092,*7E
$GPGSV,4,2,13,18,00,183,,21,16,317,28,23,57,148,37,24,39,055,37*77
$GPGSV,4,3,13,25,21,147,13,28,21,220,27,32,51,287,33,46,12,248,32*72
$GPGSV,4,4,13,48,15,245,31*42
$GPGLL,4506.13865,N,06839.55624,W,181457.00,A,D*7A
$GPRMC,181458.00,A,4506.13848,N,06839.55584,W,1.288,120.14,180924,,,D*77
$GPVTG,120.14,T,,M,1.288,N,2.385,K,D*31
$GPGGA,181458.00,4506.13848,N,06839.55584,W,2,09,0.91,40.0,M,-29.0,M,,0000*53
$GPGSA,A,3,24,12,25,21,23,10,28,32,48,,,,1.68,0.91,1.41*07
$GPGSV,4,1,13,02,06,331,22,10,77,289,37,12,29,107,34,15,06,092,*7D
$GPGSV,4,2,13,18,00,183,,21,16,317,30,23,57,148,37,24,39,055,38*71
$GPGSV,4,3,13,25,21,147,12,28,21,220,28,32,51,287,32,46,12,248,31*7E
$GPGSV,4,4,13,48,15,245,31*42
$GPGLL,4506.13848,N,06839.55584,W,181458.00,A,D*73
$RDENS,7004,5129639,PC
$RDENS,7005,5129718,PC
$GPRMC,181459.00,A,4506.13827,N,06839.55545,W,1.252,123.95,180924,,,D*7F
$GPVTG,123.95,T,,M,1.252,N,2.319,K,D*39
$GPGGA,181459.00,4506.13827,N,06839.55545,W,2,09,0.91,40.1,M,-29.0,M,,0000*57
$GPGSA,A,3,24,12,25,21,23,10,28,32,48,,,,1.68,0.91,1.41*07
$GPGSV,4,1,13,02,06,331,25,10,77,289,38,12,29,107,35,15,06,092,*74
$GPGSV,4,2,13,18,00,183,,21,16,317,30,23,57,148,36,24,39,055,38*70
$GPGSV,4,3,13,25,21,147,11,28,21,220,28,32,51,287,31,46,12,248,32*7D
$GPGSV,4,4,13,48,15,245,33*40
$GPGLL,4506.13827,N,06839.55545,W,181459.00,A,D*76
$RDENS,7006,5129797,PC
$GPRMC,181500.00,A,4506.13809,N,06839.55507,W,1.139,125.46,180924,,,D*7E
$GPVTG,125.46,T,,M,1.139,N,2.109,K,D*3C
$GPGGA,181500.00,4506.13809,N,06839.55507,W,2,09,0.91,40.1,M,-29.0,M,,0000*50
$GPGSA,A,3,24,12,25,21,23,10,28,32,48,,,,1.68,0.91,1.41*07
$GPGSV,4,1,13,02,06,331,25,10,77,289,37,12,29,107,34,15,06,092,*7A
$GPGSV,4,2,13,18,00,183,,21,16,317,28,23,57,148,36,24,39,055,34*75
$GPGSV,4,3,13,25,21,147,11,28,21,220,30,32,51,287,31,46,12,248,34*72
$GPGSV,4,4,13,48,15,245,33*40
$GPGLL,4506.13809,N,06839.55507,W,181500.00,A,D*71
$RDENS,7007,5129875,PC
$GPRMC,181501.00,A,4506.13790,N,06839.55473,W,1.031,126.50,180924,,,D*7F
$GPVTG,126.50,T,,M,1.031,N,1.909,K,D*3A
$GPGGA,181501.00,4506.13790,N,06839.55473,W,2,09,0.91,40.1,M,-29.0,M,,0000*5C
$GPGSA,A,3,24,12,25,21,23,10,28,32,48,,,,1.68,0.91,1.41*07
$GPGSV,4,1,13,02,06,331,24,10,77,289,38,12,29,107,32,15,06,092,*72
$GPGSV,4,2,13,18,00,183,,21,16,317,27,23,57,148,36,24,39,055,35*7B
$GPGSV,4,3,13,25,21,147,11,28,21,220,33,32,51,287,30,46,12,248,34*70
$GPGSV,4,4,13,48,15,245,32*41
$GPGLL,4506.13790,N,06839.55473,W,181501.00,A,D*7D
$RDENS,7008,5129955,PC
$GPRMC,181502.00,A,4506.13773,N,06839.55443,W,0.921,126.42,180924,,,D*78
$GPVTG,126.42,T,,M,0.921,N,1.705,K,D*32
$GPGGA,181502.00,4506.13773,N,06839.55443,W,2,09,0.91,40.1,M,-29.0,M,,0000*51
$GPGSA,A,3,24,12,25,21,23,10,28,32,48,,,,1.68,0.91,1.41*07
$GPGSV,4,1,13,02,06,331,23,10,77,289,38,12,29,107,34,15,06,092,*73
$GPGSV,4,2,13,18,00,183,,21,16,317,26,23,57,148,36,24,39,055,32*7D
$GPGSV,4,3,13,25,21,147,11,28,21,220,28,32,51,287,30,46,12,248,33*7D
$GPGSV,4,4,13,48,15,245,33*40
$GPGLL,4506.13773,N,06839.55443,W,181502.00,A,D*70
$RDENS,7009,5130033,PC
$RDENS,7010,5130112,PC
$GPRMC,181503.00,A,4506.13754,N,06839.55413,W,0.938,130.72,180924,,,D*75
$GPVTG,130.72,T,,M,0.938,N,1.736,K,D*3E
$GPGGA,181503.00,4506.13754,N,06839.55413,W,2,09,0.91,40.2,M,-29.0,M,,0000*53
$GPGSA,A,3,24,12,25,21,23,10,28,32,48,,,,1.68,0.91,1.41*07
$GPGSV,4,1,13,02,06,331,25,10,77,289,37,12,29,107,34,15,06,092,*7A
$GPGSV,4,2,13,18,00,183,,21,16,317,27,23,57,148,35,24,39,055,30*7D
$GPGSV,4,3,13,25,21,147,11,28,21,220,34,32,51,287,29,46,12,248,33*78
$GPGSV,4,4,13,48,15,245,33*40
$GPGLL,4506.13754,N,06839.55413,W,181503.00,A,D*71
$RDENS,7011,5130190,PC
$GPRMC,181504.00,A,4506.13734,N,06839.55387,W,0.874,131.24,180924,,,D*75
$GPVTG,131.24,T,,M,0.874,N,1.618,K,D*38
$GPGGA,181504.00,4506.13734,N,06839.55387,W,2,09,0.91,40.2,M,-29.0,M,,0000*58
$GPGSA,A,3,24,12,25,21,23,10,28,32,48,,,,1.68,0.91,1.41*07
$GPGSV,4,1,13,02,06,331,25,10,77,289,37,12,29,107,34,15,06,092,*7A
$GPGSV,4,2,13,18,00,183,,21,16,317,27,23,57,148,34,24,39,055,31*7D
$GPGSV,4,3,13,25,21,147,13,28,21,220,34,32,51,287,28,46,12,248,33*7B
$GPGSV,4,4,13,48,15,245,32*41
$GPGLL,4506.13734,N,06839.55387,W,181504.00,A,D*7A
$RDENS,7012,5130269,PC
$GPRMC,181505.00,A,4506.13710,N,06839.55364,W,0.889,134.11,180924,,,D*7E
$GPVTG,134.11,T,,M,0.889,N,1.646,K,D*32
$GPGGA,181505.00,4506.13710,N,06839.55364,W,2,09,0.91,40.1,M,-29.0,M,,0000*51
$GPGSA,A,3,24,12,25,21,23,10,28,32,48,,,,1.68,0.91,1.41*07
$GPGSV,4,1,13,02,06,331,25,10,77,289,37,12,29,107,34,15,06,092,*7A
$GPGSV,4,2,13,18,00,183,,21,16,317,26,23,57,148,34,24,39,055,31*7C
$GPGSV,4,3,13,25,21,147,17,28,21,220,35,32,51,287,29,46,12,248,32*7E
$GPGSV,4,4,13,48,15,245,30*43
$GPGLL,4506.13710,N,06839.55364,W,181505.00,A,D*70
$RDENS,7013,5130348,PC
$GPRMC,181506.00,A,4506.13692,N,06839.55346,W,0.701,,180924,,,D*61
$GPVTG,,T,,M,0.701,N,1.298,K,D*22
$GPGGA,181506.00,4506.13692,N,06839.55346,W,2,09,0.91,40.1,M,-29.0,M,,0000*59
$GPGSA,A,3,24,12,25,21,23,10,28,32,48,,,,1.68,0.91,1.41*07
$GPGSV,4,1,13,02,06,331,22,10,77,289,37,12,29,107,34,15,06,092,*7D
$GPGSV,4,2,13,18,00,183,,21,16,317,22,23,57,148,35,24,39,055,34*7C
$GPGSV,4,3,13,25,21,147,15,28,21,220,34,32,51,287,30,46,12,248,31*76
$GPGSV,4,4,13,48,15,245,30*43
$GPGLL,4506.13692,N,06839.55346,W,181506.00,A,D*78
$RDENS,7014,5130426,PC
$RDENS,7015,5130505,PC
$GPRMC,181507.00,A,4506.13674,N,06839.55333,W,0.633,,180924,,,D*6A
$GPVTG,,T,,M,0.633,N,1.172,K,D*25
$GPGGA,181507.00,4506.13674,N,06839.55333,W,2,09,0.91,40.0,M,-29.0,M,,0000*53
$GPGSA,A,3,24,12,25,21,23,10,28,32,48,,,,1.68,0.91,1.41*07
$GPGSV,4,1,13,02,06,331,21,10,77,289,37,12,29,107,32,15,06,092,*78
$GPGSV,4,2,13,18,00,183,,21,16,317,19,23,57,148,35,24,39,055,35*75
$GPGSV,4,3,13,25,21,147,15,28,21,220,32,32,51,287,31,46,12,248,30*70
$GPGSV,4,4,13,48,15,245,28*4A
$GPGLL,4506.13674,N,06839.55333,W,181507.00,A,D*73
$RDENS,7016,5130583,PC
$GPRMC,181508.00,A,4506.13656,N,06839.55317,W,0.664,,180924,,,D*61
$GPVTG,,T,,M,0.664,N,1.230,K,D*22
$GPGGA,181508.00,4506.13656,N,06839.55317,W,2,08,0.97,40.0,M,-29.0,M,,0000*5D
$GPGSA,A,3,24,12,25,21,23,10,28,32,,,,,1.78,0.97,1.49*04
$GPGSV,4,1,13,02,06,331,20,10,77,289,37,12,29,107,31,15,06,092,*7A
$GPGSV,4,2,13,18,00,183,,21,16,317,15,23,57,148,35,24,39,055,35*79
$GPGSV,4,3,13,25,21,147,13,28,21,220,29,32,51,287,36,46,12,248,29*73
$GPGSV,4,4,13,48,15,245,*40
$GPGLL,4506.13656,N,06839.55317,W,181508.00,A,D*7A
$RDENS,7017,5130662,PC
$GPRMC,181509.00,A,4506.13638,N,06839.55297,W,0.605,,180924,,,D*66
$GPVTG,,T,,M,0.605,N,1.120,K,D*27
$GPGGA,181509.00,4506.13638,N,06839.55297,W,2,08,0.97,40.0,M,-29.0,M,,0000*5D
$GPGSA,A,3,24,12,25,21,23,10,28,32,,,,,1.78,0.97,1.49*04
$GPGSV,4,1,13,02,06,331,19,10,77,289,37,12,29,107,28,15,06,092,*78
$GPGSV,4,2,13,18,00,183,,21,16,317,20,23,57,148,37,24,39,055,35*7D
$GPGSV,4,3,13,25,21,147,13,28,21,220,30,32,51,287,38,46,12,248,27*7B
$GPGSV,4,4,13,48,15,245,*40
$GPGLL,4506.13638,N,06839.55297,W,181509.00,A,D*7A
$RDENS,7018,5130740,PC
$RDENS,7019,5130819,PC
$GPRMC,181510.00,A,4506.13622,N,06839.55279,W,0.567,,180924,,,D*62
$GPVTG,,T,,M,0.567,N,1.050,K,D*26
$GPGGA,181510.00,4506.13622,N,06839.55279,W,2,07,1.05,40.1,M,-29.0,M,,0000*5A
$GPGSA,A,3,24,12,21,23,10,28,32,,,,,,1.92,1.05,1.61*07
$GPGSV,4,1,13,02,06,331,21,10,77,289,37,12,29,107,28,15,06,092,*73
$GPGSV,4,2,13,18,00,183,,21,16,317,29,23,57,148,37,24,39,055,35*74
$GPGSV,4,3,13,25,21,147,12,28,21,220,29,32,51,287,39,46,12,248,*76
$GPGSV,4,4,13,48,15,245,*40
$GPGLL,4506.13622,N,06839.55279,W,181510.00,A,D*79
$RDENS,7020,5130898,PC
$GPRMC,181511.00,A,4506.13609,N,06839.55268,W,0.550,,180924,,,D*6E
$GPVTG,,T,,M,0.550,N,1.019,K,D*2F
$GPGGA,181511.00,4506.13609,N,06839.55268,W,2,07,1.05,40.2,M,-29.0,M,,0000*51
$GPGSA,A,3,24,12,21,23,10,28,32,,,,,,1.92,1.05,1.61*07
$GPGSV,4,1,13,02,06,331,22,10,77,289,34,12,29,107,30,15,06,092,*7A
$GPGSV,4,2,13,18,00,183,,21,16,317,29,23,57,148,39,24,39,055,35*7A
$GPGSV,4,3,13,25,21,147,12,28,21,220,32,32,51,287,39,46,12,248,*7C
$GPGSV,4,4,13,48,15,245,27*45
$GPGLL,4506.13609,N,06839.55268,W,181511.00,A,D*71
$RDENS,7021,5130977,PC
$GPRMC,181512.00,A,4506.13597,N,06839.55256,W,0.532,,180924,,,D*60
$GPVTG,,T,,M,0.532,N,0.986,K,D*25
$GPGGA,181512.00,4506.13597,N,06839.55256,W,2,08,1.05,40.2,M,-29.0,M,,0000*54
$GPGSA,A,3,24,12,21,23,10,28,32,48,,,,,1.92,1.05,1.61*0B
$GPGSV,4,1,13,02,06,331,20,10,77,289,35,12,29,107,30,15,06,092,*79
$GPGSV,4,2,13,18,00,183,,21,16,317,31,23,57,148,39,24,39,055,34*72
$GPGSV,4,3,13,25,21,147,12,28,21,220,33,32,51,287,40,46,12,248,*73
$GPGSV,4,4,13,48,15,245,27*45
$GPGLL,4506.13597,N,06839.55256,W,181512.00,A,D*7B
$RDENS,7022,5131055,PC
$GPRMC,181513.00,A,4506.13585,N,06839.55247,W,0.515,,180924,,,D*67
$GPVTG,,T,,M,0.515,N,0.954,K,D*2F
$GPGGA,181513.00,4506.13585,N,06839.55247,W,2,07,1.05,40.2,M,-29.0,M,,0000*59
$GPGSA,A,3,24,12,21,23,10,28,32,,,,,,1.92,1.05,1.61*07
$GPGSV,4,1,13,02,06,331,20,10,77,289,37,12,29,107,30,15,06,092,*7B
$GPGSV,4,2,13,18,00,183,,21,16,317,33,23,57,148,39,24,39,055,31*75
$GPGSV,4,3,13,25,21,147,12,28,21,220,31,32,51,287,40,46,12,248,*71
$GPGSV,4,4,13,48,15,245,*40
$GPGLL,4506.13585,N,06839.55247,W,181513.00,A,D*79
$RDENS,7023,5131134,PC
$RDENS,7024,5131213,PC
$GPRMC,181514.00,A,4506.13575,N,06839.55238,W,0.464,,180924,,,D*60
$GPVTG,,T,,M,0.464,N,0.860,K,D*2E
$GPGGA,181514.00,4506.13575,N,06839.55238,W,2,07,1.05,40.3,M,-29.0,M,,0000*58
$GPGSA,A,3,24,12,21,23,10,28,32,,,,,,1.92,1.05,1.61*07
$GPGSV,4,1,13,02,06,331,20,10,77,289,35,12,29,107,32,15,06,092,*7B
$GPGSV,4,2,13,18,00,183,,21,16,317,34,23,57,148,40,24,39,055,31*7C
$GPGSV,4,3,13,25,21,147,18,28,21,220,30,32,51,287,40,46,12,248,*7A
$GPGSV,4,4,13,48,15,245,27*45
$GPGLL,4506.13575,N,06839.55238,W,181514.00,A,D*79
$RDENS,7025,5131291,PC
$GPRMC,181515.00,A,4506.13566,N,06839.55224,W,0.436,,180924,,,D*69
$GPVTG,,T,,M,0.436,N,0.807,K,D*28
$GPGGA,181515.00,4506.13566,N,06839.55224,W,2,08,0.99,40.4,M,-29.0,M,,0000*5A
$GPGSA,A,3,24,12,21,23,10,28,32,48,,,,,1.79,0.99,1.49*00
$GPGSV,4,1,13,02,06,331,18,10,77,289,36,12,29,107,31,15,06,092,*70
$GPGSV,4,2,13,18,00,183,,21,16,317,32,23,57,148,40,24,39,055,32*79
$GPGSV,4,3,13,25,21,147,18,28,21,220,31,32,51,287,41,46,12,248,*7A
$GPGSV,4,4,13,48,15,245,28*4A
$GPGLL,4506.13566,N,06839.55224,W,181515.00,A,D*77
$RDENS,7026,5131370,PC
$GPRMC,181516.00,A,4506.13558,N,06839.55214,W,0.430,,180924,,,D*62
$GPVTG,,T,,M,0.430,N,0.796,K,D*29
$GPGGA,181516.00,4506.13558,N,06839.55214,W,2,09,0.91,40.3,M,-29.0,M,,0000*59
$GPGSA,A,3,24,12,25,21,23,10,28,32,48,,,,1.68,0.91,1.41*07
$GPGSV,4,1,13,02,06,331,16,10,77,289,34,12,29,107,29,15,06,092,*75
$GPGSV,4,2,13,18,00,183,,21,16,317,32,23,57,148,40,24,39,055,32*79
$GPGSV,4,3,13,25,21,147,18,28,21,220,34,32,51,287,41,46,12,248,*7F
$GPGSV,4,4,13,48,15,245,29*4B
$GPGLL,4506.13558,N,06839.55214,W,181516.00,A,D*7A
$RDENS,7027,5131449,PC
$GPRMC,181517.00,A,4506.13546,N,06839.55210,W,0.399,,180924,,,D*6C
$GPVTG,,T,,M,0.399,N,0.740,K,D*26
$GPGGA,181517.00,4506.13546,N,06839.55210,W,2,09,0.91,40.1,M,-29.0,M,,0000*51
$GPGSA,A,3,24,12,25,21,23,10,28,32,48,,,,1.68,0.91,1.41*07
$GPGSV,4,1,13,02,06,331,16,10,77,289,34,12,29,107,13,15,06,092,*7C
$GPGSV,4,2,13,18,00,183,,21,16,317,31,23,57,148,40,24,39,055,32*7A
$GPGSV,4,3,13,25,21,147,18,28,21,220,31,32,51,287,40,46,12,248,*7B
$GPGSV,4,4,13,48,15,245,27*45
$GPGLL,4506.13546,N,06839.55210,W,181517.00,A,D*70
$RDENS,7028,5131527,PC
$RDENS,7029,5131606,PC
$GPRMC,181518.00,A,4506.13535,N,06839.55205,W,0.372,,180924,,,D*66
$GPVTG,,T,,M,0.372,N,0.688,K,D*26
$GPGGA,181518.00,4506.13535,N,06839.55205,W,2,08,0.97,40.1,M,-29.0,M,,0000*59
$GPGSA,A,3,24,12,25,21,23,10,28,32,,,,,1.78,0.97,1.49*04
$GPGSV,4,1,13,02,06,331,15,10,77,288,35,12,29,107,22,15,06,092,*7D
$GPGSV,4,2,13,18,00,183,,21,16,317,29,23,57,148,38,24,39,055,34*7A
$GPGSV,4,3,13,25,21,147,18,28,21,220,31,32,51,287,40,46,12,248,*7B
$GPGSV,4,4,13,48,15,245,*40
$GPGLL,4506.13535,N,06839.55205,W,181518.00,A,D*7F
$RDENS,7030,5131685,PC
$GPRMC,181519.00,A,4506.13529,N,06839.55197,W,0.358,,180924,,,D*6A
$GPVTG,,T,,M,0.358,N,0.663,K,D*2B
$GPGGA,181519.00,4506.13529,N,06839.55197,W,2,08,0.97,40.1,M,-29.0,M,,0000*5D
$GPGSA,A,3,24,12,25,21,23,10,28,32,,,,,1.78,0.97,1.49*04
$GPGSV,4,1,13,02,06,331,17,10,77,288,36,12,29,107,27,15,06,092,*79
$GPGSV,4,2,13,18,00,183,,21,16,317,28,23,57,148,37,24,39,055,35*75
$GPGSV,4,3,13,25,21,147,18,28,21,220,33,32,51,287,38,46,12,248,*76
$GPGSV,4,4,13,48,15,245,*40
$GPGLL,4506.13529,N,06839.55197,W,181519.00,A,D*7B
$RDENS,7031,5131763,PC
$GPRMC,181520.00,A,4506.13520,N,06839.55189,W,0.306,,180924,,,D*6D
$GPVTG,,T,,M,0.306,N,0.567,K,D*27
$GPGGA,181520.00,4506.13520,N,06839.55189,W,2,07,1.05,40.3,M,-29.0,M,,0000*56
$GPGSA,A,3,24,12,21,23,10,28,32,,,,,,1.92,1.05,1.61*07
$GPGSV,4,1,13,02,06,331,19,10,77,288,37,12,29,107,33,15,06,092,*73
$GPGSV,4,2,13,18,00,183,,21,16,317,31,23,57,148,39,24,39,055,36*70
$GPGSV,4,3,13,25,21,147,,28,21,220,33,32,51,287,38,46,12,248,*7F
$GPGSV,4,4,13,48,15,245,*40
$GPGLL,4506.13520,N,06839.55189,W,181520.00,A,D*77
$RDENS,7032,5131842,PC
$RDENS,7033,5131920,PC
$GPRMC,181521.00,A,4506.13512,N,06839.55177,W,0.316,,180924,,,D*6D
$GPVTG,,T,,M,0.316,N,0.585,K,D*2A
$GPGGA,181521.00,4506.13512,N,06839.55177,W,2,07,1.05,40.3,M,-29.0,M,,0000*57
$GPGSA,A,3,24,12,21,23,10,28,32,,,,,,1.92,1.05,1.61*07
$GPGSV,4,1,13,02,06,331,19,10,77,288,36,12,29,107,33,15,06,092,*72
$GPGSV,4,2,13,18,00,183,,21,16,317,30,23,57,148,39,24,39,055,36*71
$GPGSV,4,3,13,25,21,147,16,28,21,220,34,32,51,287,36,46,12,248,*71
$GPGSV,4,4,13,48,15,245,*40
$GPGLL,4506.13512,N,06839.55177,W,181521.00,A,D*76
$RDENS,7034,5131999,PC
$GPRMC,181522.00,A,4506.13503,N,06839.55167,W,0.311,,180924,,,D*68
$GPVTG,,T,,M,0.311,N,0.577,K,D*20
$GPGGA,181522.00,4506.13503,N,06839.55167,W,2,07,1.05,40.4,M,-29.0,M,,0000*52
$GPGSA,A,3,24,12,21,23,10,28,32,,,,,,1.92,1.05,1.61*07
$GPGSV,4,1,13,02,06,331,19,10,77,288,36,12,29,107,33,15,06,092,*72
$GPGSV,4,2,13,18,00,183,,21,16,317,24,23,57,148,39,24,39,055,35*77
$GPGSV,4,3,13,25,21,147,15,28,21,220,33,32,51,287,37,46,12,248,*74
$GPGSV,4,4,13,48,15,245,27*45
$GPGLL,4506.13503,N,06839.55167,W,181522.00,A,D*74
$RDENS,7035,5132077,PC
$GPRMC,181523.00,A,4506.13496,N,06839.55157,W,0.226,,180924,,,D*62
$GPVTG,,T,,M,0.226,N,0.418,K,D*2D
$GPGGA,181523.00,4506.13496,N,06839.55157,W,2,08,1.05,40.5,M,-29.0,M,,0000*53
$GPGSA,A,3,24,12,21,23,10,28,32,48,,,,,1.92,1.05,1.61*0B
$GPGSV,4,1,13,02,06,331,20,10,77,288,37,12,29,107,32,15,06,093,*79
$GPGSV,4,2,13,18,00,183,,21,16,317,25,23,57,148,37,24,39,055,35*78
$GPGSV,4,3,13,25,21,147,13,28,21,220,32,32,51,287,37,46,12,248,*73
$GPGSV,4,4,13,48,15,245,28*4A
$GPGLL,4506.13496,N,06839.55157,W,181523.00,A,D*7B
$RDENS,7036,5132156,PC
$GPRMC,181524.00,A,4506.13489,N,06839.55146,W,0.244,,180924,,,D*6F
$GPVTG,,T,,M,0.244,N,0.453,K,D*26
$GPGGA,181524.00,4506.13489,N,06839.55146,W,2,07,1.05,40.5,M,-29.0,M,,0000*55
$GPGSA,A,3,24,12,21,23,10,28,32,,,,,,1.92,1.05,1.61*07
$GPGSV,4,1,13,02,06,331,19,10,77,288,35,12,29,107,31,15,06,093,*72
$GPGSV,4,2,13,18,00,183,,21,16,317,23,23,57,148,37,24,39,055,34*7F
$GPGSV,4,3,13,25,21,147,11,28,21,220,31,32,51,287,37,46,12,248,*72
$GPGSV,4,4,13,48,15,245,*40
$GPGLL,4506.13489,N,06839.55146,W,181524.00,A,D*72
$RDENS,7037,5132235,PC
$RDENS,7038,5132313,PC
$GPRMC,181525.00,A,4506.13481,N,06839.55133,W,0.311,,180924,,,D*65
$GPVTG,,T,,M,0.311,N,0.576,K,D*21
$GPGGA,181525.00,4506.13481,N,06839.55133,W,2,07,1.05,40.6,M,-29.0,M,,0000*5D
$GPGSA,A,3,24,12,21,23,10,28,32,,,,,,1.92,1.05,1.61*07
$GPGSV,4,1,13,02,06,331,18,10,77,288,35,12,29,107,30,15,06,093,*72
$GPGSV,4,2,13,18,00,183,,21,16,317,24,23,57,148,35,24,39,055,35*7B
$GPGSV,4,3,13,25,21,147,10,28,21,220,31,32,51,287,36,46,12,248,*72
$GPGSV,4,4,13,48,15,245,*40
$GPGLL,4506.13481,N,06839.55133,W,181525.00,A,D*79
$RDENS,7039,5132392,PC
$GPRMC,181526.00,A,4506.13474,N,06839.55121,W,0.277,,180924,,,D*6E
$GPVTG,,T,,M,0.277,N,0.512,K,D*22
$GPGGA,181526.00,4506.13474,N,06839.55121,W,2,08,0.97,40.7,M,-29.0,M,,0000*53
$GPGSA,A,3,24,12,25,21,23,10,28,32,,,,,1.78,0.97,1.49*04
$GPGSV,4,1,13,02,06,331,19,10,77,288,35,12,29,107,28,15,06,093,*7A
$GPGSV,4,2,13,18,00,183,,21,16,317,25,23,57,148,35,24,39,055,35*7A
$GPGSV,4,3,13,25,21,147,08,28,21,220,30,32,51,287,36,46,12,248,*7A
$GPGSV,4,4,13,48,15,245,*40
$GPGLL,4506.13474,N,06839.55121,W,181526.00,A,D*73
$RDENS,7040,5132471,PC
$GPRMC,181527.00,A,4506.13465,N,06839.55105,W,0.359,,180924,,,D*64
$GPVTG,,T,,M,0.359,N,0.665,K,D*2C
$GPGGA,181527.00,4506.13465,N,06839.55105,W,2,09,0.91,40.9,M,-29.0,M,,0000*5D
$GPGSA,A,3,24,12,25,21,23,10,28,32,48,,,,1.68,0.91,1.41*07
$GPGSV,4,1,13,02,06,331,19,10,77,288,35,12,29,107,28,15,06,093,*7A
$GPGSV,4,2,13,18,00,183,,21,16,317,26,23,57,148,38,24,39,055,34*75
$GPGSV,4,3,13,25,21,147,08,28,21,220,30,32,51,287,34,46,12,248,*78
$GPGSV,4,4,13,48,15,245,28*4A
$GPGLL,4506.13465,N,06839.55105,W,181527.00,A,D*74
$RDENS,7041,5132550,PC
$GPRMC,181528.00,A,4506.13457,N,06839.55095,W,0.317,,180924,,,D*68
$GPVTG,,T,,M,0.317,N,0.586,K,D*28
$GPGGA,181528.00,4506.13457,N,06839.55095,W,2,08,1.05,40.9,M,-29.0,M,,0000*56
$GPGSA,A,3,24,12,21,23,10,28,32,48,,,,,1.92,1.05,1.61*0B
$GPGSV,4,1,13,02,06,331,20,10,77,288,36,12,29,107,33,15,06,093,*79
$GPGSV,4,2,13,18,00,183,,21,16,317,24,23,57,148,35,24,39,055,36*78
$GPGSV,4,3,13,25,21,147,08,28,21,220,30,32,51,287,36,46,12,248,*7A
$GPGSV,4,4,13,48,15,245,29*4B
$GPGLL,4506.13457,N,06839.55095,W,181528.00,A,D*72
$RDENS,7042,5132628,PC
$RDENS,7043,5132707,PC
$GPRMC,181529.00,A,4506.13443,N,06839.55087,W,0.334,,180924,,,D*6E
$GPVTG,,T,,M,0.334,N,0.618,K,D*2D
$GPGGA,181529.00,4506.13443,N,06839.55087,W,2,07,1.05,41.2,M,-29.0,M,,0000*54
$GPGSA,A,3,24,12,21,23,10,28,32,,,,,,1.92,1.05,1.61*07
$GPGSV,4,1,13,02,06,331,22,10,77,288,37,12,29,107,33,15,06,093,*7A
$GPGSV,4,2,13,18,00,183,,21,16,317,23,23,57,148,36,24,39,055,39*73
$GPGSV,4,3,13,25,21,147,08,28,21,220,30,32,51,287,36,46,12,248,*7A
$GPGSV,4,4,13,48,15,245,*40
$GPGLL,4506.13443,N,06839.55087,W,181529.00,A,D*75
$RDENS,7044,5132786,PC
$GPRMC,181530.00,A,4506.13430,N,06839.55078,W,0.270,,180924,,,D*63
$GPVTG,,T,,M,0.270,N,0.501,K,D*27
$GPGGA,181530.00,4506.13430,N,06839.55078,W,2,07,1.05,41.2,M,-29.0,M,,0000*58
$GPGSA,A,3,24,12,21,23,10,28,32,,,,,,1.92,1.05,1.61*07
$GPGSV,4,1,13,02,06,331,21,10,77,288,35,12,29,107,35,15,06,093,*7D
$GPGSV,4,2,13,18,00,183,,21,16,317,22,23,57,148,36,24,39,055,39*72
$GPGSV,4,3,13,25,21,147,08,28,21,220,30,32,51,287,38,46,12,248,*74
$GPGSV,4,4,13,48,15,245,*40
$GPGLL,4506.13430,N,06839.55078,W,181530.00,A,D*79
$RDENS,7045,5132865,PC
$GPRMC,181531.00,A,4506.13426,N,06839.55072,W,0.071,,180924,,,D*6C
$GPVTG,,T,,M,0.071,N,0.131,K,D*23
$GPGGA,181531.00,4506.13426,N,06839.55072,W,2,07,1.05,41.4,M,-29.0,M,,0000*52
$GPGSA,A,3,24,12,21,23,10,28,32,,,,,,1.92,1.05,1.61*07
$GPGSV,4,1,13,02,06,331,22,10,77,288,36,12,29,107,35,15,06,093,*7D
$GPGSV,4,2,13,18,00,183,,21,16,317,23,23,57,148,36,24,39,055,36*7C
$GPGSV,4,3,13,25,21,147,08,28,21,220,30,32,51,287,38,46,12,248,*74
$GPGSV,4,4,13,48,15,245,*40
$GPGLL,4506.13426,N,06839.55072,W,181531.00,A,D*75
$RDENS,7046,5132943,PC
$RDENS,7047,5133022,PC
$GPRMC,181532.00,A,4506.13429,N,06839.55076,W,0.353,,180924,,,D*67
$GPVTG,,T,,M,0.353,N,0.654,K,D*24
$GPGGA,181532.00,4506.13429,N,06839.55076,W,2,07,1.05,41.5,M,-29.0,M,,0000*5B
$GPGSA,A,3,24,12,21,23,10,28,32,,,,,,1.92,1.05,1.61*07
$GPGSV,4,1,13,02,06,331,21,10,77,288,38,12,29,107,34,15,06,093,*71
$GPGSV,4,2,13,18,00,183,,21,16,317,23,23,57,148,36,24,39,055,36*7C
$GPGSV,4,3,13,25,21,147,07,28,21,220,29,32,51,287,36,46,12,248,*7D
$GPGSV,4,4,13,48,15,245,*40
$GPGLL,4506.13429,N,06839.55076,W,181532.00,A,D*7D
$RDENS,7048,5133101,PC
$GPRMC,181533.00,A,4506.13436,N,06839.55082,W,0.369,,180924,,,D*6A
$GPVTG,,T,,M,0.369,N,0.684,K,D*20
$GPGGA,181533.00,4506.13436,N,06839.55082,W,2,07,1.05,41.6,M,-29.0,M,,0000*5C
$GPGSA,A,3,24,12,21,23,10,28,32,,,,,,1.92,1.05,1.61*07
$GPGSV,4,1,13,02,06,331,22,10,77,288,37,12,29,107,33,15,06,093,*7A
$GPGSV,4,2,13,18,00,183,,21,16,317,26,23,57,148,36,24,39,055,32*7D
$GPGSV,4,3,13,25,21,147,07,28,21,220,33,32,51,287,35,46,12,248,*75
$GPGSV,4,4,13,48,15,245,*40
$GPGLL,4506.13436,N,06839.55082,W,181533.00,A,D*79
$RDENS,7049,5133179,PC
$GPRMC,181534.00,A,4506.13447,N,06839.55084,W,0.469,,180924,,,D*6A
$GPVTG,,T,,M,0.469,N,0.868,K,D*2B
$GPGGA,181534.00,4506.13447,N,06839.55084,W,2,08,1.05,41.9,M,-29.0,M,,0000*5B
$GPGSA,A,3,24,12,25,21,23,10,28,32,,,,,1.92,1.05,1.61*00
$GPGSV,4,1,13,02,06,331,22,10,77,288,37,12,29,107,31,15,06,093,*78
$GPGSV,4,2,13,18,00,183,,21,16,317,27,23,57,148,39,24,39,055,34*75
$GPGSV,4,3,13,25,21,147,07,28,21,220,32,32,51,287,36,46,12,248,*77
$GPGSV,4,4,13,48,15,245,*40
$GPGLL,4506.13447,N,06839.55084,W,181534.00,A,D*7E
$RDENS,7050,5133258,PC
$GPRMC,181535.00,A,4506.13461,N,06839.55090,W,0.684,,180924,,,D*6B
$GPVTG,,T,,M,0.684,N,1.266,K,D*2F
$GPGGA,181535.00,4506.13461,N,06839.55090,W,2,08,1.05,42.1,M,-29.0,M,,0000*50
$GPGSA,A,3,24,12,25,21,23,10,28,32,,,,,1.92,1.05,1.61*00
$GPGSV,4,1,13,02,06,331,22,10,77,288,37,12,29,107,29,15,06,093,*71
$GPGSV,4,2,13,18,00,183,,21,16,317,28,23,57,148,39,24,39,055,30*7E
$GPGSV,4,3,13,25,21,147,07,28,21,220,32,32,51,287,36,46,12,248,*77
$GPGSV,4,4,13,48,15,245,*40
$GPGLL,4506.13461,N,06839.55090,W,181535.00,A,D*7E
$RDENS,7051,5133336,PC
$RDENS,7052,5133415,PC
$GPRMC,181536.00,A,4506.13479,N,06839.55095,W,0.656,,180924,,,D*6B
$GPVTG,,T,,M,0.656,N,1.215,K,D*24
$GPGGA,181536.00,4506.13479,N,06839.55095,W,2,08,1.05,42.1,M,-29.0,M,,0000*5F
$GPGSA,A,3,24,12,25,21,23,10,28,32,,,,,1.92,1.05,1.61*00
$GPGSV,4,1,13,02,06,331,20,10,77,288,37,12,29,107,25,15,06,093,*7F
$GPGSV,4,2,13,18,00,183,,21,16,317,29,23,57,148,40,24,39,055,35*74
$GPGSV,4,3,13,25,21,147,08,28,21,220,33,32,51,287,37,46,12,248,*78
$GPGSV,4,4,13,48,15,245,*40
$GPGLL,4506.13479,N,06839.55095,W,181536.00,A,D*71
$RDENS,7053,5133493,PC
$GPRMC,181537.00,A,4506.13501,N,06839.55102,W,0.797,70.97,180924,,,D*40
$GPVTG,70.97,T,,M,0.797,N,1.476,K,D*0C
$GPGGA,181537.00,4506.13501,N,06839.55102,W,2,07,1.05,42.2,M,-29.0,M,,0000*53
$GPGSA,A,3,24,12,21,23,10,28,32,,,,,,1.92,1.05,1.61*07
$GPGSV,4,1,13,02,06,331,19,10,77,288,37,12,29,107,31,15,06,093,*70
$GPGSV,4,2,13,18,00,183,,21,16,317,30,23,57,148,40,24,39,055,35*7C
$GPGSV,4,3,13,25,21,147,,28,21,220,33,32,51,287,37,46,12,248,*70
$GPGSV,4,4,13,48,15,245,*40
$GPGLL,4506.13501,N,06839.55102,W,181537.00,A,D*71
$RDENS,7054,5133572,PC
$GPRMC,181538.00,A,4506.13525,N,06839.55108,W,0.850,21.81,180924,,,D*44
$GPVTG,21.81,T,,M,0.850,N,1.574,K,D*08
$GPGGA,181538.00,4506.13525,N,06839.55108,W,2,07,1.05,42.3,M,-29.0,M,,0000*51
$GPGSA,A,3,24,12,21,23,10,28,32,,,,,,1.92,1.05,1.61*07
$GPGSV,4,1,13,02,06,331,17,10,77,288,38,12,29,107,34,15,06,093,*74
$GPGSV,4,2,13,18,00,183,,21,16,317,30,23,57,148,41,24,39,055,34*7C
$GPGSV,4,3,13,25,21,147,,28,21,220,34,32,51,287,38,46,12,248,*78
$GPGSV,4,4,13,48,15,245,27*45
$GPGLL,4506.13525,N,06839.55108,W,181538.00,A,D*72
$RDENS,7055,5133651,PC
$GPRMC,181539.00,A,4506.13550,N,06839.55109,W,0.996,14.05,180924,,,D*47
$GPVTG,14.05,T,,M,0.996,N,1.844,K,D*07
$GPGGA,181539.00,4506.13550,N,06839.55109,W,2,08,0.99,42.6,M,-29.0,M,,0000*5D
$GPGSA,A,3,24,12,21,23,10,28,32,48,,,,,1.79,0.99,1.49*00
$GPGSV,4,1,13,02,06,331,19,10,77,288,39,12,29,107,22,15,06,093,*7C
$GPGSV,4,2,13,18,00,183,,21,16,317,30,23,57,148,41,24,39,055,31*79
$GPGSV,4,3,13,25,21,147,,28,21,220,35,32,51,287,39,46,12,248,*78
$GPGSV,4,4,13,48,15,245,28*4A
$GPGLL,4506.13550,N,06839.55109,W,181539.00,A,D*70
$RDENS,7056,5133729,PC
$RDENS,7057,5133808,PC
$GPRMC,181540.00,A,4506.13580,N,06839.55114,W,1.008,3.44,180924,,,D*74
$GPVTG,3.44,T,,M,1.008,N,1.866,K,D*3B
$GPGGA,181540.00,4506.13580,N,06839.55114,W,2,08,0.99,42.6,M,-29.0,M,,0000*52
$GPGSA,A,3,24,12,21,23,10,28,32,48,,,,,1.79,0.99,1.49*00
$GPGSV,4,1,13,02,06,331,19,10,77,288,38,12,29,107,31,15,06,093,*7F
$GPGSV,4,2,13,18,00,183,,21,16,317,30,23,57,148,41,24,39,055,29*70
$GPGSV,4,3,13,25,21,147,19,28,21,220,34,32,52,287,39,46,12,248,*72
$GPGSV,4,4,13,48,15,245,29*4B
$GPGLL,4506.13580,N,06839.55114,W,181540.00,A,D*7F
$RDENS,7058,5133887,PC
$GPRMC,181541.00,A,4506.13611,N,06839.55124,W,0.976,0.13,180924,,,D*7D
$GPVTG,0.13,T,,M,0.976,N,1.808,K,D*33
$GPGGA,181541.00,4506.13611,N,06839.55124,W,2,08,0.99,42.7,M,-29.0,M,,0000*5A
$GPGSA,A,3,24,12,21,23,10,28,32,48,,,,,1.79,0.99,1.49*00
$GPGSV,4,1,13,02,06,331,17,10,77,288,38,12,29,107,33,15,06,093,*73
$GPGSV,4,2,13,18,00,183,,21,16,317,31,23,57,148,41,24,39,055,20*78
$GPGSV,4,3,13,25,21,147,17,28,21,220,29,32,52,287,41,46,12,248,*7F
$GPGSV,4,4,13,48,15,245,28*4A
$GPGLL,4506.13611,N,06839.55124,W,181541.00,A,D*76
$RDENS,7059,5133965,PC
$GPRMC,181542.00,A,4506.13643,N,06839.55127,W,1.107,359.47,180924,,,D*7B
$GPVTG,359.47,T,,M,1.107,N,2.051,K,D*35
$GPGGA,181542.00,4506.13643,N,06839.55127,W,2,08,0.99,42.8,M,-29.0,M,,0000*52
$GPGSA,A,3,24,12,21,23,10,28,32,48,,,,,1.79,0.99,1.49*00
$GPGSV,4,1,13,02,06,331,18,10,77,288,37,12,29,107,32,15,06,093,*72
$GPGSV,4,2,13,18,00,183,,21,16,317,34,23,57,148,39,24,39,055,23*71
$GPGSV,4,3,13,25,21,147,16,28,21,220,28,32,52,287,41,46,12,248,*7F
$GPGSV,4,4,13,48,15,245,27*45
$GPGLL,4506.13643,N,06839.55127,W,181542.00,A,D*71
$RDENS,7060,5134043,PC
$RDENS,7061,5134122,PC
$GPRMC,181543.00,A,4506.13669,N,06839.55140,W,0.794,351.63,180924,,,D*70
$GPVTG,351.63,T,,M,0.794,N,1.471,K,D*33
$GPGGA,181543.00,4506.13669,N,06839.55140,W,2,08,0.99,42.5,M,-29.0,M,,0000*57
$GPGSA,A,3,24,12,21,23,10,28,32,48,,,,,1.79,0.99,1.49*00
$GPGSV,4,1,13,02,06,331,20,10,77,288,37,12,29,107,32,15,06,093,13*7B
$GPGSV,4,2,13,18,00,183,,21,16,317,35,23,57,148,40,24,39,055,31*7D
$GPGSV,4,3,13,25,21,147,17,28,21,220,26,32,52,287,39,46,12,248,*7F
$GPGSV,4,4,13,48,15,245,27*45
$GPGLL,4506.13669,N,06839.55140,W,181543.00,A,D*79
$RDENS,7062,5134201,PC
$GPRMC,181544.00,A,4506.13696,N,06839.55148,W,0.883,354.22,180924,,,D*76
$GPVTG,354.22,T,,M,0.883,N,1.636,K,D*3B
$GPGGA,181544.00,4506.13696,N,06839.55148,W,2,08,0.97,42.5,M,-29.0,M,,0000*56
$GPGSA,A,3,24,12,25,21,23,10,28,32,,,,,1.78,0.97,1.49*04
$GPGSV,4,1,13,02,06,331,22,10,77,288,37,12,29,107,36,15,06,093,11*7F
$GPGSV,4,2,13,18,00,183,,21,16,317,34,23,57,148,37,24,39,055,30*7D
$GPGSV,4,3,13,25,21,147,17,28,21,220,26,32,52,287,39,46,12,248,*7F
$GPGSV,4,4,13,48,15,245,*40
$GPGLL,4506.13696,N,06839.55148,W,181544.00,A,D*76
$RDENS,7063,5134279,PC
$GPRMC,181545.00,A,4506.13722,N,06839.55146,W,0.922,359.17,180924,,,D*76
$GPVTG,359.17,T,,M,0.922,N,1.707,K,D*39
$GPGGA,181545.00,4506.13722,N,06839.55146,W,2,08,0.97,42.5,M,-29.0,M,,0000*57
$GPGSA,A,3,24,12,25,21,23,10,28,32,,,,,1.78,0.97,1.49*04
$GPGSV,4,1,13,02,06,331,23,10,77,288,37,12,29,107,36,15,06,093,09*77
$GPGSV,4,2,13,18,00,183,,21,16,317,32,23,57,148,39,24,39,055,31*74
$GPGSV,4,3,13,25,21,147,18,28,21,220,23,32,52,287,38,46,12,248,*74
$GPGSV,4,4,13,48,15,245,*40
$GPGLL,4506.13722,N,06839.55146,W,181545.00,A,D*77
$RDENS,7064,5134359,PC
$GPRMC,181546.00,A,4506.13748,N,06839.55142,W,0.947,359.47,180924,,,D*7B
$GPVTG,359.47,T,,M,0.947,N,1.754,K,D*39
$GPGGA,181546.00,4506.13748,N,06839.55142,W,2,08,0.97,42.5,M,-29.0,M,,0000*5C
$GPGSA,A,3,24,12,25,21,23,10,28,32,,,,,1.78,0.97,1.49*04
$GPGSV,4,1,13,02,06,331,23,10,77,288,37,12,29,107,36,15,06,093,08*76
$GPGSV,4,2,13,18,00,183,,21,16,317,32,23,57,148,39,24,39,055,32*77
$GPGSV,4,3,13,25,21,147,16,28,21,220,21,32,52,287,37,46,12,248,*77
$GPGSV,4,4,13,48,15,245,28*4A
$GPGLL,4506.13748,N,06839.55142,W,181546.00,A,D*7C
$RDENS,7065,5134437,PC
$RDENS,7066,5134516,PC
$GPRMC,181547.00,A,4506.13760,N,06839.55137,W,0.595,,180924,,,D*63
$GPVTG,,T,,M,0.595,N,1.102,K,D*2D
$GPGGA,181547.00,4506.13760,N,06839.55137,W,2,09,0.91,42.7,M,-29.0,M,,0000*50
$GPGSA,A,3,24,12,25,21,23,10,28,32,48,,,,1.68,0.91,1.41*07
$GPGSV,4,1,13,02,06,331,26,10,77,288,37,12,29,107,37,15,06,093,08*72
$GPGSV,4,2,13,18,00,183,,21,16,317,35,23,57,148,39,24,39,055,30*72
$GPGSV,4,3,13,25,21,147,15,28,21,220,21,32,52,287,37,46,12,248,*74
$GPGSV,4,4,13,48,15,245,33*40
$GPGLL,4506.13760,N,06839.55137,W,181547.00,A,D*75
$RDENS,7067,5134594,PC
$GPRMC,181548.00,A,4506.13777,N,06839.55136,W,0.557,,180924,,,D*65
$GPVTG,,T,,M,0.557,N,1.032,K,D*21
$GPGGA,181548.00,4506.13777,N,06839.55136,W,2,09,0.91,42.8,M,-29.0,M,,0000*57
$GPGSA,A,3,24,12,25,21,23,10,28,32,48,,,,1.68,0.91,1.41*07
$GPGSV,4,1,13,02,06,331,26,10,77,288,39,12,29,107,37,15,06,093,08*7C
$GPGSV,4,2,13,18,00,183,,21,16,317,31,23,57,148,41,24,39,055,33*7A
$GPGSV,4,3,13,25,21,147,14,28,21,220,23,32,52,287,36,46,12,248,*76
$GPGSV,4,4,13,48,15,245,31*42
$GPGLL,4506.13777,N,06839.55136,W,181548.00,A,D*7D
$RDENS,7068,5134672,PC
$GPRMC,181549.00,A,4506.13769,N,06839.55157,W,0.650,,180924,,,D*68
$GPVTG,,T,,M,0.650,N,1.204,K,D*22
$GPGGA,181549.00,4506.13769,N,06839.55157,W,2,09,0.91,42.2,M,-29.0,M,,0000*54
$GPGSA,A,3,24,12,25,21,23,10,28,32,48,,,,1.68,0.91,1.41*07
$GPGSV,4,1,13,02,06,331,27,10,77,288,40,12,29,107,36,15,06,093,08*72
$GPGSV,4,2,13,18,00,183,,21,16,317,31,23,57,148,41,24,39,055,34*7D
$GPGSV,4,3,13,25,21,147,13,28,21,220,24,32,52,287,39,46,12,248,*79
$GPGSV,4,4,13,48,15,245,27*45
$GPGLL,4506.13769,N,06839.55157,W,181549.00,A,D*74
$RDENS,7069,5134751,PC
$GPRMC,181550.00,A,4506.13775,N,06839.55177,W,0.365,,180924,,,D*6C
$GPVTG,,T,,M,0.365,N,0.676,K,D*21
$GPGGA,181550.00,4506.13775,N,06839.55177,W,2,08,0.97,42.4,M,-29.0,M,,0000*52
$GPGSA,A,3,24,12,25,21,23,10,28,32,,,,,1.78,0.97,1.50*0C
$GPGSV,4,1,13,02,06,331,20,10,77,288,40,12,29,107,39,15,06,093,06*74
$GPGSV,4,2,13,18,00,183,,21,16,317,23,23,57,148,41,24,39,055,34*7E
$GPGSV,4,3,13,25,21,147,14,28,21,220,25,32,52,287,40,46,12,248,*71
$GPGSV,4,4,13,48,15,245,*40
$GPGLL,4506.13775,N,06839.55177,W,181550.00,A,D*73
$RDENS,7070,5134830,PC
$RDENS,7071,5134909,PC
$GPRMC,181551.00,A,4506.13786,N,06839.55180,W,0.420,,180924,,,D*6F
$GPVTG,,T,,M,0.420,N,0.777,K,D*27
$GPGGA,181551.00,4506.13786,N,06839.55180,W,2,08,0.97,42.4,M,-29.0,M,,0000*57
$GPGSA,A,3,24,12,25,21,23,10,28,32,,,,,1.78,0.97,1.50*0C
$GPGSV,4,1,13,02,06,331,20,10,77,288,42,12,29,107,36,15,06,093,06*79
$GPGSV,4,2,13,18,00,183,,21,16,317,25,23,57,148,40,24,39,055,30*7D
$GPGSV,4,3,13,25,21,147,18,28,21,220,31,32,52,287,40,46,12,248,*78
$GPGSV,4,4,13,48,15,245,*40
$GPGLL,4506.13786,N,06839.55180,W,181551.00,A,D*76
$RDENS,7072,5134987,PC
$GPRMC,181552.00,A,4506.13794,N,06839.55181,W,0.363,,180924,,,D*6E
$GPVTG,,T,,M,0.363,N,0.672,K,D*23
$GPGGA,181552.00,4506.13794,N,06839.55181,W,2,08,0.97,42.4,M,-29.0,M,,0000*56
$GPGSA,A,3,24,12,25,21,23,10,28,32,,,,,1.78,0.97,1.50*0C
$GPGSV,4,1,13,02,06,331,21,10,77,288,42,12,29,107,36,15,06,093,06*78
$GPGSV,4,2,13,18,00,183,,21,16,317,27,23,57,148,40,24,39,055,33*7C
$GPGSV,4,3,13,25,21,147,19,28,21,220,29,32,52,287,38,46,12,248,*7F
$GPGSV,4,4,13,48,15,245,*40
$GPGLL,4506.13794,N,06839.55181,W,181552.00,A,D*77
$RDENS,7073,5135066,PC
$GPRMC,181553.00,A,4506.13801,N,06839.55184,W,0.310,,180924,,,D*6D
$GPVTG,,T,,M,0.310,N,0.574,K,D*22
$GPGGA,181553.00,4506.13801,N,06839.55184,W,2,08,0.97,42.4,M,-29.0,M,,0000*51
$GPGSA,A,3,24,12,25,21,23,10,28,32,,,,,1.78,0.97,1.50*0C
$GPGSV,4,1,13,02,06,331,22,10,77,288,41,12,29,107,39,15,06,093,06*77
$GPGSV,4,2,13,18,00,183,,21,16,317,31,23,57,148,38,24,39,055,35*72
$GPGSV,4,3,13,25,21,147,19,28,21,220,24,32,52,287,40,46,12,248,*7D
$GPGSV,4,4,13,48,15,245,*40
$GPGLL,4506.13801,N,06839.55184,W,181553.00,A,D*70
$RDENS,7074,5135145,PC
$RDENS,7075,5135223,PC
$GPRMC,181554.00,A,4506.13807,N,06839.55189,W,0.325,,180924,,,D*67
$GPVTG,,T,,M,0.325,N,0.602,K,D*26
$GPGGA,181554.00,4506.13807,N,06839.55189,W,2,08,0.97,42.3,M,-29.0,M,,0000*5A
$GPGSA,A,3,24,12,25,21,23,10,28,32,,,,,1.78,0.97,1.50*0C
$GPGSV,4,1,13,02,07,331,22,10,77,288,41,12,29,107,38,15,06,093,06*77
$GPGSV,4,2,13,18,00,183,,21,16,317,31,23,57,148,39,24,39,055,38*7E
$GPGSV,4,3,13,25,21,147,19,28,21,220,32,32,52,287,40,46,12,248,*7A
$GPGSV,4,4,13,48,15,245,*40
$GPGLL,4506.13807,N,06839.55189,W,181554.00,A,D*7C
$RDENS,7076,5135301,PC
$GPRMC,181555.00,A,4506.13816,N,06839.55191,W,0.288,,180924,,,D*69
$GPVTG,,T,,M,0.288,N,0.532,K,D*20
$GPGGA,181555.00,4506.13816,N,06839.55191,W,2,08,0.97,42.1,M,-29.0,M,,0000*50
$GPGSA,A,3,24,12,25,21,23,10,28,32,,,,,1.78,0.97,1.50*0C
$GPGSV,4,1,13,02,07,331,22,10,77,288,41,12,29,107,37,15,06,093,*7E
$GPGSV,4,2,13,18,00,183,,21,16,317,31,23,57,148,40,24,39,055,38*70
$GPGSV,4,3,13,25,21,147,19,28,21,220,31,32,52,287,42,46,12,248,*7B
$GPGSV,4,4,13,48,15,245,*40
$GPGLL,4506.13816,N,06839.55191,W,181555.00,A,D*74
$RDENS,7077,5135380,PC
$GPRMC,181556.00,A,4506.13819,N,06839.55196,W,0.239,,180924,,,D*68
$GPVTG,,T,,M,0.239,N,0.442,K,D*2C
$GPGGA,181556.00,4506.13819,N,06839.55196,W,2,08,0.97,41.9,M,-29.0,M,,0000*50
$GPGSA,A,3,24,12,25,21,23,10,28,32,,,,,1.78,0.97,1.50*0C
$GPGSV,4,1,13,02,07,331,21,10,77,288,41,12,29,107,37,15,06,093,*7D
$GPGSV,4,2,13,18,00,183,,21,16,317,21,23,57,148,38,24,39,055,37*71
$GPGSV,4,3,13,25,21,147,19,28,21,220,31,32,52,287,42,46,12,248,*7B
$GPGSV,4,4,13,48,15,245,*40
$GPGLL,4506.13819,N,06839.55196,W,181556.00,A,D*7F
$RDENS,7078,5135459,PC
$GPRMC,181557.00,A,4506.13824,N,06839.55202,W,0.348,,180924,,,D*6E
$GPVTG,,T,,M,0.348,N,0.644,K,D*2F
$GPGGA,181557.00,4506.13824,N,06839.55202,W,2,08,0.97,41.8,M,-29.0,M,,0000*50
$GPGSA,A,3,24,12,25,21,23,10,28,32,,,,,1.78,0.97,1.50*0C
$GPGSV,4,1,13,02,07,331,20,10,77,288,41,12,29,107,37,15,06,093,*7C
$GPGSV,4,2,13,18,00,183,,21,16,317,23,23,57,148,38,24,39,055,35*71
$GPGSV,4,3,13,25,21,147,21,28,21,220,32,32,52,287,42,46,12,248,*73
$GPGSV,4,4,13,48,15,245,*40
$GPGLL,4506.13824,N,06839.55202,W,181557.00,A,D*7E
$RDENS,7079,5135537,PC
$RDENS,7080,5135616,PC
$GPRMC,181558.00,A,4506.13823,N,06839.55212,W,0.316,,180924,,,D*6C
$GPVTG,,T,,M,0.316,N,0.585,K,D*2A
$GPGGA,181558.00,4506.13823,N,06839.55212,W,2,08,0.97,41.7,M,-29.0,M,,0000*56
$GPGSA,A,3,24,12,25,21,23,10,28,32,,,,,1.78,0.97,1.50*0C
$GPGSV,4,1,13,02,07,331,20,10,77,288,40,12,29,107,38,15,06,093,*72
$GPGSV,4,2,13,18,00,183,,21,16,317,24,23,57,148,39,24,39,055,32*70
$GPGSV,4,3,13,25,21,147,20,28,21,220,33,32,52,287,42,46,12,248,*73
$GPGSV,4,4,13,48,15,245,*40
$GPGLL,4506.13823,N,06839.55212,W,181558.00,A,D*77
$RDENS,7081,5135695,PC
$GPRMC,181559.00,A,4506.13823,N,06839.55223,W,0.353,,180924,,,D*6E
$GPVTG,,T,,M,0.353,N,0.654,K,D*24
$GPGGA,181559.00,4506.13823,N,06839.55223,W,2,08,0.97,41.5,M,-29.0,M,,0000*57
$GPGSA,A,3,24,12,25,21,23,10,28,32,,,,,1.78,0.97,1.50*0C
$GPGSV,4,1,13,02,07,331,20,10,77,288,41,12,29,107,39,15,06,093,*72
$GPGSV,4,2,13,18,00,183,,21,16,317,23,23,57,148,38,24,39,055,33*77
$GPGSV,4,3,13,25,21,147,20,28,21,220,31,32,52,287,43,46,12,248,*70
$GPGSV,4,4,13,48,15,245,*40
$GPGLL,4506.13823,N,06839.55223,W,181559.00,A,D*74
$RDENS,7082,5135774,PC
$GPRMC,181600.00,A,4506.13821,N,06839.55234,W,0.299,,180924,,,D*62
$GPVTG,,T,,M,0.299,N,0.553,K,D*27
$GPGGA,181600.00,4506.13821,N,06839.55234,W,2,08,0.97,41.4,M,-29.0,M,,0000*5D
$GPGSA,A,3,24,12,25,21,23,10,28,32,,,,,1.78,0.97,1.50*0C
$GPGSV,4,1,13,02,07,331,19,10,77,288,39,12,29,107,39,15,06,093,*77
$GPGSV,4,2,13,18,00,183,,21,16,317,24,23,57,148,38,24,39,055,33*70
$GPGSV,4,3,13,25,21,147,20,28,21,220,30,32,52,287,42,46,12,248,*70
$GPGSV,4,4,13,48,15,245,*40
$GPGLL,4506.13821,N,06839.55234,W,181600.00,A,D*7F
$RDENS,7083,5135853,PC
$GPRMC,181601.00,A,4506.13818,N,06839.55243,W,0.298,,180924,,,D*68
$GPVTG,,T,,M,0.298,N,0.551,K,D*24
$GPGGA,181601.00,4506.13818,N,06839.55243,W,2,08,0.97,41.3,M,-29.0,M,,0000*51
$GPGSA,A,3,24,12,25,21,23,10,28,32,,,,,1.78,0.97,1.50*0C
$GPGSV,4,1,13,02,07,331,20,10,77,288,40,12,29,107,39,15,06,093,*73
$GPGSV,4,2,13,18,00,183,,21,16,317,24,23,57,148,38,24,39,055,33*70
$GPGSV,4,3,13,25,21,147,18,28,21,220,29,32,52,287,42,46,12,248,*73
$GPGSV,4,4,13,48,15,245,*40
$GPGLL,4506.13818,N,06839.55243,W,181601.00,A,D*74
$RDENS,7084,5135932,PC
$RDENS,7085,5136010,PC
$GPRMC,181602.00,A,4506.13819,N,06839.55252,W,0.298,,180924,,,D*6A
$GPVTG,,T,,M,0.298,N,0.551,K,D*24
$GPGGA,181602.00,4506.13819,N,06839.55252,W,2,08,0.97,41.2,M,-29.0,M,,0000*52
$GPGSA,A,3,24,12,25,21,23,10,28,32,,,,,1.78,0.97,1.50*0C
$GPGSV,4,1,13,02,07,331,19,10,77,287,39,12,29,107,38,15,06,093,*79
$GPGSV,4,2,13,18,00,183,,21,16,317,21,23,57,148,37,24,39,055,33*7A
$GPGSV,4,3,13,25,21,147,14,28,21,220,28,32,52,287,42,46,12,248,*7E
$GPGSV,4,4,13,48,15,245,*40
$GPGLL,4506.13819,N,06839.55252,W,181602.00,A,D*76
$RDENS,7086,5136089,PC
$GPRMC,181603.00,A,4506.13820,N,06839.55259,W,0.277,,180924,,,D*6B
$GPVTG,,T,,M,0.277,N,0.512,K,D*22
$GPGGA,181603.00,4506.13820,N,06839.55259,W,2,08,0.97,41.1,M,-29.0,M,,0000*51
$GPGSA,A,3,24,12,25,21,23,10,28,32,,,,,1.78,0.97,1.50*0C
$GPGSV,4,1,13,02,07,331,18,10,77,287,40,12,29,107,38,15,06,093,*76
$GPGSV,4,2,13,18,00,183,,21,16,317,20,23,57,148,37,24,39,055,33*7B
$GPGSV,4,3,13,25,21,147,19,28,21,220,28,32,52,287,42,46,12,248,*73
$GPGSV,4,4,13,48,15,245,*40
$GPGLL,4506.13820,N,06839.55259,W,181603.00,A,D*76
$RDENS,7087,5136167,PC
$GPRMC,181604.00,A,4506.13820,N,06839.55268,W,0.287,,180924,,,D*61
$GPVTG,,T,,M,0.287,N,0.532,K,D*2F
$GPGGA,181604.00,4506.13820,N,06839.55268,W,2,08,0.97,41.0,M,-29.0,M,,0000*55
$GPGSA,A,3,24,12,25,21,23,10,28,32,,,,,1.78,0.97,1.50*0C
$GPGSV,4,1,13,02,07,331,17,10,77,287,40,12,29,107,37,15,06,093,*76
$GPGSV,4,2,13,18,00,183,,21,16,317,19,23,57,148,38,24,39,055,33*7E
$GPGSV,4,3,13,25,21,147,21,28,21,220,29,32,52,287,42,46,12,248,*79
$GPGSV,4,4,13,48,15,245,27*45
$GPGLL,4506.13820,N,06839.55268,W,181604.00,A,D*73
$RDENS,7088,5136246,PC
$GPRMC,181605.00,A,4506.13823,N,06839.55275,W,0.294,,180924,,,D*6D
$GPVTG,,T,,M,0.294,N,0.545,K,D*2D
$GPGGA,181605.00,4506.13823,N,06839.55275,W,2,08,0.97,41.0,M,-29.0,M,,0000*5B
$GPGSA,A,3,24,12,25,21,23,10,28,32,,,,,1.78,0.97,1.50*0C
$GPGSV,4,1,13,02,07,331,16,10,77,287,41,12,29,107,37,15,06,093,*76
$RDENS,7089,5136325,PC
$GPGSV,4,2,13,18,00,183,,21,16,317,21,23,57,148,38,24,39,055,34*72
$GPGSV,4,3,13,25,21,147,19,28,21,220,29,32,52,287,41,46,12,248,*71
$GPGSV,4,4,13,48,15,245,*40
$GPGLL,4506.13823,N,06839.55275,W,181605.00,A,D*7D
$RDENS,7090,5136403,PC
$GPRMC,181606.00,A,4506.13823,N,06839.55285,W,0.300,,180924,,,D*6D
$GPVTG,,T,,M,0.300,N,0.555,K,D*20
$GPGGA,181606.00,4506.13823,N,06839.55285,W,2,08,0.97,40.8,M,-29.0,M,,0000*5E
$GPGSA,A,3,24,12,25,21,23,10,28,32,,,,,1.78,0.97,1.50*0C
$GPGSV,4,1,13,02,07,331,15,10,77,287,40,12,29,107,37,15,06,093,*74
$GPGSV,4,2,13,18,00,183,,21,16,317,20,23,57,148,38,24,39,055,34*73
$GPGSV,4,3,13,25,21,147,17,28,21,220,28,32,52,287,42,46,12,248,*7D
$GPGSV,4,4,13,48,15,245,*40
$GPGLL,4506.13823,N,06839.55285,W,181606.00,A,D*71
$RDENS,7091,5136482,PC
$GPRMC,181607.00,A,4506.13823,N,06839.55294,W,0.284,,180924,,,D*61
$GPVTG,,T,,M,0.284,N,0.526,K,D*29
$GPGGA,181607.00,4506.13823,N,06839.55294,W,2,08,0.97,40.6,M,-29.0,M,,0000*51
$GPGSA,A,3,24,12,25,21,23,10,28,32,,,,,1.79,0.97,1.50*0D
$GPGSV,4,1,13,02,07,331,17,10,77,287,41,12,29,107,37,15,05,093,*74
$GPGSV,4,2,13,18,00,183,,21,16,317,19,23,57,148,37,24,39,055,34*76
$GPGSV,4,3,13,25,21,147,16,28,21,220,28,32,52,287,42,46,12,248,*7C
$GPGSV,4,4,13,48,15,245,*40
$GPGLL,4506.13823,N,06839.55294,W,181607.00,A,D*70
$RDENS,7092,5136561,PC
$GPRMC,181608.00,A,4506.13822,N,06839.55302,W,0.270,,180924,,,D*6A
$GPVTG,,T,,M,0.270,N,0.501,K,D*27
$GPGGA,181608.00,4506.13822,N,06839.55302,W,2,08,0.97,40.4,M,-29.0,M,,0000*53
$GPGSA,A,3,24,12,25,21,23,10,28,32,,,,,1.79,0.97,1.50*0D
$GPGSV,4,1,13,02,07,331,17,10,77,287,39,12,29,107,37,15,05,093,*7B
$GPGSV,4,2,13,18,00,183,,21,16,317,17,23,57,148,37,24,39,055,35*79
$GPGSV,4,3,13,25,21,147,14,28,21,220,28,32,52,287,42,46,12,248,*7E
$GPGSV,4,4,13,48,15,245,*40
$GPGLL,4506.13822,N,06839.55302,W,181608.00,A,D*70
$RDENS,7093,5136639,PC
$RDENS,7094,5136718,PC
$GPRMC,181609.00,A,4506.13822,N,06839.55309,W,0.280,,180924,,,D*6F
$GPVTG,,T,,M,0.280,N,0.518,K,D*20
$GPGGA,181609.00,4506.13822,N,06839.55309,W,2,08,0.97,40.2,M,-29.0,M,,0000*5F
$GPGSA,A,3,24,12,25,21,23,10,28,32,,,,,1.79,0.97,1.50*0D
$GPGSV,4,1,13,02,07,331,17,10,77,287,41,12,29,107,37,15,05,093,*74
$GPGSV,4,2,13,18,00,183,,21,16,317,18,23,57,148,38,24,39,055,35*79
$GPGSV,4,3,13,25,21,147,14,28,21,220,28,32,52,287,43,46,12,248,*7F
$GPGSV,4,4,13,48,15,245,27*45
$GPGLL,4506.13822,N,06839.55309,W,181609.00,A,D*7A
$RDENS,7095,5136797,PC
$GPRMC,181610.00,A,4506.13820,N,06839.55314,W,0.196,,180924,,,D*6D
$GPVTG,,T,,M,0.196,N,0.364,K,D*29
$GPGGA,181610.00,4506.13820,N,06839.55314,W,2,08,0.97,40.2,M,-29.0,M,,0000*59
$GPGSA,A,3,24,12,25,21,23,10,28,32,,,,,1.79,0.97,1.50*0D
$GPGSV,4,1,13,02,07,331,20,10,77,287,41,12,29,107,37,15,05,093,*70
$GPGSV,4,2,13,18,00,183,,21,16,317,20,23,57,148,38,24,39,055,34*73
$GPGSV,4,3,13,25,21,147,13,28,21,220,28,32,52,287,42,46,12,248,*79
$GPGSV,4,4,13,48,15,245,27*45
$GPGLL,4506.13820,N,06839.55314,W,181610.00,A,D*7C
$RDENS,7096,5136875,PC
$GPRMC,181611.00,A,4506.13818,N,06839.55321,W,0.304,,180924,,,D*68
$GPVTG,,T,,M,0.304,N,0.563,K,D*21
$GPGGA,181611.00,4506.13818,N,06839.55321,W,2,09,0.97,40.1,M,-29.0,M,,0000*57
$GPGSA,A,3,24,12,25,21,23,10,28,32,48,,,,1.79,0.97,1.50*01
$GPGSV,4,1,13,02,07,331,23,10,77,287,41,12,29,107,38,15,05,093,*7C
$GPGSV,4,2,13,18,00,183,,21,16,317,29,23,57,148,38,24,39,055,35*7B
$GPGSV,4,3,13,25,21,147,13,28,21,220,28,32,52,287,41,46,12,248,*7A
$GPGSV,4,4,13,48,15,245,27*45
$GPGLL,4506.13818,N,06839.55321,W,181611.00,A,D*70
$RDENS,7097,5136954,PC
$GPRMC,181612.00,A,4506.13817,N,06839.55332,W,0.365,,180924,,,D*61
$GPVTG,,T,,M,0.365,N,0.676,K,D*21
$GPGGA,181612.00,4506.13817,N,06839.55332,W,2,08,0.97,40.0,M,-29.0,M,,0000*59
$GPGSA,A,3,24,12,25,21,23,10,28,32,,,,,1.79,0.97,1.50*0D
$GPGSV,4,1,13,02,07,331,23,10,77,287,41,12,29,107,37,15,05,093,*73
$GPGSV,4,2,13,18,00,183,,21,16,317,28,23,57,148,40,24,39,055,36*76
$GPGSV,4,3,13,25,21,147,15,28,21,220,33,32,52,287,41,46,12,248,*76
$GPGSV,4,4,13,48,15,245,*40
$GPGLL,4506.13817,N,06839.55332,W,181612.00,A,D*7E
$RDENS,7098,5137033,PC
$RDENS,7099,5137111,PC
$GPRMC,181613.00,A,4506.13817,N,06839.55346,W,0.431,,180924,,,D*65
$GPVTG,,T,,M,0.431,N,0.798,K,D*26
$GPGGA,181613.00,4506.13817,N,06839.55346,W,2,08,0.97,40.0,M,-29.0,M,,0000*5B
$GPGSA,A,3,24,12,25,21,23,10,28,32,,,,,1.79,0.97,1.50*0D
$GPGSV,4,1,13,02,07,331,23,10,77,287,40,12,29,107,36,15,05,093,*73
$GPGSV,4,2,13,18,00,183,,21,17,316,33,23,57,148,38,24,39,055,32*77
$GPGSV,4,3,13,25,21,147,14,28,21,220,31,32,52,287,40,46,12,248,*74
$GPGSV,4,4,13,48,15,245,*40
$GPGLL,4506.13817,N,06839.55346,W,181613.00,A,D*7C
$RDENS,7100,5137190,PC
$GPRMC,181614.00,A,4506.13816,N,06839.55363,W,0.526,,180924,,,D*63
$GPVTG,,T,,M,0.526,N,0.974,K,D*2D
$GPGGA,181614.00,4506.13816,N,06839.55363,W,2,08,0.97,40.1,M,-29.0,M,,0000*5B
$GPGSA,A,3,24,12,25,21,23,10,28,32,,,,,1.79,0.97,1.50*0D
$GPGSV,4,1,13,02,07,331,21,10,77,287,40,12,29,107,36,15,05,093,*71
$GPGSV,4,2,13,18,00,183,,21,17,316,33,23,57,148,38,24,39,055,33*76
$GPGSV,4,3,13,25,21,147,16,28,21,220,31,32,52,287,40,46,12,248,*76
$GPGSV,4,4,13,48,15,245,*40
$GPGLL,4506.13816,N,06839.55363,W,181614.00,A,D*7D
$RDENS,7101,5137269,PC
$GPRMC,181615.00,A,4506.13817,N,06839.55385,W,0.600,,180924,,,D*6C
$GPVTG,,T,,M,0.600,N,1.112,K,D*23
$GPGGA,181615.00,4506.13817,N,06839.55385,W,2,08,0.97,40.0,M,-29.0,M,,0000*52
$GPGSA,A,3,24,12,25,21,23,10,28,32,,,,,1.79,0.97,1.50*0D
$GPGSV,4,1,13,02,07,331,20,10,77,287,40,12,29,107,34,15,05,093,*72
$GPGSV,4,2,13,18,00,183,,21,17,316,33,23,56,148,37,24,39,055,31*7A
$GPGSV,4,3,13,25,21,147,15,28,21,220,30,32,52,287,40,46,12,248,*74
$GPGSV,4,4,13,48,15,245,28*4A
$GPGLL,4506.13817,N,06839.55385,W,181615.00,A,D*75
$RDENS,7102,5137347,PC
$GPRMC,181616.00,A,4506.13815,N,06839.55411,W,0.605,,180924,,,D*62
$GPVTG,,T,,M,0.605,N,1.121,K,D*26
$GPGGA,181616.00,4506.13815,N,06839.55411,W,2,09,0.91,40.0,M,-29.0,M,,0000*5E
$GPGSA,A,3,24,12,25,21,23,10,28,32,48,,,,1.68,0.91,1.42*04
$GPGSV,4,1,13,02,07,331,21,10,77,287,40,12,29,107,34,15,05,093,*73
$GPGSV,4,2,13,18,00,183,,21,17,316,33,23,56,148,38,24,39,055,30*74
$GPGSV,4,3,13,25,21,147,16,28,21,220,31,32,52,287,39,46,12,248,*78
$GPGSV,4,4,13,48,15,245,30*43
$GPGLL,4506.13815,N,06839.55411,W,181616.00,A,D*7E
$RDENS,7103,5137426,PC
$RDENS,7104,5137504,PC
$GPRMC,181617.00,A,4506.13816,N,06839.55437,W,0.773,,180924,,,D*64
$GPVTG,,T,,M,0.773,N,1.432,K,D*21
$GPGGA,181617.00,4506.13816,N,06839.55437,W,2,09,0.91,40.0,M,-29.0,M,,0000*58
$GPGSA,A,3,24,12,25,21,23,10,28,32,48,,,,1.68,0.91,1.42*04
$GPGSV,4,1,13,02,07,331,21,10,77,287,40,12,29,107,33,15,05,093,*74
$GPGSV,4,2,13,18,00,183,,21,17,316,32,23,56,148,38,24,39,055,31*74
$GPGSV,4,3,13,25,21,147,14,28,21,220,31,32,52,287,39,46,12,248,*7A
$GPGSV,4,4,13,48,15,245,30*43
$GPGLL,4506.13816,N,06839.55437,W,181617.00,A,D*78
$RDENS,7105,5137583,PC
$GPRMC,181618.00,A,4506.13816,N,06839.55472,W,1.008,316.12,180924,,,D*79
$GPVTG,316.12,T,,M,1.008,N,1.867,K,D*3E
$GPGGA,181618.00,4506.13816,N,06839.55472,W,2,09,0.91,40.1,M,-29.0,M,,0000*57
$GPGSA,A,3,24,12,25,21,23,10,28,32,48,,,,1.68,0.91,1.42*04
$GPGSV,4,1,13,02,07,331,21,10,77,287,40,12,29,107,34,15,05,093,*73
$GPGSV,4,2,13,18,00,183,,21,17,316,32,23,56,148,38,24,39,055,31*74
$GPGSV,4,3,13,25,21,147,13,28,21,220,30,32,52,287,39,46,12,248,*7C
$GPGSV,4,4,13,48,15,245,30*43
$GPGLL,4506.13816,N,06839.55472,W,181618.00,A,D*76
$RDENS,7106,5137662,PC
$GPRMC,181619.00,A,4506.13817,N,06839.55515,W,1.213,288.47,180924,,,D*77
$GPVTG,288.47,T,,M,1.213,N,2.246,K,D*3A
$GPGGA,181619.00,4506.13817,N,06839.55515,W,2,08,0.97,40.1,M,-29.0,M,,0000*50
$GPGSA,A,3,24,12,25,21,23,10,28,32,,,,,1.79,0.97,1.50*0D
$GPGSV,4,1,13,02,07,331,21,10,77,287,40,12,29,107,35,15,05,093,*72
$GPGSV,4,2,13,18,00,183,,21,17,316,33,23,56,148,38,24,39,055,31*75
$GPGSV,4,3,13,25,21,147,13,28,21,220,31,32,52,287,39,46,12,248,*7D
$GPGSV,4,4,13,48,15,245,30*43
$GPGLL,4506.13817,N,06839.55515,W,181619.00,A,D*76
$RDENS,7107,5137741,PC
$RDENS,7108,5137819,PC
$GPRMC,181620.00,A,4506.13816,N,06839.55565,W,1.358,277.72,180924,,,D*73
$GPVTG,277.72,T,,M,1.358,N,2.515,K,D*33
$GPGGA,181620.00,4506.13816,N,06839.55565,W,2,08,0.97,40.2,M,-29.0,M,,0000*5F
$GPGSA,A,3,24,12,25,21,23,10,28,32,,,,,1.79,0.97,1.50*0D
$GPGSV,4,1,13,02,07,331,20,10,77,287,40,12,29,107,34,15,05,093,*72
$GPGSV,4,2,13,18,00,183,,21,17,316,32,23,56,148,38,24,39,055,32*77
$GPGSV,4,3,13,25,21,147,16,28,21,220,30,32,52,287,40,46,12,248,*77
$GPGSV,4,4,13,48,15,245,29*4B
$GPGLL,4506.13816,N,06839.55565,W,181620.00,A,D*7A
$RDENS,7109,5137898,PC
$GPRMC,181621.00,A,4506.13813,N,06839.55621,W,1.514,271.53,180924,,,D*7F
$GPVTG,271.53,T,,M,1.514,N,2.805,K,D*34
$GPGGA,181621.00,4506.13813,N,06839.55621,W,2,08,0.97,40.1,M,-29.0,M,,0000*5B
$GPGSA,A,3,24,12,25,21,23,10,28,32,,,,,1.79,0.97,1.50*0D
$GPGSV,4,1,13,02,07,331,20,10,77,287,40,12,29,107,34,15,05,093,*72
$GPGSV,4,2,13,18,00,183,,21,17,316,30,23,56,148,39,24,39,055,33*75
$GPGSV,4,3,13,25,21,147,19,28,21,220,31,32,52,287,40,46,12,248,*79
$GPGSV,4,4,13,48,15,245,27*45
$GPGLL,4506.13813,N,06839.55621,W,181621.00,A,D*7D
$RDENS,7110,5137977,PC
$GPRMC,181622.00,A,4506.13812,N,06839.55681,W,1.611,269.12,180924,,,D*7D
$GPVTG,269.12,T,,M,1.611,N,2.984,K,D*36
$GPGGA,181622.00,4506.13812,N,06839.55681,W,2,08,0.97,40.1,M,-29.0,M,,0000*53
$GPGSA,A,3,24,12,25,21,23,10,28,32,,,,,1.79,0.97,1.50*0D
$GPGSV,4,1,13,02,07,331,19,10,77,287,41,12,29,107,34,15,05,093,*79
$GPGSV,4,2,13,18,00,183,,21,17,316,28,23,56,148,36,24,39,055,34*74
$GPGSV,4,3,13,25,21,147,19,28,21,220,31,32,52,287,40,46,12,248,*79
$GPGSV,4,4,13,48,15,245,*40
$GPGLL,4506.13812,N,06839.55681,W,181622.00,A,D*75
$RDENS,7111,5138056,PC
$GPRMC,181623.00,A,4506.13806,N,06839.55742,W,1.676,264.64,180924,,,D*7A
$GPVTG,264.64,T,,M,1.676,N,3.104,K,D*3A
$GPGGA,181623.00,4506.13806,N,06839.55742,W,2,08,0.97,40.1,M,-29.0,M,,0000*59
$GPGSA,A,3,24,12,25,21,23,10,28,32,,,,,1.79,0.97,1.50*0D
$GPGSV,4,1,13,02,07,331,20,10,77,287,41,12,29,107,36,15,05,093,*71
$GPGSV,4,2,13,18,00,183,,21,17,316,28,23,56,148,38,24,39,055,35*7B
$GPGSV,4,3,13,25,21,147,18,28,21,220,30,32,52,287,41,46,12,248,*78
$GPGSV,4,4,13,48,15,245,*40
$GPGLL,4506.13806,N,06839.55742,W,181623.00,A,D*7F
$RDENS,7112,5138134,PC
$RDENS,7113,5138213,PC
$GPRMC,181624.00,A,4506.13799,N,06839.55807,W,1.749,262.94,180924,,,D*7E
$GPVTG,262.94,T,,M,1.749,N,3.239,K,D*33
$GPGGA,181624.00,4506.13799,N,06839.55807,W,2,08,0.97,39.9,M,-29.0,M,,0000*5F
$GPGSA,A,3,24,12,25,21,23,10,28,32,,,,,1.79,0.97,1.50*0D
$GPGSV,4,1,13,02,07,331,20,10,77,287,41,12,29,107,35,15,05,093,*72
$GPGSV,4,2,13,18,00,183,,21,17,316,28,23,56,148,38,24,39,055,35*7B
$GPGSV,4,3,13,25,21,147,18,28,21,220,29,32,52,287,41,46,12,248,*70
$GPGSV,4,4,13,48,15,245,*40
$GPGLL,4506.13799,N,06839.55807,W,181624.00,A,D*7F
$RDENS,7114,5138291,PC
$GPRMC,181625.00,A,4506.13790,N,06839.55874,W,1.766,261.31,180924,,,D*73
$GPVTG,261.31,T,,M,1.766,N,3.270,K,D*3F
$GPGGA,181625.00,4506.13790,N,06839.55874,W,2,08,0.97,39.7,M,-29.0,M,,0000*5D
$GPGSA,A,3,24,12,25,21,23,10,28,32,,,,,1.79,0.97,1.50*0D
$GPGSV,4,1,13,02,07,331,19,10,77,287,42,12,29,107,36,15,05,093,*78
$GPGSV,4,2,13,18,00,183,,21,17,316,27,23,56,148,36,24,39,055,35*7A
$GPGSV,4,3,13,25,21,147,20,28,21,220,27,32,52,287,41,46,12,248,*75
$GPGSV,4,4,13,48,15,245,*40
$GPGLL,4506.13790,N,06839.55874,W,181625.00,A,D*73
$RDENS,7115,5138370,PC
$GPRMC,181626.00,A,4506.13781,N,06839.55940,W,1.741,260.72,180924,,,D*75
$GPVTG,260.72,T,,M,1.741,N,3.224,K,D*3D
$GPGGA,181626.00,4506.13781,N,06839.55940,W,2,08,0.97,39.6,M,-29.0,M,,0000*59
$GPGSA,A,3,24,12,25,21,23,10,28,32,,,,,1.79,0.97,1.50*0D
$GPGSV,4,1,13,02,07,331,19,10,77,287,41,12,29,107,37,15,05,093,*7A
$GPGSV,4,2,13,18,00,183,,21,17,316,27,23,56,148,37,24,39,055,36*78
$GPGSV,4,3,13,25,21,147,21,28,21,220,28,32,52,287,43,46,12,248,*79
$GPGSV,4,4,13,48,15,245,*40
$GPGLL,4506.13781,N,06839.55940,W,181626.00,A,D*76
$RDENS,7116,5138449,PC
$GPRMC,181627.00,A,4506.13775,N,06839.56005,W,1.754,260.39,180924,,,D*7F
$GPVTG,260.39,T,,M,1.754,N,3.248,K,D*3C
$GPGGA,181627.00,4506.13775,N,06839.56005,W,2,08,0.97,39.6,M,-29.0,M,,0000*58
$GPGSA,A,3,24,12,25,21,23,10,28,32,,,,,1.79,0.97,1.50*0D
$GPGSV,4,1,13,02,07,331,19,10,77,287,41,12,29,107,37,15,05,093,*7A
$GPGSV,4,2,13,18,00,183,,21,17,316,26,23,56,148,37,24,39,055,37*78
$GPGSV,4,3,13,25,21,147,20,28,21,220,28,32,52,287,43,46,12,248,*78
$GPGSV,4,4,13,48,15,245,*40
$GPGLL,4506.13775,N,06839.56005,W,181627.00,A,D*77
$RDENS,7117,5138527,PC
$RDENS,7118,5138606,PC
$GPRMC,181628.00,A,4506.13769,N,06839.56074,W,1.811,262.22,180924,,,D*7D
$GPVTG,262.22,T,,M,1.811,N,3.354,K,D*36
$GPGGA,181628.00,4506.13769,N,06839.56074,W,2,08,0.97,39.4,M,-29.0,M,,0000*5E
$GPGSA,A,3,24,12,25,21,23,10,28,32,,,,,1.79,0.97,1.50*0D
$GPGSV,4,1,13,02,07,331,19,10,77,287,41,12,29,107,37,15,05,093,*7A
$GPGSV,4,2,13,18,00,183,,21,17,316,24,23,56,148,38,24,39,055,37*75
$GPGSV,4,3,13,25,21,147,19,28,21,220,31,32,52,287,42,46,12,248,*7B
$GPGSV,4,4,13,48,15,245,*40
$GPGLL,4506.13769,N,06839.56074,W,181628.00,A,D*73
$RDENS,7119,5138685,PC
$GPRMC,181629.00,A,4506.13755,N,06839.56149,W,1.976,260.14,180924,,,D*7B
$GPVTG,260.14,T,,M,1.976,N,3.659,K,D*39
$GPGGA,181629.00,4506.13755,N,06839.56149,W,2,08,0.97,39.1,M,-29.0,M,,0000*5A
$GPGSA,A,3,24,12,25,21,23,10,28,32,,,,,1.79,0.97,1.50*0D
$GPGSV,4,1,13,02,07,331,18,10,77,287,42,12,29,107,37,15,05,093,*78
$GPGSV,4,2,13,18,00,183,,21,17,316,25,23,56,148,40,24,39,055,37*7B
$GPGSV,4,3,13,25,21,147,18,28,21,220,35,32,52,287,42,46,12,248,*7E
$GPGSV,4,4,13,48,15,245,*40
$GPGLL,4506.13755,N,06839.56149,W,181629.00,A,D*72
$RDENS,7120,5138763,PC
$GPRMC,181630.00,A,4506.13742,N,06839.56225,W,2.026,259.25,180924,,,D*7B
$GPVTG,259.25,T,,M,2.026,N,3.752,K,D*34
$GPGGA,181630.00,4506.13742,N,06839.56225,W,2,08,0.97,38.9,M,-29.0,M,,0000*54
$GPGSA,A,3,24,12,25,21,23,10,28,32,,,,,1.79,0.97,1.50*0D
$GPGSV,4,1,13,02,07,331,20,10,77,287,40,12,29,107,37,15,05,093,*71
$GPGSV,4,2,13,18,00,183,,21,17,316,25,23,56,148,38,24,39,055,37*74
$GPGSV,4,3,13,25,21,147,17,28,21,220,32,32,52,287,39,46,12,248,*7A
$GPGSV,4,4,13,48,15,245,*40
$GPGLL,4506.13742,N,06839.56225,W,181630.00,A,D*75
$RDENS,7121,5138842,PC
$RDENS,7122,5138921,PC
$GPRMC,181631.00,A,4506.13729,N,06839.56302,W,2.122,257.70,180924,,,D*78
$GPVTG,257.70,T,,M,2.122,N,3.930,K,D*35
$GPGGA,181631.00,4506.13729,N,06839.56302,W,2,08,0.97,38.9,M,-29.0,M,,0000*5C
$GPGSA,A,3,24,12,25,21,23,10,28,32,,,,,1.79,0.97,1.50*0D
$GPGSV,4,1,13,02,07,331,19,10,77,287,37,12,29,107,35,15,05,093,*79
$GPGSV,4,2,13,18,00,183,,21,17,316,24,23,56,148,39,24,39,055,35*76
$GPGSV,4,3,13,25,21,147,18,28,21,220,32,32,52,287,38,46,12,248,*74
$GPGSV,4,4,13,48,15,245,*40
$GPGLL,4506.13729,N,06839.56302,W,181631.00,A,D*7D
$RDENS,7123,5138999,PC
$GPRMC,181632.00,A,4506.13711,N,06839.56381,W,2.195,255.73,180924,,,D*76
$GPVTG,255.73,T,,M,2.195,N,4.064,K,D*37
$GPGGA,181632.00,4506.13711,N,06839.56381,W,2,08,0.97,38.9,M,-29.0,M,,0000*5F
$GPGSA,A,3,24,12,25,21,23,10,28,32,,,,,1.79,0.97,1.50*0D
$GPGSV,4,1,13,02,07,331,20,10,77,287,38,12,29,107,33,15,05,093,*7A
$GPGSV,4,2,13,18,00,183,,21,17,316,25,23,56,148,41,24,39,055,35*78
$GPGSV,4,3,13,25,21,147,19,28,21,220,30,32,52,287,36,46,12,248,*79
$GPGSV,4,4,13,48,15,245,*40
$GPGLL,4506.13711,N,06839.56381,W,181632.00,A,D*7E
$RDENS,7124,5139079,PC
$GPRMC,181633.00,A,4506.13687,N,06839.56461,W,2.322,250.83,180924,,,D*74
$GPVTG,250.83,T,,M,2.322,N,4.300,K,D*32
$GPGGA,181633.00,4506.13687,N,06839.56461,W,2,08,0.97,38.9,M,-29.0,M,,0000*59
$GPGSA,A,3,24,12,25,21,23,10,28,32,,,,,1.79,0.97,1.50*0D
$GPGSV,4,1,13,02,07,331,18,10,77,287,39,12,29,107,35,15,05,093,*76
$GPGSV,4,2,13,18,00,183,,21,17,316,26,23,56,148,41,24,39,055,36*78
$GPGSV,4,3,13,25,21,147,21,28,21,220,28,32,52,287,35,46,12,248,*78
$GPGSV,4,4,13,48,15,245,*40
$GPGLL,4506.13687,N,06839.56461,W,181633.00,A,D*78
$RDENS,7125,5139157,PC
$GPRMC,181634.00,A,4506.13662,N,06839.56541,W,2.259,248.78,180924,,,D*7B
$GPVTG,248.78,T,,M,2.259,N,4.183,K,D*3B
$GPGGA,181634.00,4506.13662,N,06839.56541,W,2,08,0.97,38.9,M,-29.0,M,,0000*56
$GPGSA,A,3,24,12,25,21,23,10,28,32,,,,,1.79,0.97,1.50*0D
$GPGSV,4,1,13,02,07,331,17,10,77,287,39,12,29,107,35,15,05,093,*79
$GPGSV,4,2,13,18,00,183,,21,17,316,28,23,56,148,42,24,39,055,36*75
$GPGSV,4,3,13,25,21,147,22,28,21,220,27,32,52,287,35,46,12,248,*74
$GPGSV,4,4,13,48,15,245,*40
$GPGLL,4506.13662,N,06839.56541,W,181634.00,A,D*77
$RDENS,7126,5139236,PC
$RDENS,7127,5139315,PC
$GPRMC,181635.00,A,4506.13637,N,06839.56619,W,2.248,245.61,180924,,,D*71
$GPVTG,245.61,T,,M,2.248,N,4.164,K,D*37
$GPGGA,181635.00,4506.13637,N,06839.56619,W,2,08,0.97,38.9,M,-29.0,M,,0000*59
$GPGSA,A,3,24,12,25,21,23,10,28,32,,,,,1.79,0.97,1.50*0D
$GPGSV,4,1,13,02,07,331,16,10,77,287,38,12,29,107,35,15,05,093,*79
$GPGSV,4,2,13,18,00,183,,21,17,316,28,23,56,148,41,24,39,055,36*76
$GPGSV,4,3,13,25,21,147,20,28,21,220,27,32,52,287,37,46,12,248,*74
$GPGSV,4,4,13,48,15,245,*40
$GPGLL,4506.13637,N,06839.56619,W,181635.00,A,D*78
$RDENS,7128,5139393,PC
$GPRMC,181636.00,A,4506.13604,N,06839.56696,W,2.278,242.05,180924,,,D*73
$GPVTG,242.05,T,,M,2.278,N,4.219,K,D*38
$GPGGA,181636.00,4506.13604,N,06839.56696,W,2,08,0.97,38.8,M,-29.0,M,,0000*5C
$GPGSA,A,3,24,12,25,21,23,10,28,32,,,,,1.79,0.97,1.50*0D
$GPGSV,4,1,13,02,07,331,16,10,77,287,38,12,29,107,34,15,05,093,12*7B
$GPGSV,4,2,13,18,00,183,,21,17,316,26,23,56,148,41,24,39,055,34*7A
$GPGSV,4,3,13,25,21,147,19,28,21,220,27,32,52,287,37,46,12,248,*7E
$GPGSV,4,4,13,48,15,245,*40
$GPGLL,4506.13604,N,06839.56696,W,181636.00,A,D*7C
$RDENS,7129,5139473,PC
$GPRMC,181637.00,A,4506.13566,N,06839.56769,W,2.245,238.72,180924,,,D*77
$GPVTG,238.72,T,,M,2.245,N,4.158,K,D*3D
$GPGGA,181637.00,4506.13566,N,06839.56769,W,2,08,0.97,38.8,M,-29.0,M,,0000*5B
$GPGSA,A,3,24,12,25,21,23,10,28,32,,,,,1.79,0.97,1.50*0D
$GPGSV,4,1,13,02,07,331,17,10,77,287,38,12,29,107,35,15,05,093,11*78
$GPGSV,4,2,13,18,00,183,,21,17,316,26,23,56,148,41,24,39,055,35*7B
$GPGSV,4,3,13,25,21,147,21,28,21,220,25,32,52,287,39,46,12,248,*79
$GPGSV,4,4,13,48,15,245,*40
$GPGLL,4506.13566,N,06839.56769,W,181637.00,A,D*7B
$RDENS,7130,5139551,PC
$GPRMC,181638.00,A,4506.13528,N,06839.56838,W,2.200,234.52,180924,,,D*76
$GPVTG,234.52,T,,M,2.200,N,4.074,K,D*3D
$GPGGA,181638.00,4506.13528,N,06839.56838,W,2,08,0.97,38.6,M,-29.0,M,,0000*5B
$GPGSA,A,3,24,12,25,21,23,10,28,32,,,,,1.79,0.97,1.50*0D
$GPGSV,4,1,13,02,07,331,19,10,77,287,37,12,29,107,37,15,05,093,09*72
$GPGSV,4,2,13,18,00,183,,21,17,316,27,23,56,148,41,24,39,055,35*7A
$GPGSV,4,3,13,25,21,147,20,28,21,220,24,32,52,287,39,46,12,248,*79
$GPGSV,4,4,13,48,15,245,*40
$GPGLL,4506.13528,N,06839.56838,W,181638.00,A,D*75
$RDENS,7131,5139629,PC
$RDENS,7132,5139709,PC
$GPRMC,181639.00,A,4506.13491,N,06839.56901,W,2.146,231.08,180924,,,D*74
$GPVTG,231.08,T,,M,2.146,N,3.974,K,D*38
$GPGGA,181639.00,4506.13491,N,06839.56901,W,2,08,0.97,38.6,M,-29.0,M,,0000*52
$GPGSA,A,3,24,12,25,21,23,10,28,32,,,,,1.79,0.97,1.51*0C
$GPGSV,4,1,13,02,07,331,20,10,77,287,37,12,29,107,35,15,05,093,08*7B
$GPGSV,4,2,13,18,00,183,,21,17,316,27,23,56,148,41,24,39,055,36*79
$GPGSV,4,3,13,25,21,147,20,28,21,220,22,32,52,287,38,46,12,248,*7E
$GPGSV,4,4,13,48,15,245,*40
$GPGLL,4506.13491,N,06839.56901,W,181639.00,A,D*7C
$RDENS,7133,5139787,PC
$GPRMC,181640.00,A,4506.13454,N,06839.56961,W,2.102,228.71,180924,,,D*73
$GPVTG,228.71,T,,M,2.102,N,3.893,K,D*36
$GPGGA,181640.00,4506.13454,N,06839.56961,W,2,08,0.97,38.4,M,-29.0,M,,0000*51
$GPGSA,A,3,24,12,25,21,23,10,28,32,,,,,1.79,0.97,1.51*0C
$GPGSV,4,1,13,02,07,331,22,10,77,287,37,12,29,107,32,15,05,093,08*7E
$GPGSV,4,2,13,18,00,183,,21,17,316,28,23,56,148,41,24,39,055,37*77
$GPGSV,4,3,13,25,21,147,19,28,21,220,21,32,52,287,35,46,12,248,*7A
$GPGSV,4,4,13,48,15,245,*40
$GPGLL,4506.13454,N,06839.56961,W,181640.00,A,D*7D
$RDENS,7134,5139866,PC
$GPRMC,181641.00,A,4506.13419,N,06839.57014,W,2.040,226.16,180924,,,D*79
$GPVTG,226.16,T,,M,2.040,N,3.777,K,D*3B
$GPGGA,181641.00,4506.13419,N,06839.57014,W,2,08,0.97,38.4,M,-29.0,M,,0000*53
$GPGSA,A,3,24,12,25,21,23,10,28,32,,,,,1.79,0.97,1.51*0C
$GPGSV,4,1,13,02,07,331,21,10,77,287,36,12,29,107,35,15,05,093,08*7B
$GPGSV,4,2,13,18,00,183,,21,17,316,31,23,56,148,40,24,39,055,37*7E
$GPGSV,4,3,13,25,21,147,19,28,21,220,20,32,52,287,34,46,12,248,*7A
$GPGSV,4,4,13,48,15,245,*40
$GPGLL,4506.13419,N,06839.57014,W,181641.00,A,D*7F
$RDENS,7135,5139944,PC
$RDENS,7136,5140023,PC
$GPRMC,181642.00,A,4506.13385,N,06839.57064,W,1.898,223.86,180924,,,D*7D
$GPVTG,223.86,T,,M,1.898,N,3.515,K,D*3F
$GPGGA,181642.00,4506.13385,N,06839.57064,W,2,08,0.97,38.4,M,-29.0,M,,0000*55
$GPGSA,A,3,24,12,25,21,23,10,28,32,,,,,1.79,0.97,1.51*0C
$GPGSV,4,1,13,02,07,331,23,10,77,287,37,12,29,107,30,15,05,093,08*7D
$GPGSV,4,2,13,18,00,183,,21,17,316,34,23,56,148,41,24,39,055,34*79
$GPGSV,4,3,13,25,21,147,18,28,21,220,19,32,52,287,37,46,12,248,*72
$GPGSV,4,4,13,48,15,245,*40
$GPGLL,4506.13385,N,06839.57064,W,181642.00,A,D*79
$RDENS,7137,5140102,PC
$GPRMC,181643.00,A,4506.13348,N,06839.57113,W,1.981,221.88,180924,,,D*79
$GPVTG,221.88,T,,M,1.981,N,3.669,K,D*32
$GPGGA,181643.00,4506.13348,N,06839.57113,W,2,08,0.97,38.5,M,-29.0,M,,0000*55
$GPGSA,A,3,24,12,25,21,23,10,28,32,,,,,1.79,0.97,1.51*0C
$GPGSV,4,1,13,02,07,331,23,10,77,287,35,12,29,107,29,15,05,093,*7F
$GPGSV,4,2,13,18,00,183,,21,17,316,33,23,56,148,40,24,39,055,34*7F
$GPGSV,4,3,13,25,21,147,19,28,21,220,20,32,52,287,36,46,12,248,*78
