$GPRMC,184038.00,A,4506.04420,N,06839.86749,W,0.910,354.49,180924,,,A*7E
$GPVTG,354.49,T,,M,0.910,N,1.685,K,A*30
$GPGGA,184038.00,4506.04420,N,06839.86749,W,1,08,0.99,39.3,M,-29.0,M,,*5A
$GPGSA,A,3,24,12,25,21,23,10,28,32,,,,,2.04,0.99,1.78*00
$GPGSV,3,1,11,02,11,323,,10,80,223,35,12,35,095,39,21,19,307,21*78
$GPGSV,3,2,11,23,44,153,39,24,28,055,26,25,31,140,31,28,32,225,32*71
$GPGSV,3,3,11,32,61,299,40,46,12,248,,48,15,245,*4D
$GPGLL,4506.04420,N,06839.86749,W,184038.00,A,A*78
$RDENS,8962,5283717,PC
$GPRMC,184039.00,A,4506.04442,N,06839.86755,W,0.883,353.48,180924,,,A*7B
$GPVTG,353.48,T,,M,0.883,N,1.635,K,A*36
$GPGGA,184039.00,4506.04442,N,06839.86755,W,1,08,0.99,39.3,M,-29.0,M,,*52
$GPGSA,A,3,24,12,25,21,23,10,28,32,,,,,2.04,0.99,1.78*00
$GPGSV,3,1,11,02,11,323,,10,80,223,37,12,35,095,40,21,19,307,20*75
$GPGSV,3,2,11,23,44,153,39,24,28,055,27,25,31,140,30,28,32,225,32*71
$GPGSV,3,3,11,32,61,299,39,46,12,248,,48,15,245,*43
$GPGLL,4506.04442,N,06839.86755,W,184039.00,A,A*70
$RDENS,8963,5283795,PC
$GPRMC,184040.00,A,4506.04467,N,06839.86760,W,1.018,353.16,180924,,,A*74
$GPVTG,353.16,T,,M,1.018,N,1.885,K,A*33
$GPGGA,184040.00,4506.04467,N,06839.86760,W,1,08,0.99,39.1,M,-29.0,M,,*5F
$GPGSA,A,3,24,12,25,21,23,10,28,32,,,,,2.04,0.99,1.78*00
$GPGSV,3,1,11,02,11,323,,10,80,223,34,12,35,095,39,21,19,307,22*7A
$GPGSV,3,2,11,23,44,153,38,24,28,055,29,25,31,140,29,28,32,225,23*76
$GPGSV,3,3,11,32,61,299,37,46,12,248,,48,15,245,*4D
$GPGLL,4506.04467,N,06839.86760,W,184040.00,A,A*7F
$RDENS,8964,5283875,PC
$GPRMC,184041.00,A,4506.04491,N,06839.86763,W,0.827,,180924,,,A*66
$GPVTG,,T,,M,0.827,N,1.532,K,A*2B
$GPGGA,184041.00,4506.04491,N,06839.86763,W,1,08,0.99,39.1,M,-29.0,M,,*54
$GPGSA,A,3,24,12,25,21,23,10,28,32,,,,,2.04,0.99,1.78*00
$GPGSV,3,1,11,02,11,323,,10,80,223,35,12,35,095,41,21,19,307,21*77
$GPGSV,3,2,11,23,44,153,39,24,28,055,28,25,31,140,31,28,32,225,23*7F
$GPGSV,3,3,11,32,61,299,39,46,12,248,,48,15,245,*43
$GPGLL,4506.04491,N,06839.86763,W,184041.00,A,A*74
$RDENS,8965,5283953,PC
$GPRMC,184042.00,A,4506.04513,N,06839.86762,W,0.814,354.62,180924,,,A*77
$GPVTG,354.62,T,,M,0.814,N,1.507,K,A*35
$GPGGA,184042.00,4506.04513,N,06839.86762,W,1,08,0.99,39.1,M,-29.0,M,,*5D
$GPGSA,A,3,24,12,25,21,23,10,28,32,,,,,2.04,0.99,1.78*00
$GPGSV,3,1,11,02,11,323,,10,80,223,35,12,35,095,42,21,19,307,21*74
$GPGSV,3,2,11,23,44,153,38,24,28,055,27,25,31,140,33,28,32,225,25*75
$GPGSV,3,3,11,32,61,299,40,46,12,248,,48,15,245,*4D
$GPGLL,4506.04513,N,06839.86762,W,184042.00,A,A*7D
$RDENS,8966,5284032,PC
$RDENS,8967,5284111,PC
$GPRMC,184043.00,A,4506.04537,N,06839.86757,W,0.804,357.07,180924,,,A*77
$GPVTG,357.07,T,,M,0.804,N,1.489,K,A*33
$GPGGA,184043.00,4506.04537,N,06839.86757,W,1,08,0.99,39.2,M,-29.0,M,,*5F
$GPGSA,A,3,24,12,25,21,23,10,28,32,,,,,2.04,0.99,1.78*00
$GPGSV,3,1,11,02,11,323,,10,80,223,37,12,35,095,40,21,19,307,30*74
$GPGSV,3,2,11,23,44,153,39,24,28,055,25,25,31,140,34,28,32,225,32*77
$GPGSV,3,3,11,32,61,299,40,46,12,248,,48,15,245,*4D
$GPGLL,4506.04537,N,06839.86757,W,184043.00,A,A*7C
$RDENS,8968,5284190,PC
$GPRMC,184044.00,A,4506.04558,N,06839.86753,W,0.845,2.98,180924,,,A*7D
$GPVTG,2.98,T,,M,0.845,N,1.565,K,A*30
$GPGGA,184044.00,4506.04558,N,06839.86753,W,1,08,0.99,39.2,M,-29.0,M,,*55
$GPGSA,A,3,24,12,25,21,23,10,28,32,,,,,2.04,0.99,1.78*00
$GPGSV,3,1,11,02,11,323,,10,80,223,37,12,35,095,37,21,19,307,28*7D
$GPGSV,3,2,11,23,44,153,39,24,28,055,22,25,31,140,35,28,32,225,30*73
$GPGSV,3,3,11,32,61,299,40,46,12,248,,48,15,245,*4D
$GPGLL,4506.04558,N,06839.86753,W,184044.00,A,A*76
$RDENS,8969,5284268,PC
$GPRMC,184045.00,A,4506.04579,N,06839.86748,W,0.798,5.04,180924,,,A*78
$GPVTG,5.04,T,,M,0.798,N,1.478,K,A*30
$GPGGA,184045.00,4506.04579,N,06839.86748,W,1,08,0.99,39.2,M,-29.0,M,,*5D
$GPGSA,A,3,24,12,25,21,23,10,28,32,,,,,2.04,0.99,1.78*00
$GPGSV,3,1,11,02,11,323,,10,80,223,36,12,35,095,34,21,19,307,28*7F
$GPGSV,3,2,11,23,44,153,38,24,28,055,19,25,31,140,34,28,32,225,30*7B
$GPGSV,3,3,11,32,61,299,40,46,12,248,,48,15,245,*4D
$GPGLL,4506.04579,N,06839.86748,W,184045.00,A,A*7E
$RDENS,8970,5284347,PC
$GPRMC,184046.00,A,4506.04596,N,06839.86739,W,0.620,,180924,,,A*61
$GPVTG,,T,,M,0.620,N,1.147,K,A*24
$GPGGA,184046.00,4506.04596,N,06839.86739,W,1,08,0.99,39.3,M,-29.0,M,,*58
$GPGSA,A,3,24,12,25,21,23,10,28,32,,,,,2.04,0.99,1.78*00
$GPGSV,3,1,11,02,11,323,,10,80,223,36,12,35,095,30,21,19,307,34*76
$GPGSV,3,2,11,23,44,153,38,24,28,055,23,25,31,140,34,28,32,225,31*73
$GPGSV,3,3,11,32,61,299,40,46,12,248,,48,15,245,*4D
$GPGLL,4506.04596,N,06839.86739,W,184046.00,A,A*7A
$RDENS,8971,5284426,PC
$RDENS,8972,5284505,PC
$GPRMC,184047.00,A,4506.04616,N,06839.86722,W,0.959,18.44,180924,,,A*47
$GPVTG,18.44,T,,M,0.959,N,1.776,K,A*06
$GPGGA,184047.00,4506.04616,N,06839.86722,W,1,08,0.99,39.3,M,-29.0,M,,*58
$GPGSA,A,3,24,12,25,21,23,10,28,32,,,,,2.04,0.99,1.78*00
$GPGSV,3,1,11,02,11,323,,10,80,223,36,12,35,095,20,21,19,307,33*70
$GPGSV,3,2,11,23,44,153,38,24,28,055,23,25,31,140,34,28,32,225,30*72
$GPGSV,3,3,11,32,61,299,42,46,12,248,,48,15,245,*4F
$GPGLL,4506.04616,N,06839.86722,W,184047.00,A,A*7A
$RDENS,8973,5284583,PC
$GPRMC,184048.00,A,4506.04635,N,06839.86705,W,0.919,26.27,180924,,,A*40
$GPVTG,26.27,T,,M,0.919,N,1.703,K,A*08
$GPGGA,184048.00,4506.04635,N,06839.86705,W,1,08,0.99,39.2,M,-29.0,M,,*52
$GPGSA,A,3,24,12,25,21,23,10,28,32,,,,,2.04,0.99,1.78*00
$GPGSV,3,1,11,02,11,323,,10,80,223,36,12,35,095,20,21,19,307,34*77
$GPGSV,3,2,11,23,44,153,36,24,28,055,21,25,31,140,34,28,32,225,29*76
$GPGSV,3,3,11,32,61,299,42,46,12,248,,48,15,245,*4F
$GPGLL,4506.04635,N,06839.86705,W,184048.00,A,A*71
$RDENS,8974,5284662,PC
$GPRMC,184049.00,A,4506.04643,N,06839.86695,W,0.739,33.73,180924,,,A*41
$GPVTG,33.73,T,,M,0.739,N,1.369,K,A*09
$GPGGA,184049.00,4506.04643,N,06839.86695,W,1,08,0.99,39.3,M,-29.0,M,,*5B
$GPGSA,A,3,24,12,25,21,23,10,28,32,,,,,2.04,0.99,1.78*00
$GPGSV,3,1,11,02,11,323,,10,80,223,35,12,35,095,29,21,19,307,32*7B
$GPGSV,3,2,11,23,44,153,36,24,28,055,20,25,31,140,36,28,32,225,28*74
$GPGSV,3,3,11,32,61,299,42,46,12,248,,48,15,245,*4F
$GPGLL,4506.04643,N,06839.86695,W,184049.00,A,A*79
$RDENS,8975,5284740,PC
$RDENS,8976,5284819,PC
$GPRMC,184050.00,A,4506.04651,N,06839.86680,W,0.501,,180924,,,A*6D
$GPVTG,,T,,M,0.501,N,0.928,K,A*24
$GPGGA,184050.00,4506.04651,N,06839.86680,W,1,08,0.99,39.5,M,-29.0,M,,*52
$GPGSA,A,3,24,12,25,21,23,10,28,32,,,,,2.04,0.99,1.78*00
$GPGSV,3,1,11,02,12,323,,10,80,223,35,12,35,095,30,21,19,307,31*73
$GPGSV,3,2,11,23,44,153,35,24,28,055,22,25,31,140,36,28,32,225,10*7E
$GPGSV,3,3,11,32,61,299,43,46,12,248,,48,15,245,*4E
$GPGLL,4506.04651,N,06839.86680,W,184050.00,A,A*76
$RDENS,8977,5284898,PC
$GPRMC,184051.00,A,4506.04658,N,06839.86671,W,0.473,,180924,,,A*6F
$GPVTG,,T,,M,0.473,N,0.876,K,A*2A
$GPGGA,184051.00,4506.04658,N,06839.86671,W,1,07,1.25,39.5,M,-29.0,M,,*5D
$GPGSA,A,3,24,12,25,21,23,10,32,,,,,,2.32,1.25,1.95*0A
$GPGSV,3,1,11,02,12,323,,10,80,223,35,12,35,095,36,21,19,307,30*74
$GPGSV,3,2,11,23,44,153,38,24,28,055,22,25,31,140,38,28,32,225,*7C
$GPGSV,3,3,11,32,61,299,42,46,12,248,,48,15,245,*4F
$GPGLL,4506.04658,N,06839.86671,W,184051.00,A,A*70
$RDENS,8978,5284977,PC
$GPRMC,184052.00,A,4506.04667,N,06839.86650,W,0.592,,180924,,,A*6D
$GPVTG,,T,,M,0.592,N,1.096,K,A*23
$GPGGA,184052.00,4506.04667,N,06839.86650,W,1,07,1.25,39.5,M,-29.0,M,,*51
$GPGSA,A,3,24,12,25,21,23,10,32,,,,,,2.32,1.25,1.95*0A
$GPGSV,3,1,11,02,12,323,,10,80,223,36,12,35,095,33,21,19,307,30*72
$GPGSV,3,2,11,23,44,153,39,24,28,055,20,25,31,140,38,28,32,225,19*77
$GPGSV,3,3,11,32,61,299,42,46,12,248,,48,15,245,*4F
$GPGLL,4506.04667,N,06839.86650,W,184052.00,A,A*7C
$RDENS,8979,5285055,PC
$GPRMC,184053.00,A,4506.04674,N,06839.86633,W,0.490,,180924,,,A*68
$GPVTG,,T,,M,0.490,N,0.908,K,A*2F
$GPGGA,184053.00,4506.04674,N,06839.86633,W,1,07,1.25,39.5,M,-29.0,M,,*57
$GPGSA,A,3,24,12,25,21,23,10,32,,,,,,2.32,1.25,1.95*0A
$GPGSV,3,1,11,02,12,323,,10,80,223,36,12,35,095,34,21,19,307,29*7D
$GPGSV,3,2,11,23,44,153,39,24,28,055,18,25,31,140,38,28,32,225,20*76
$GPGSV,3,3,11,32,61,299,42,46,12,248,,48,15,245,*4F
$GPGLL,4506.04674,N,06839.86633,W,184053.00,A,A*7A
$RDENS,8980,5285133,PC
$RDENS,8981,5285213,PC
$GPRMC,184054.00,A,4506.04677,N,06839.86613,W,0.554,,180924,,,A*67
$GPVTG,,T,,M,0.554,N,1.025,K,A*21
$GPGGA,184054.00,4506.04677,N,06839.86613,W,1,07,1.25,39.6,M,-29.0,M,,*52
$GPGSA,A,3,24,12,25,21,23,10,32,,,,,,2.32,1.25,1.95*0A
$GPGSV,3,1,11,02,12,323,,10,80,223,35,12,35,095,34,21,19,307,28*7F
$GPGSV,3,2,11,23,44,153,39,24,28,055,19,25,31,140,38,28,32,225,20*77
$GPGSV,3,3,11,32,61,299,42,46,12,248,,48,15,245,*4F
$GPGLL,4506.04677,N,06839.86613,W,184054.00,A,A*7C
$RDENS,8982,5285291,PC
$GPRMC,184055.00,A,4506.04678,N,06839.86594,W,0.446,,180924,,,A*67
$GPVTG,,T,,M,0.446,N,0.826,K,A*29
$GPGGA,184055.00,4506.04678,N,06839.86594,W,1,08,0.99,39.8,M,-29.0,M,,*57
$GPGSA,A,3,24,12,25,21,23,10,28,32,,,,,2.04,0.99,1.79*01
$GPGSV,3,1,11,02,12,323,,10,80,223,35,12,35,095,30,21,19,307,27*74
$GPGSV,3,2,11,23,44,153,39,24,28,055,22,25,31,140,36,28,32,225,20*71
$GPGSV,3,3,11,32,61,299,41,46,12,248,,48,15,245,*4C
$GPGLL,4506.04678,N,06839.86594,W,184055.00,A,A*7E
$RDENS,8983,5285370,PC
$GPRMC,184056.00,A,4506.04678,N,06839.86578,W,0.441,,180924,,,A*61
$GPVTG,,T,,M,0.441,N,0.818,K,A*23
$GPGGA,184056.00,4506.04678,N,06839.86578,W,1,08,0.99,39.9,M,-29.0,M,,*57
$GPGSA,A,3,24,12,25,21,23,10,28,32,,,,,2.04,0.99,1.79*01
$GPGSV,3,1,11,02,12,323,21,10,80,223,34,12,35,095,30,21,19,307,26*77
$GPGSV,3,2,11,23,44,153,39,24,28,055,31,25,31,140,36,28,32,225,31*73
$GPGSV,3,3,11,32,61,299,41,46,12,248,,48,15,245,*4C
$GPGLL,4506.04678,N,06839.86578,W,184056.00,A,A*7F
$RDENS,8984,5285449,PC
$GPRMC,184057.00,A,4506.04681,N,06839.86559,W,0.307,,180924,,,A*60
$GPVTG,,T,,M,0.307,N,0.568,K,A*2C
$GPGGA,184057.00,4506.04681,N,06839.86559,W,1,08,0.99,40.0,M,-29.0,M,,*54
$GPGSA,A,3,24,12,25,21,23,10,28,32,,,,,2.04,0.99,1.79*01
$GPGSV,3,1,11,02,12,323,18,10,80,223,35,12,35,095,31,21,19,307,25*7E
$GPGSV,3,2,11,23,44,153,38,24,28,055,32,25,31,140,35,28,32,225,32*71
$GPGSV,3,3,11,32,61,299,42,46,12,248,,48,15,245,*4F
$GPGLL,4506.04681,N,06839.86559,W,184057.00,A,A*7B
$RDENS,8985,5285527,PC
$RDENS,8986,5285606,PC
$GPRMC,184058.00,A,4506.04682,N,06839.86540,W,0.277,,180924,,,A*62
$GPVTG,,T,,M,0.277,N,0.512,K,A*27
$GPGGA,184058.00,4506.04682,N,06839.86540,W,1,08,0.99,40.1,M,-29.0,M,,*51
$GPGSA,A,3,24,12,25,21,23,10,28,32,,,,,2.04,0.99,1.79*01
$GPGSV,3,1,11,02,12,323,13,10,80,222,35,12,35,095,32,21,19,307,26*74
$GPGSV,3,2,11,23,44,153,37,24,28,055,32,25,31,140,35,28,32,225,33*7F
$GPGSV,3,3,11,32,61,299,40,46,12,248,,48,15,245,*4D
$GPGLL,4506.04682,N,06839.86540,W,184058.00,A,A*7F
$RDENS,8987,5285685,PC
$GPRMC,184059.00,A,4506.04684,N,06839.86527,W,0.176,,180924,,,A*66
$GPVTG,,T,,M,0.176,N,0.326,K,A*24
$GPGGA,184059.00,4506.04684,N,06839.86527,W,1,08,0.99,39.9,M,-29.0,M,,*51
$GPGSA,A,3,24,12,25,21,23,10,28,32,,,,,2.04,0.99,1.79*01
$GPGSV,3,1,11,02,12,323,09,10,80,222,36,12,35,095,33,21,19,307,24*7F
$GPGSV,3,2,11,23,44,153,37,24,28,055,33,25,31,140,36,28,32,225,28*77
$GPGSV,3,3,11,32,61,299,40,46,12,248,,48,15,245,*4D
$GPGLL,4506.04684,N,06839.86527,W,184059.00,A,A*79
$RDENS,8988,5285763,PC
$GPRMC,184100.00,A,4506.04678,N,06839.86525,W,0.234,,180924,,,A*6F
$GPVTG,,T,,M,0.234,N,0.434,K,A*25
$GPGGA,184100.00,4506.04678,N,06839.86525,W,1,08,0.99,39.8,M,-29.0,M,,*5C
$GPGSA,A,3,24,12,25,21,23,10,28,32,,,,,2.04,0.99,1.79*01
$GPGSV,3,1,11,02,12,323,08,10,80,222,35,12,35,094,36,21,19,307,23*7E
$GPGSV,3,2,11,23,44,153,36,24,28,055,34,25,31,140,32,28,32,225,27*7A
$GPGSV,3,3,11,32,61,299,41,46,12,248,,48,15,245,*4C
$GPGLL,4506.04678,N,06839.86525,W,184100.00,A,A*75
$RDENS,8989,5285842,PC
$RDENS,8990,5285920,PC
$GPRMC,184101.00,A,4506.04685,N,06839.86505,W,0.416,,180924,,,A*68
$GPVTG,,T,,M,0.416,N,0.770,K,A*20
$GPGGA,184101.00,4506.04685,N,06839.86505,W,1,08,0.99,39.6,M,-29.0,M,,*53
$GPGSA,A,3,24,12,25,21,23,10,28,32,,,,,2.04,0.99,1.79*01
$GPGSV,3,1,11,02,12,323,07,10,80,222,35,12,35,094,33,21,19,307,24*73
$GPGSV,3,2,11,23,44,153,36,24,28,055,33,25,31,140,31,28,32,225,26*7F
$GPGSV,3,3,11,32,61,299,40,46,12,248,,48,15,245,*4D
$GPGLL,4506.04685,N,06839.86505,W,184101.00,A,A*74
$RDENS,8991,5285999,PC
$GPRMC,184102.00,A,4506.04694,N,06839.86483,W,0.421,,180924,,,A*60
$GPVTG,,T,,M,0.421,N,0.780,K,A*2B
$GPGGA,184102.00,4506.04694,N,06839.86483,W,1,09,0.95,39.6,M,-29.0,M,,*52
$GPGSA,A,3,24,12,25,21,23,10,02,28,32,,,,1.86,0.95,1.60*0E
$GPGSV,3,1,11,02,12,323,07,10,80,222,35,12,35,094,33,21,19,307,24*73
$GPGSV,3,2,11,23,44,153,36,24,28,055,33,25,31,140,32,28,32,225,27*7D
$GPGSV,3,3,11,32,61,299,41,46,12,248,,48,15,245,*4C
$GPGLL,4506.04694,N,06839.86483,W,184102.00,A,A*78
$RDENS,8992,5286078,PC
$GPRMC,184103.00,A,4506.04705,N,06839.86457,W,0.441,,180924,,,A*67
$GPVTG,,T,,M,0.441,N,0.817,K,A*2C
$GPGGA,184103.00,4506.04705,N,06839.86457,W,1,09,0.95,39.8,M,-29.0,M,,*5D
$GPGSA,A,3,24,12,25,21,23,10,02,28,32,,,,1.86,0.95,1.60*0E
$GPGSV,3,1,11,02,12,323,07,10,80,222,35,12,35,094,33,21,19,307,24*73
$GPGSV,3,2,11,23,44,153,36,24,28,055,34,25,31,140,33,28,32,225,30*7D
$GPGSV,3,3,11,32,61,299,41,46,12,248,,48,15,245,*4C
$GPGLL,4506.04705,N,06839.86457,W,184103.00,A,A*79
$RDENS,8993,5286156,PC
$GPRMC,184104.00,A,4506.04713,N,06839.86441,W,0.267,,180924,,,A*62
$GPVTG,,T,,M,0.267,N,0.495,K,A*28
$GPGGA,184104.00,4506.04713,N,06839.86441,W,1,09,0.95,39.9,M,-29.0,M,,*5B
$GPGSA,A,3,24,12,25,21,23,10,02,28,32,,,,1.86,0.95,1.60*0E
$GPGSV,3,1,11,02,12,323,07,10,80,222,35,12,35,094,34,21,19,307,31*70
$GPGSV,3,2,11,23,44,153,36,24,28,055,34,25,31,140,33,28,32,225,29*75
$GPGSV,3,3,11,32,61,299,40,46,12,248,,48,15,245,*4D
$GPGLL,4506.04713,N,06839.86441,W,184104.00,A,A*7E
$RDENS,8994,5286235,PC
$RDENS,8995,5286314,PC
$GPRMC,184105.00,A,4506.04722,N,06839.86431,W,0.204,,180924,,,A*63
$GPVTG,,T,,M,0.204,N,0.377,K,A*26
$GPGGA,184105.00,4506.04722,N,06839.86431,W,1,09,0.95,39.9,M,-29.0,M,,*5F
$GPGSA,A,3,24,12,25,21,23,10,02,28,32,,,,1.86,0.95,1.60*0E
$GPGSV,3,1,11,02,12,323,07,10,80,222,32,12,35,094,34,21,19,307,29*7E
$GPGSV,3,2,11,23,44,153,34,24,28,055,34,25,31,140,35,28,32,225,27*7F
$GPGSV,3,3,11,32,61,299,41,46,12,248,,48,15,245,*4C
$GPGLL,4506.04722,N,06839.86431,W,184105.00,A,A*7A
$RDENS,8996,5286392,PC
$GPRMC,184106.00,A,4506.04726,N,06839.86431,W,0.162,,180924,,,A*67
$GPVTG,,T,,M,0.162,N,0.301,K,A*24
$GPGGA,184106.00,4506.04726,N,06839.86431,W,1,09,0.95,40.1,M,-29.0,M,,*5E
$GPGSA,A,3,24,12,25,21,23,10,02,28,32,,,,1.86,0.95,1.60*0E
$GPGSV,3,1,11,02,12,323,07,10,80,222,32,12,35,094,34,21,19,307,29*7E
$GPGSV,3,2,11,23,44,153,37,24,28,055,33,25,31,140,36,28,32,225,27*78
$GPGSV,3,3,11,32,61,299,41,46,12,248,,48,15,245,*4C
$GPGLL,4506.04726,N,06839.86431,W,184106.00,A,A*7D
$RDENS,8997,5286471,PC
$GPRMC,184107.00,A,4506.04729,N,06839.86434,W,0.117,,180924,,,A*6E
$GPVTG,,T,,M,0.117,N,0.216,K,A*21
$GPGGA,184107.00,4506.04729,N,06839.86434,W,1,09,0.95,40.0,M,-29.0,M,,*54
$GPGSA,A,3,24,12,25,21,23,10,02,28,32,,,,1.86,0.95,1.60*0E
$GPGSV,3,1,11,02,12,323,07,10,80,222,33,12,35,094,34,21,19,307,29*7F
$GPGSV,3,2,11,23,44,153,37,24,28,055,31,25,31,140,36,28,32,225,27*7A
$GPGSV,3,3,11,32,61,299,41,46,12,248,,48,15,245,*4C
$GPGLL,4506.04729,N,06839.86434,W,184107.00,A,A*76
$RDENS,8998,5286550,PC
$GPRMC,184108.00,A,4506.04735,N,06839.86437,W,0.076,,180924,,,A*69
$GPVTG,,T,,M,0.076,N,0.140,K,A*27
$GPGGA,184108.00,4506.04735,N,06839.86437,W,1,09,0.95,39.7,M,-29.0,M,,*5C
$GPGSA,A,3,24,12,25,21,23,10,02,28,32,,,,1.86,0.95,1.60*0E
$GPGSV,3,1,11,02,12,323,07,10,80,222,35,12,35,094,32,21,19,307,29*7F
$GPGSV,3,2,11,23,44,153,37,24,28,055,31,25,31,140,36,28,32,225,28*75
$GPGSV,3,3,11,32,61,299,41,46,12,248,,48,15,245,*4C
$GPGLL,4506.04735,N,06839.86437,W,184108.00,A,A*77
$RDENS,8999,5286628,PC
$RDENS,9000,5286707,PC
$GPRMC,184109.00,A,4506.04737,N,06839.86439,W,0.037,,180924,,,A*61
$GPVTG,,T,,M,0.037,N,0.069,K,A*28
$GPGGA,184109.00,4506.04737,N,06839.86439,W,1,09,0.95,39.6,M,-29.0,M,,*50
$GPGSA,A,3,24,12,25,21,23,10,02,28,32,,,,1.86,0.95,1.60*0E
$GPGSV,3,1,11,02,12,323,07,10,80,222,35,12,35,094,33,21,19,307,28*7F
$GPGSV,3,2,11,23,44,153,37,24,28,055,30,25,31,140,36,28,32,225,27*7B
$GPGSV,3,3,11,32,61,299,40,46,12,248,,48,15,245,*4D
$GPGLL,4506.04737,N,06839.86439,W,184109.00,A,A*7A
$RDENS,9001,5286786,PC
$GPRMC,184110.00,A,4506.04737,N,06839.86444,W,0.046,,180924,,,A*65
$GPVTG,,T,,M,0.046,N,0.085,K,A*2C
$GPGGA,184110.00,4506.04737,N,06839.86444,W,1,08,0.99,39.5,M,-29.0,M,,*5C
$GPGSA,A,3,24,12,25,21,23,10,28,32,,,,,2.05,0.99,1.79*00
$GPGSV,3,1,11,02,12,323,07,10,80,222,35,12,35,094,33,21,19,307,27*70
$GPGSV,3,2,11,23,44,153,37,24,28,055,30,25,31,140,36,28,32,225,26*7A
$GPGSV,3,3,11,32,61,299,40,46,12,248,,48,15,245,*4D
$GPGLL,4506.04737,N,06839.86444,W,184110.00,A,A*78
$RDENS,9002,5286865,PC
$GPRMC,184111.00,A,4506.04737,N,06839.86448,W,0.085,,180924,,,A*67
$GPVTG,,T,,M,0.085,N,0.158,K,A*22
$GPGGA,184111.00,4506.04737,N,06839.86448,W,1,08,0.99,39.3,M,-29.0,M,,*57
$GPGSA,A,3,24,12,25,21,23,10,28,32,,,,,2.05,0.99,1.79*00
$GPGSV,3,1,11,02,12,323,,10,80,222,36,12,35,094,33,21,19,307,26*75
$GPGSV,3,2,11,23,44,153,40,24,28,055,31,25,31,140,36,28,32,225,26*7B
$GPGSV,3,3,11,32,61,299,40,46,12,248,,48,15,245,*4D
$GPGLL,4506.04737,N,06839.86448,W,184111.00,A,A*75
$RDENS,9003,5286943,PC
$RDENS,9004,5287022,PC
$GPRMC,184112.00,A,4506.04738,N,06839.86452,W,0.083,,180924,,,A*66
$GPVTG,,T,,M,0.083,N,0.153,K,A*2F
$GPGGA,184112.00,4506.04738,N,06839.86452,W,1,08,0.99,39.3,M,-29.0,M,,*50
$GPGSA,A,3,24,12,25,21,23,10,28,32,,,,,2.05,0.99,1.79*00
$GPGSV,3,1,11,02,12,323,,10,80,222,35,12,35,094,32,21,19,307,26*77
$GPGSV,3,2,11,23,44,153,39,24,28,055,32,25,31,140,36,28,32,225,26*76
$GPGSV,3,3,11,32,61,299,40,46,12,248,,48,15,245,*4D
$GPGLL,4506.04738,N,06839.86452,W,184112.00,A,A*72
$RDENS,9005,5287100,PC
$GPRMC,184113.00,A,4506.04735,N,06839.86458,W,0.045,,180924,,,A*6A
$GPVTG,,T,,M,0.045,N,0.084,K,A*2E
$GPGGA,184113.00,4506.04735,N,06839.86458,W,1,08,0.99,39.4,M,-29.0,M,,*51
$GPGSA,A,3,24,12,25,21,23,10,28,32,,,,,2.05,0.99,1.79*00
$GPGSV,3,1,11,02,12,323,,10,80,222,34,12,35,094,32,21,19,307,26*76
$GPGSV,3,2,11,23,44,153,38,24,28,055,33,25,31,140,37,28,32,225,27*76
$GPGSV,3,3,11,32,61,299,40,46,12,248,,48,15,245,*4D
$GPGLL,4506.04735,N,06839.86458,W,184113.00,A,A*74
$RDENS,9006,5287179,PC
$GPRMC,184114.00,A,4506.04736,N,06839.86458,W,0.034,,180924,,,A*68
$GPVTG,,T,,M,0.034,N,0.063,K,A*21
$GPGGA,184114.00,4506.04736,N,06839.86458,W,1,08,0.99,39.5,M,-29.0,M,,*54
$GPGSA,A,3,24,12,25,21,23,10,28,32,,,,,2.05,0.99,1.79*00
$GPGSV,3,1,11,02,12,323,,10,80,222,35,12,35,094,32,21,19,307,28*79
$GPGSV,3,2,11,23,44,153,39,24,28,055,34,25,31,140,37,28,32,225,26*71
$GPGSV,3,3,11,32,61,299,41,46,12,248,,48,15,245,*4C
$GPGLL,4506.04736,N,06839.86458,W,184114.00,A,A*70
$RDENS,9007,5287257,PC
$GPRMC,184115.00,A,4506.04736,N,06839.86457,W,0.070,,180924,,,A*66
$GPVTG,,T,,M,0.070,N,0.130,K,A*26
$GPGGA,184115.00,4506.04736,N,06839.86457,W,1,08,0.99,39.7,M,-29.0,M,,*58
$GPGSA,A,3,24,12,25,21,23,10,28,32,,,,,2.05,0.99,1.79*00
$GPGSV,3,1,11,02,12,323,,10,80,222,35,12,35,094,32,21,19,307,28*79
$GPGSV,3,2,11,23,44,153,39,24,28,055,35,25,31,140,37,28,32,225,26*70
$GPGSV,3,3,11,32,61,299,41,46,12,248,,48,15,245,*4C
$GPGLL,4506.04736,N,06839.86457,W,184115.00,A,A*7E
$RDENS,9008,5287337,PC
$RDENS,9009,5287415,PC
$GPRMC,184116.00,A,4506.04733,N,06839.86454,W,0.087,,180924,,,A*6B
$GPVTG,,T,,M,0.087,N,0.160,K,A*2B
$GPGGA,184116.00,4506.04733,N,06839.86454,W,1,08,0.99,39.9,M,-29.0,M,,*53
$GPGSA,A,3,24,12,25,21,23,10,28,32,,,,,2.05,0.99,1.79*00
$GPGSV,3,1,11,02,12,323,,10,80,222,37,12,35,094,32,21,19,307,27*74
$GPGSV,3,2,11,23,44,153,38,24,28,055,35,25,31,140,36,28,32,225,26*70
$GPGSV,3,3,11,32,61,299,41,46,12,248,,48,15,245,*4C
$GPGLL,4506.04733,N,06839.86454,W,184116.00,A,A*7B
$RDENS,9010,5287494,PC
$GPRMC,184117.00,A,4506.04736,N,06839.86444,W,0.308,,180924,,,A*6A
$GPVTG,,T,,M,0.308,N,0.571,K,A*2B
$GPGGA,184117.00,4506.04736,N,06839.86444,W,1,08,0.99,39.9,M,-29.0,M,,*56
$GPGSA,A,3,24,12,25,21,23,10,28,32,,,,,2.05,0.99,1.79*00
$GPGSV,3,1,11,02,12,323,,10,80,222,36,12,35,094,32,21,19,307,25*77
$GPGSV,3,2,11,23,44,153,38,24,28,055,34,25,31,140,36,28,32,225,25*72
$GPGSV,3,3,11,32,61,299,41,46,12,248,,48,15,245,*4C
$GPGLL,4506.04736,N,06839.86444,W,184117.00,A,A*7E
$RDENS,9011,5287572,PC
$GPRMC,184118.00,A,4506.04738,N,06839.86422,W,0.570,,180924,,,A*62
$GPVTG,,T,,M,0.570,N,1.055,K,A*20
$GPGGA,184118.00,4506.04738,N,06839.86422,W,1,08,0.99,40.0,M,-29.0,M,,*50
$GPGSA,A,3,24,12,25,21,23,10,28,32,,,,,2.05,0.99,1.79*00
$GPGSV,3,1,11,02,12,323,,10,80,222,36,12,35,094,33,21,19,307,23*70
$GPGSV,3,2,11,23,44,153,37,24,28,055,33,25,31,140,33,28,32,225,23*79
$GPGSV,3,3,11,32,61,299,41,46,12,248,,48,15,245,*4C
$GPGLL,4506.04738,N,06839.86422,W,184118.00,A,A*7F
$RDENS,9012,5287652,PC
$GPRMC,184119.00,A,4506.04739,N,06839.86393,W,0.694,,180924,,,A*66
$GPVTG,,T,,M,0.694,N,1.285,K,A*26
$GPGGA,184119.00,4506.04739,N,06839.86393,W,1,08,0.99,40.1,M,-29.0,M,,*5C
$GPGSA,A,3,24,12,25,21,23,10,28,32,,,,,2.05,0.99,1.79*00
$GPGSV,3,1,11,02,12,323,,10,80,222,36,12,35,094,33,21,19,307,22*71
$GPGSV,3,2,11,23,44,153,36,24,28,055,33,25,31,140,32,28,32,225,22*78
$GPGSV,3,3,11,32,61,299,42,46,12,248,,48,15,245,*4F
$GPGLL,4506.04739,N,06839.86393,W,184119.00,A,A*72
$RDENS,9013,5287731,PC
$RDENS,9014,5287809,PC
$GPRMC,184120.00,A,4506.04737,N,06839.86373,W,0.539,,180924,,,A*68
$GPVTG,,T,,M,0.539,N,0.999,K,A*25
$GPGGA,184120.00,4506.04737,N,06839.86373,W,1,08,0.99,39.9,M,-29.0,M,,*50
$GPGSA,A,3,24,12,25,21,23,10,28,32,,,,,2.05,0.99,1.79*00
$GPGSV,3,1,11,02,12,323,,10,80,222,36,12,35,094,33,21,19,307,21*72
$GPGSV,3,2,11,23,44,153,35,24,28,055,33,25,31,140,31,28,32,225,30*7B
$GPGSV,3,3,11,32,61,299,41,46,12,248,,48,15,245,*4C
$GPGLL,4506.04737,N,06839.86373,W,184120.00,A,A*78
$RDENS,9015,5287888,PC
$GPRMC,184121.00,A,4506.04738,N,06839.86344,W,0.614,,180924,,,A*6E
$GPVTG,,T,,M,0.614,N,1.136,K,A*25
$GPGGA,184121.00,4506.04738,N,06839.86344,W,1,08,0.99,39.9,M,-29.0,M,,*5A
$GPGSA,A,3,24,12,25,21,23,10,28,32,,,,,2.05,0.99,1.79*00
$GPGSV,3,1,11,02,12,323,,10,80,222,36,12,35,094,32,21,19,307,23*71
$GPGSV,3,2,11,23,44,153,35,24,28,055,32,25,31,140,31,28,32,225,29*72
$GPGSV,3,3,11,32,61,299,43,46,12,248,,48,15,245,*4E
$GPGLL,4506.04738,N,06839.86344,W,184121.00,A,A*72
$RDENS,9016,5287967,PC
$GPRMC,184122.00,A,4506.04737,N,06839.86318,W,0.590,,180924,,,A*64
$GPVTG,,T,,M,0.590,N,1.093,K,A*24
$GPGGA,184122.00,4506.04737,N,06839.86318,W,1,08,0.99,39.8,M,-29.0,M,,*5E
$GPGSA,A,3,24,12,25,21,23,10,28,32,,,,,2.05,0.99,1.79*00
$GPGSV,3,1,11,02,12,323,,10,80,222,35,12,35,094,26,21,19,307,23*77
$GPGSV,3,2,11,23,44,153,35,24,28,055,31,25,31,140,32,28,32,225,27*7C
$GPGSV,3,3,11,32,61,299,42,46,12,248,,48,15,245,*4F
$GPGLL,4506.04737,N,06839.86318,W,184122.00,A,A*77
$RDENS,9017,5288045,PC
$RDENS,9018,5288124,PC
$GPRMC,184123.00,A,4506.04739,N,06839.86283,W,0.731,,180924,,,A*61
$GPVTG,,T,,M,0.731,N,1.354,K,A*25
$GPGGA,184123.00,4506.04739,N,06839.86283,W,1,08,0.99,40.0,M,-29.0,M,,*54
$GPGSA,A,3,24,12,25,21,23,10,28,32,,,,,2.05,0.99,1.79*00
$GPGSV,3,1,11,02,12,323,,10,80,222,35,12,35,094,27,21,19,307,22*77
$GPGSV,3,2,11,23,44,153,35,24,28,055,31,25,31,140,33,28,32,225,24*7E
$GPGSV,3,3,11,32,61,299,43,46,12,248,,48,15,245,*4E
$GPGLL,4506.04739,N,06839.86283,W,184123.00,A,A*7B
$RDENS,9019,5288202,PC
$GPRMC,184124.00,A,4506.04740,N,06839.86253,W,0.586,,180924,,,A*6B
$GPVTG,,T,,M,0.586,N,1.085,K,A*24
$GPGGA,184124.00,4506.04740,N,06839.86253,W,1,08,0.99,40.1,M,-29.0,M,,*51
$GPGSA,A,3,24,12,25,21,23,10,28,32,,,,,2.05,0.99,1.79*00
$GPGSV,3,1,11,02,12,323,,10,80,222,34,12,35,094,28,21,19,307,25*7E
$GPGSV,3,2,11,23,44,153,36,24,28,055,32,25,31,140,34,28,32,225,24*79
$GPGSV,3,3,11,32,61,299,42,46,12,248,,48,15,245,*4F
$GPGLL,4506.04740,N,06839.86253,W,184124.00,A,A*7F
$RDENS,9020,5288281,PC
$GPRMC,184125.00,A,4506.04739,N,06839.86225,W,0.589,,180924,,,A*6A
$GPVTG,,T,,M,0.589,N,1.092,K,A*2D
$GPGGA,184125.00,4506.04739,N,06839.86225,W,1,08,0.99,40.1,M,-29.0,M,,*5F
$GPGSA,A,3,24,12,25,21,23,10,28,32,,,,,2.05,0.99,1.79*00
$GPGSV,3,1,11,02,12,323,,10,80,222,35,12,35,094,26,21,19,307,27*73
$GPGSV,3,2,11,23,44,153,35,24,28,055,35,25,31,140,35,28,32,225,25*7D
$GPGSV,3,3,11,32,61,299,42,46,12,248,,48,15,245,*4F
$GPGLL,4506.04739,N,06839.86225,W,184125.00,A,A*71
$RDENS,9021,5288360,PC
$GPRMC,184126.00,A,4506.04738,N,06839.86197,W,0.542,,180924,,,A*65
$GPVTG,,T,,M,0.542,N,1.004,K,A*25
$GPGGA,184126.00,4506.04738,N,06839.86197,W,1,08,0.99,40.2,M,-29.0,M,,*54
$GPGSA,A,3,24,12,25,21,23,10,28,32,,,,,2.05,0.99,1.79*00
$GPGSV,3,1,11,02,12,323,,10,80,222,36,12,35,094,26,21,19,307,25*72
$GPGSV,3,2,11,23,44,153,34,24,28,055,35,25,31,140,36,28,32,225,30*7B
$GPGSV,3,3,11,32,61,299,43,46,12,248,,48,15,245,*4E
$GPGLL,4506.04738,N,06839.86197,W,184126.00,A,A*79
$RDENS,9022,5288438,PC
$RDENS,9023,5288517,PC
$GPRMC,184127.00,A,4506.04734,N,06839.86174,W,0.553,,180924,,,A*65
$GPVTG,,T,,M,0.553,N,1.025,K,A*26
$GPGGA,184127.00,4506.04734,N,06839.86174,W,1,08,0.99,40.2,M,-29.0,M,,*54
$GPGSA,A,3,24,12,25,21,23,10,28,32,,,,,2.05,0.99,1.79*00
$GPGSV,3,1,11,02,12,323,,10,80,222,36,12,35,094,24,21,19,307,25*70
$GPGSV,3,2,11,23,44,153,35,24,28,055,36,25,31,140,36,28,32,225,32*7B
$GPGSV,3,3,11,32,61,299,42,46,12,248,,48,15,245,*4F
$GPGLL,4506.04734,N,06839.86174,W,184127.00,A,A*79
$RDENS,9024,5288595,PC
$GPRMC,184128.00,A,4506.04730,N,06839.86148,W,0.593,,180924,,,A*6D
$GPVTG,,T,,M,0.593,N,1.099,K,A*2D
$GPGGA,184128.00,4506.04730,N,06839.86148,W,1,08,0.99,40.3,M,-29.0,M,,*51
$GPGSA,A,3,24,12,25,21,23,10,28,32,,,,,2.05,0.99,1.79*00
$GPGSV,3,1,11,02,12,323,,10,80,222,37,12,35,094,22,21,19,307,25*77
$GPGSV,3,2,11,23,44,153,35,24,28,055,36,25,31,140,35,28,32,225,32*78
$GPGSV,3,3,11,32,61,299,42,46,12,248,,48,15,245,*4F
$GPGLL,4506.04730,N,06839.86148,W,184128.00,A,A*7D
$RDENS,9025,5288675,PC
$GPRMC,184129.00,A,4506.04723,N,06839.86123,W,0.634,,180924,,,A*6D
$GPVTG,,T,,M,0.634,N,1.174,K,A*21
$GPGGA,184129.00,4506.04723,N,06839.86123,W,1,08,0.99,40.3,M,-29.0,M,,*5F
$GPGSA,A,3,24,12,25,21,23,10,28,32,,,,,2.05,0.99,1.79*00
$GPGSV,3,1,11,02,12,323,,10,80,222,36,12,35,094,22,21,19,307,27*74
$GPGSV,3,2,11,23,44,153,36,24,28,055,36,25,31,140,35,28,32,225,32*7B
$GPGSV,3,3,11,32,61,299,43,46,12,248,,48,15,245,*4E
$GPGLL,4506.04723,N,06839.86123,W,184129.00,A,A*73
$RDENS,9026,5288753,PC
$GPRMC,184130.00,A,4506.04713,N,06839.86097,W,0.646,,180924,,,A*6D
$GPVTG,,T,,M,0.646,N,1.196,K,A*28
$GPGGA,184130.00,4506.04713,N,06839.86097,W,1,08,0.99,40.5,M,-29.0,M,,*5C
$GPGSA,A,3,24,12,25,21,23,10,28,32,,,,,2.05,0.99,1.79*00
$GPGSV,3,1,11,02,12,323,,10,80,222,38,12,35,094,21,21,19,307,28*76
$GPGSV,3,2,11,23,44,153,36,24,28,055,35,25,31,140,34,28,32,225,31*7A
$GPGSV,3,3,11,32,61,299,42,46,12,248,,48,15,245,*4F
$GPGLL,4506.04713,N,06839.86097,W,184130.00,A,A*76
$RDENS,9027,5288832,PC
$RDENS,9028,5288911,PC
$GPRMC,184131.00,A,4506.04702,N,06839.86078,W,0.705,,180924,,,A*6B
$GPVTG,,T,,M,0.705,N,1.306,K,A*25
$GPGGA,184131.00,4506.04702,N,06839.86078,W,1,08,1.00,40.5,M,-29.0,M,,*5D
$GPGSA,A,3,24,12,25,21,23,10,28,32,,,,,2.05,1.00,1.79*01
$GPGSV,3,1,11,02,12,323,,10,80,222,37,12,35,094,22,21,19,307,31*72
$GPGSV,3,2,11,23,44,153,36,24,28,055,34,25,31,140,33,28,32,225,30*7D
$GPGSV,3,3,11,32,61,299,43,46,12,248,,48,15,245,*4E
$GPGLL,4506.04702,N,06839.86078,W,184131.00,A,A*76
$RDENS,9029,5288989,PC
$GPRMC,184132.00,A,4506.04690,N,06839.86063,W,0.693,,180924,,,A*66
$GPVTG,,T,,M,0.693,N,1.284,K,A*20
$GPGGA,184132.00,4506.04690,N,06839.86063,W,1,08,1.00,40.4,M,-29.0,M,,*5F
$GPGSA,A,3,24,12,25,21,23,10,28,32,,,,,2.05,1.00,1.79*01
$GPGSV,3,1,11,02,12,323,,10,80,222,39,12,35,094,25,21,19,307,29*72
$GPGSV,3,2,11,23,44,153,36,24,28,055,33,25,31,140,32,28,32,225,31*7A
$GPGSV,3,3,11,32,61,299,43,46,12,248,,48,15,245,*4E
$GPGLL,4506.04690,N,06839.86063,W,184132.00,A,A*75
$RDENS,9030,5289068,PC
$GPRMC,184133.00,A,4506.04676,N,06839.86051,W,0.625,,180924,,,A*63
$GPVTG,,T,,M,0.625,N,1.158,K,A*2F
$GPGGA,184133.00,4506.04676,N,06839.86051,W,1,08,1.00,40.5,M,-29.0,M,,*56
$GPGSA,A,3,24,12,25,21,23,10,28,32,,,,,2.05,1.00,1.79*01
$GPGSV,3,1,11,02,12,323,,10,80,222,39,12,35,094,32,21,19,307,18*76
$GPGSV,3,2,11,23,44,153,37,24,28,055,32,25,31,140,31,28,32,225,33*7B
$GPGSV,3,3,11,32,61,299,44,46,12,248,,48,15,245,*49
$GPGLL,4506.04676,N,06839.86051,W,184133.00,A,A*7D
$RDENS,9031,5289147,PC
$GPRMC,184134.00,A,4506.04662,N,06839.86040,W,0.684,,180924,,,A*6A
$GPVTG,,T,,M,0.684,N,1.267,K,A*2B
$GPGGA,184134.00,4506.04662,N,06839.86040,W,1,08,1.00,40.4,M,-29.0,M,,*55
$GPGSA,A,3,24,12,25,21,23,10,28,32,,,,,2.05,1.00,1.79*01
$GPGSV,3,1,11,02,12,323,,10,80,222,39,12,35,094,32,21,19,307,18*76
$GPGSV,3,2,11,23,44,153,38,24,28,055,32,25,31,140,30,28,32,225,31*77
$GPGSV,3,3,11,32,61,299,45,46,12,248,,48,15,245,*48
$GPGLL,4506.04662,N,06839.86040,W,184134.00,A,A*7F
$RDENS,9032,5289225,PC
$RDENS,9033,5289304,PC
$GPRMC,184135.00,A,4506.04649,N,06839.86025,W,0.645,,180924,,,A*6C
$GPVTG,,T,,M,0.645,N,1.194,K,A*29
$GPGGA,184135.00,4506.04649,N,06839.86025,W,1,08,1.00,40.5,M,-29.0,M,,*5F
$GPGSA,A,3,24,12,25,21,23,10,28,32,,,,,2.05,1.00,1.79*01
$GPGSV,3,1,11,02,12,323,,10,80,222,38,12,35,094,31,21,19,307,17*7B
$GPGSV,3,2,11,23,44,153,38,24,28,055,32,25,31,140,30,28,32,225,35*73
$GPGSV,3,3,11,32,61,299,45,46,12,248,,48,15,245,*48
$GPGLL,4506.04649,N,06839.86025,W,184135.00,A,A*74
$RDENS,9034,5289382,PC
$GPRMC,184136.00,A,4506.04639,N,06839.86006,W,0.626,,180924,,,A*6C
$GPVTG,,T,,M,0.626,N,1.160,K,A*27
$GPGGA,184136.00,4506.04639,N,06839.86006,W,1,08,1.00,40.6,M,-29.0,M,,*59
$GPGSA,A,3,24,12,25,21,23,10,28,32,,,,,2.05,1.00,1.79*01
$GPGSV,3,1,11,02,12,323,,10,80,222,38,12,35,094,34,21,19,307,16*7F
$GPGSV,3,2,11,23,44,153,38,24,28,055,32,25,31,140,31,28,32,225,35*72
$GPGSV,3,3,11,32,61,299,45,46,12,248,,48,15,245,*48
$GPGLL,4506.04639,N,06839.86006,W,184136.00,A,A*71
$RDENS,9035,5289461,PC
$GPRMC,184137.00,A,4506.04627,N,06839.85992,W,0.566,,180924,,,A*62
$GPVTG,,T,,M,0.566,N,1.048,K,A*2B
$GPGGA,184137.00,4506.04627,N,06839.85992,W,1,08,1.00,40.7,M,-29.0,M,,*51
$GPGSA,A,3,24,12,25,21,23,10,28,32,,,,,2.05,1.00,1.79*01
$GPGSV,3,1,11,02,12,323,,10,80,222,38,12,35,094,34,21,19,307,18*71
$GPGSV,3,2,11,23,44,153,38,24,28,055,32,25,31,140,31,28,32,225,33*74
$GPGSV,3,3,11,32,61,299,44,46,12,248,,48,15,245,*49
$GPGLL,4506.04627,N,06839.85992,W,184137.00,A,A*78
$RDENS,9036,5289540,PC
$RDENS,9037,5289618,PC
$GPRMC,184138.00,A,4506.04616,N,06839.85980,W,0.578,,180924,,,A*63
$GPVTG,,T,,M,0.578,N,1.070,K,A*2F
$GPGGA,184138.00,4506.04616,N,06839.85980,W,1,08,1.00,40.8,M,-29.0,M,,*50
$GPGSA,A,3,24,12,25,21,23,10,28,32,,,,,2.05,1.00,1.79*01
$GPGSV,3,1,11,02,12,323,,10,80,222,38,12,35,094,34,21,19,307,20*7A
$GPGSV,3,2,11,23,44,153,38,24,28,055,33,25,31,140,32,28,32,225,34*71
$GPGSV,3,3,11,32,61,299,44,46,12,248,,48,15,245,*49
$GPGLL,4506.04616,N,06839.85980,W,184138.00,A,A*76
$RDENS,9038,5289698,PC
$GPRMC,184139.00,A,4506.04601,N,06839.85971,W,0.568,,180924,,,A*6B
$GPVTG,,T,,M,0.568,N,1.052,K,A*2E
$GPGGA,184139.00,4506.04601,N,06839.85971,W,1,08,1.00,40.9,M,-29.0,M,,*58
$GPGSA,A,3,24,12,25,21,23,10,28,32,,,,,2.05,1.00,1.79*01
$GPGSV,3,1,11,02,12,323,,10,80,222,38,12,35,094,30,21,19,307,23*7D
$GPGSV,3,2,11,23,44,153,37,24,28,055,34,25,31,140,31,28,32,225,35*7B
$GPGSV,3,3,11,32,61,299,45,46,12,248,,48,15,245,*48
$GPGLL,4506.04601,N,06839.85971,W,184139.00,A,A*7F
$RDENS,9039,5289777,PC
$GPRMC,184140.00,A,4506.04589,N,06839.85957,W,0.557,,180924,,,A*6E
$GPVTG,,T,,M,0.557,N,1.031,K,A*27
$GPGGA,184140.00,4506.04589,N,06839.85957,W,1,08,1.00,41.0,M,-29.0,M,,*59
$GPGSA,A,3,24,12,25,21,23,10,28,32,,,,,2.05,1.00,1.79*01
$GPGSV,3,1,11,02,12,323,,10,80,222,37,12,35,094,33,21,19,307,22*70
$GPGSV,3,2,11,23,44,153,35,24,28,055,34,25,31,140,30,28,32,225,36*7B
$GPGSV,3,3,11,32,61,299,45,46,12,248,,48,15,245,*48
$GPGLL,4506.04589,N,06839.85957,W,184140.00,A,A*76
$RDENS,9040,5289855,PC
$GPRMC,184141.00,A,4506.04575,N,06839.85950,W,0.579,,180924,,,A*67
$GPVTG,,T,,M,0.579,N,1.073,K,A*2D
$GPGGA,184141.00,4506.04575,N,06839.85950,W,1,08,1.00,41.0,M,-29.0,M,,*5C
$GPGSA,A,3,24,12,25,21,23,10,28,32,,,,,2.05,1.00,1.79*01
$GPGSV,3,1,11,02,12,323,,10,80,222,37,12,35,094,33,21,19,307,22*70
$GPGSV,3,2,11,23,44,153,37,24,28,055,34,25,31,140,31,28,32,225,35*7B
$GPGSV,3,3,11,32,61,299,44,46,12,248,,48,15,245,*49
$GPGLL,4506.04575,N,06839.85950,W,184141.00,A,A*73
$RDENS,9041,5289934,PC
$RDENS,9042,5290013,PC
$GPRMC,184142.00,A,4506.04559,N,06839.85935,W,0.700,80.73,180924,,,A*47
$GPVTG,80.73,T,,M,0.700,N,1.296,K,A*0A
$GPGGA,184142.00,4506.04559,N,06839.85935,W,1,08,1.00,41.1,M,-29.0,M,,*53
$GPGSA,A,3,24,12,25,21,23,10,28,32,,,,,2.05,1.00,1.79*01
$GPGSV,3,1,11,02,12,323,,10,79,220,38,12,35,094,33,21,19,307,21*78
$GPGSV,3,2,11,23,44,153,37,24,28,055,34,25,31,140,31,28,32,225,36*78
$GPGSV,3,3,11,32,61,299,44,46,12,248,,48,15,245,*49
$GPGLL,4506.04559,N,06839.85935,W,184142.00,A,A*7D
$RDENS,9043,5290092,PC
$GPRMC,184143.00,A,4506.04544,N,06839.85918,W,0.747,113.94,180924,,,A*74
$GPVTG,113.94,T,,M,0.747,N,1.383,K,A*3E
$GPGGA,184143.00,4506.04544,N,06839.85918,W,1,08,1.00,41.1,M,-29.0,M,,*51
$GPGSA,A,3,24,12,25,21,23,10,28,32,,,,,2.05,1.00,1.79*01
$GPGSV,3,1,11,02,12,323,,10,79,220,38,12,35,094,32,21,19,307,19*72
$GPGSV,3,2,11,23,44,153,37,24,28,055,33,25,31,140,31,28,32,225,37*7E
$GPGSV,3,3,11,32,61,299,44,46,12,248,,48,15,245,*49
$GPGLL,4506.04544,N,06839.85918,W,184143.00,A,A*7F
$RDENS,9044,5290170,PC
$GPRMC,184144.00,A,4506.04525,N,06839.85897,W,0.854,127.19,180924,,,A*7D
$GPVTG,127.19,T,,M,0.854,N,1.581,K,A*35
$GPGGA,184144.00,4506.04525,N,06839.85897,W,1,08,1.00,41.1,M,-29.0,M,,*57
$GPGSA,A,3,24,12,25,21,23,10,28,32,,,,,2.05,1.00,1.79*01
$GPGSV,3,1,11,02,12,323,,10,79,220,37,12,35,094,31,21,19,307,17*70
$GPGSV,3,2,11,23,44,153,37,24,28,055,32,25,31,140,30,28,32,225,36*7F
$GPGSV,3,3,11,32,61,299,44,46,12,248,,48,15,245,*49
$GPGLL,4506.04525,N,06839.85897,W,184144.00,A,A*79
$RDENS,9045,5290249,PC
$GPRMC,184145.00,A,4506.04504,N,06839.85877,W,0.905,131.19,180924,,,A*73
$GPVTG,131.19,T,,M,0.905,N,1.676,K,A*3C
$GPGGA,184145.00,4506.04504,N,06839.85877,W,1,08,1.00,41.0,M,-29.0,M,,*5A
$GPGSA,A,3,24,12,25,21,23,10,28,32,,,,,2.05,1.00,1.79*01
$GPGSV,3,1,11,02,12,323,18,10,79,220,37,12,35,094,30,21,19,307,29*75
$GPGSV,3,2,11,23,44,153,38,24,28,055,31,25,31,140,31,28,32,225,36*72
$GPGSV,3,3,11,32,61,299,43,46,12,248,,48,15,245,*4E
$GPGLL,4506.04504,N,06839.85877,W,184145.00,A,A*75
$RDENS,9046,5290327,PC
$RDENS,9047,5290406,PC
$GPRMC,184146.00,A,4506.04485,N,06839.85854,W,0.906,132.32,180924,,,A*70
$GPVTG,132.32,T,,M,0.906,N,1.678,K,A*3B
$GPGGA,184146.00,4506.04485,N,06839.85854,W,1,08,1.00,41.0,M,-29.0,M,,*50
$GPGSA,A,3,24,12,25,21,23,10,28,32,,,,,2.05,1.00,1.79*01
$GPGSV,3,1,11,02,12,323,19,10,79,220,37,12,35,094,22,21,19,307,30*7F
$GPGSV,3,2,11,23,44,153,37,24,28,055,33,25,31,140,33,28,32,225,37*7C
$GPGSV,3,3,11,32,61,299,42,46,12,248,,48,15,245,*4F
$GPGLL,4506.04485,N,06839.85854,W,184146.00,A,A*7F
$RDENS,9048,5290484,PC
$GPRMC,184147.00,A,4506.04469,N,06839.85826,W,0.977,129.29,180924,,,A*70
$GPVTG,129.29,T,,M,0.977,N,1.809,K,A*35
$GPGGA,184147.00,4506.04469,N,06839.85826,W,1,08,1.00,40.9,M,-29.0,M,,*5E
$GPGSA,A,3,24,12,25,21,23,10,28,32,,,,,2.05,1.00,1.79*01
$GPGSV,3,1,11,02,12,323,20,10,79,220,37,12,35,094,19,21,19,307,30*7D
$GPGSV,3,2,11,23,44,153,37,24,28,055,36,25,31,140,34,28,32,225,33*7A
$GPGSV,3,3,11,32,61,299,41,46,12,248,,48,15,245,*4C
$GPGLL,4506.04469,N,06839.85826,W,184147.00,A,A*79
$RDENS,9049,5290563,PC
$GPRMC,184148.00,A,4506.04455,N,06839.85792,W,0.983,124.31,180924,,,A*7F
$GPVTG,124.31,T,,M,0.983,N,1.821,K,A*30
$GPGGA,184148.00,4506.04455,N,06839.85792,W,1,08,1.00,40.9,M,-29.0,M,,*5E
$GPGSA,A,3,24,12,25,21,23,10,28,32,,,,,2.05,1.00,1.79*01
$GPGSV,3,1,11,02,12,323,,10,79,220,36,12,35,094,21,21,19,307,28*7C
$GPGSV,3,2,11,23,44,153,35,24,28,055,36,25,31,140,35,28,32,225,33*79
$GPGSV,3,3,11,32,61,299,42,46,12,248,,48,15,245,*4F
$GPGLL,4506.04455,N,06839.85792,W,184148.00,A,A*79
$RDENS,9050,5290642,PC
$RDENS,9051,5290721,PC
$GPRMC,184149.00,A,4506.04443,N,06839.85756,W,1.020,120.15,180924,,,A*72
$GPVTG,120.15,T,,M,1.020,N,1.890,K,A*39
$GPGGA,184149.00,4506.04443,N,06839.85756,W,1,08,1.00,40.9,M,-29.0,M,,*50
$GPGSA,A,3,24,12,25,21,23,10,28,32,,,,,2.05,1.00,1.79*01
$GPGSV,3,1,11,02,12,323,,10,79,220,36,12,35,094,30,21,19,307,28*7C
$GPGSV,3,2,11,23,44,153,36,24,28,055,33,25,31,140,32,28,32,225,32*79
$GPGSV,3,3,11,32,61,299,42,46,12,248,,48,15,245,*4F
$GPGLL,4506.04443,N,06839.85756,W,184149.00,A,A*77
$RDENS,9052,5290799,PC
$GPRMC,184150.00,A,4506.04432,N,06839.85717,W,1.010,114.66,180924,,,A*79
$GPVTG,114.66,T,,M,1.010,N,1.871,K,A*36
$GPGGA,184150.00,4506.04432,N,06839.85717,W,1,08,1.00,40.9,M,-29.0,M,,*5B
$GPGSA,A,3,24,12,25,21,23,10,28,32,,,,,2.05,1.00,1.79*01
$GPGSV,3,1,11,02,12,323,,10,79,220,33,12,35,094,33,21,19,307,27*75
$GPGSV,3,2,11,23,44,153,37,24,28,055,33,25,31,140,30,28,32,225,32*7A
$GPGSV,3,3,11,32,61,299,42,46,12,248,,48,15,245,*4F
$GPGLL,4506.04432,N,06839.85717,W,184150.00,A,A*7C
$RDENS,9053,5290878,PC
$GPRMC,184151.00,A,4506.04423,N,06839.85676,W,1.047,110.68,180924,,,A*76
$GPVTG,110.68,T,,M,1.047,N,1.939,K,A*33
$GPGGA,184151.00,4506.04423,N,06839.85676,W,1,08,1.00,40.9,M,-29.0,M,,*5C
$GPGSA,A,3,24,12,25,21,23,10,28,32,,,,,2.05,1.00,1.79*01
$GPGSV,3,1,11,02,12,323,,10,79,220,35,12,35,094,34,21,19,307,25*76
$GPGSV,3,2,11,23,44,153,38,24,28,055,34,25,31,140,29,28,32,225,33*7B
$GPGSV,3,3,11,32,61,299,42,46,12,248,,48,15,245,*4F
$GPGLL,4506.04423,N,06839.85676,W,184151.00,A,A*7B
$RDENS,9054,5290957,PC
$GPRMC,184152.00,A,4506.04414,N,06839.85631,W,1.159,105.71,180924,,,A*70
$GPVTG,105.71,T,,M,1.159,N,2.146,K,A*32
$GPGGA,184152.00,4506.04414,N,06839.85631,W,1,08,1.00,40.8,M,-29.0,M,,*59
$GPGSA,A,3,24,12,25,21,23,10,28,32,,,,,2.05,1.00,1.79*01
$GPGSV,3,1,11,02,12,323,,10,79,220,35,12,35,094,35,21,19,307,25*77
$GPGSV,3,2,11,23,44,153,38,24,28,055,34,25,31,140,29,28,32,225,35*7D
$GPGSV,3,3,11,32,61,299,42,46,12,248,,48,15,245,*4F
$GPGLL,4506.04414,N,06839.85631,W,184152.00,A,A*7F
$RDENS,9055,5291035,PC
$RDENS,9056,5291114,PC
$GPRMC,184153.00,A,4506.04407,N,06839.85582,W,1.143,102.90,180924,,,A*7B
$GPVTG,102.90,T,,M,1.143,N,2.118,K,A*3A
$GPGGA,184153.00,4506.04407,N,06839.85582,W,1,08,1.00,40.8,M,-29.0,M,,*51
$GPGSA,A,3,24,12,25,21,23,10,28,32,,,,,2.05,1.00,1.79*01
$GPGSV,3,1,11,02,12,323,,10,79,220,36,12,35,094,34,21,19,306,25*74
$GPGSV,3,2,11,23,44,153,38,24,28,055,34,25,31,140,28,28,32,225,33*7A
$GPGSV,3,3,11,32,61,299,42,46,12,248,,48,15,245,*4F
$GPGLL,4506.04407,N,06839.85582,W,184153.00,A,A*77
$RDENS,9057,5291193,PC
$GPRMC,184154.00,A,4506.04399,N,06839.85537,W,1.146,102.21,180924,,,A*7D
$GPVTG,102.21,T,,M,1.146,N,2.123,K,A*3D
$GPGGA,184154.00,4506.04399,N,06839.85537,W,1,08,1.00,40.9,M,-29.0,M,,*59
$GPGSA,A,3,24,12,25,21,23,10,28,32,,,,,2.05,1.00,1.79*01
$GPGSV,3,1,11,02,12,323,,10,79,220,36,12,35,094,33,21,19,306,25*73
$GPGSV,3,2,11,23,44,153,37,24,28,055,33,25,31,140,29,28,32,225,32*72
$GPGSV,3,3,11,32,61,299,42,46,12,248,,48,15,245,*4F
$GPGLL,4506.04399,N,06839.85537,W,184154.00,A,A*7E
$RDENS,9058,5291272,PC
$GPRMC,184155.00,A,4506.04392,N,06839.85491,W,1.191,102.40,180924,,,A*77
$GPVTG,102.40,T,,M,1.191,N,2.206,K,A*34
$GPGGA,184155.00,4506.04392,N,06839.85491,W,1,08,1.00,40.9,M,-29.0,M,,*5E
$GPGSA,A,3,24,12,25,21,23,10,28,32,,,,,2.05,1.00,1.79*01
$GPGSV,3,1,11,02,12,323,,10,79,220,36,12,35,094,33,21,19,306,25*73
$GPGSV,3,2,11,23,43,153,37,24,28,055,33,25,31,140,29,28,32,225,32*75
$GPGSV,3,3,11,32,61,299,42,46,12,248,,48,15,245,*4F
$GPGLL,4506.04392,N,06839.85491,W,184155.00,A,A*79
$RDENS,9059,5291350,PC
$GPRMC,184156.00,A,4506.04385,N,06839.85444,W,1.219,99.93,180924,,,A*44
$GPVTG,99.93,T,,M,1.219,N,2.258,K,A*01
$GPGGA,184156.00,4506.04385,N,06839.85444,W,1,08,1.00,40.9,M,-29.0,M,,*53
$GPGSA,A,3,24,12,25,21,23,10,28,32,,,,,2.05,1.00,1.79*01
$GPGSV,3,1,11,02,12,323,,10,79,220,36,12,35,094,34,21,19,306,22*73
$GPGSV,3,2,11,23,43,153,38,24,28,055,34,25,31,140,29,28,32,225,33*7C
$GPGSV,3,3,11,32,61,299,41,46,12,248,,48,15,245,*4C
$GPGLL,4506.04385,N,06839.85444,W,184156.00,A,A*74
$RDENS,9060,5291429,PC
$RDENS,9061,5291507,PC
$GPRMC,184157.00,A,4506.04380,N,06839.85398,W,1.208,97.99,180924,,,A*42
$GPVTG,97.99,T,,M,1.208,N,2.238,K,A*03
$GPGGA,184157.00,4506.04380,N,06839.85398,W,1,08,1.00,40.8,M,-29.0,M,,*50
$GPGSA,A,3,24,12,25,21,23,10,28,32,,,,,2.05,1.00,1.79*01
$GPGSV,3,1,11,02,12,323,,10,79,220,36,12,35,094,35,21,19,306,19*7A
$GPGSV,3,2,11,23,43,153,38,24,28,055,35,25,32,140,28,28,32,225,36*7A
$GPGSV,3,3,11,32,61,299,41,46,12,248,,48,15,245,*4C
$GPGLL,4506.04380,N,06839.85398,W,184157.00,A,A*76
$RDENS,9062,5291586,PC
$GPRMC,184158.00,A,4506.04377,N,06839.85349,W,1.282,95.76,180924,,,A*48
$GPVTG,95.76,T,,M,1.282,N,2.375,K,A*0A
$GPGGA,184158.00,4506.04377,N,06839.85349,W,1,08,1.00,40.7,M,-29.0,M,,*54
$GPGSA,A,3,24,12,25,21,23,10,28,32,,,,,2.05,1.00,1.79*01
$GPGSV,3,1,11,02,12,323,,10,79,220,36,12,35,094,36,21,19,306,20*73
$GPGSV,3,2,11,23,43,153,38,24,28,055,36,25,32,140,29,28,32,225,37*79
$GPGSV,3,3,11,32,61,299,41,46,12,248,,48,15,245,*4C
$GPGLL,4506.04377,N,06839.85349,W,184158.00,A,A*7D
$RDENS,9063,5291665,PC
$GPRMC,184159.00,A,4506.04375,N,06839.85301,W,1.275,93.26,180924,,,A*4C
$GPVTG,93.26,T,,M,1.275,N,2.361,K,A*04
$GPGGA,184159.00,4506.04375,N,06839.85301,W,1,08,1.00,40.5,M,-29.0,M,,*59
$GPGSA,A,3,24,12,25,21,23,10,28,32,,,,,2.05,1.00,1.79*01
$GPGSV,3,1,11,02,12,323,,10,79,220,36,12,35,094,36,21,19,306,20*73
$GPGSV,3,2,11,23,43,153,38,24,28,055,36,25,32,140,29,28,32,225,38*76
$GPGSV,3,3,11,32,61,299,41,46,12,248,,48,15,245,*4C
$GPGLL,4506.04375,N,06839.85301,W,184159.00,A,A*72
$RDENS,9064,5291744,PC
$RDENS,9065,5291822,PC
$GPRMC,184200.00,A,4506.04374,N,06839.85248,W,1.341,91.83,180924,,,A*45
$GPVTG,91.83,T,,M,1.341,N,2.483,K,A*04
$GPGGA,184200.00,4506.04374,N,06839.85248,W,1,08,1.00,40.4,M,-29.0,M,,*5A
$GPGSA,A,3,24,12,25,21,23,10,28,32,,,,,2.05,1.00,1.79*01
$GPGSV,3,1,11,02,12,323,,10,79,220,36,12,35,094,36,21,19,306,19*79
$GPGSV,3,2,11,23,43,153,38,24,28,055,36,25,32,140,30,28,32,225,38*7E
$GPGSV,3,3,11,32,61,299,40,46,12,248,,48,15,245,*4D
$GPGLL,4506.04374,N,06839.85248,W,184200.00,A,A*70
$RDENS,9066,5291901,PC
$GPRMC,184201.00,A,4506.04374,N,06839.85197,W,1.294,89.61,180924,,,A*49
$GPVTG,89.61,T,,M,1.294,N,2.397,K,A*0A
$GPGGA,184201.00,4506.04374,N,06839.85197,W,1,08,1.00,40.2,M,-29.0,M,,*5C
$GPGSA,A,3,24,12,25,21,23,10,28,32,,,,,2.05,1.00,1.79*01
$GPGSV,3,1,11,02,12,323,,10,79,220,36,12,35,094,36,21,19,306,18*78
$GPGSV,3,2,11,23,43,153,38,24,28,055,36,25,32,140,30,28,32,225,38*7E
$GPGSV,3,3,11,32,61,299,40,46,12,248,,48,15,245,*4D
$GPGLL,4506.04374,N,06839.85197,W,184201.00,A,A*70
$RDENS,9067,5291980,PC
$GPRMC,184202.00,A,4506.04375,N,06839.85145,W,1.335,88.45,180924,,,A*49
$GPVTG,88.45,T,,M,1.335,N,2.472,K,A*0B
$GPGGA,184202.00,4506.04375,N,06839.85145,W,1,08,1.00,40.1,M,-29.0,M,,*52
$GPGSA,A,3,24,12,25,21,23,10,28,32,,,,,2.05,1.00,1.79*01
$GPGSV,3,1,11,02,12,323,,10,79,220,36,12,35,094,36,21,19,306,17*77
$GPGSV,3,2,11,23,43,153,38,24,28,055,36,25,32,140,30,28,32,225,38*7E
$GPGSV,3,3,11,32,61,299,40,46,12,248,,48,15,245,*4D
$GPGLL,4506.04375,N,06839.85145,W,184202.00,A,A*7D
$RDENS,9068,5292058,PC
$GPRMC,184203.00,A,4506.04375,N,06839.85091,W,1.393,88.55,180924,,,A*4D
$GPVTG,88.55,T,,M,1.393,N,2.579,K,A*0C
$GPGGA,184203.00,4506.04375,N,06839.85091,W,1,08,1.00,40.0,M,-29.0,M,,*5A
$GPGSA,A,3,24,12,25,21,23,10,28,32,,,,,2.05,1.00,1.79*01
$GPGSV,3,1,11,02,12,323,,10,79,220,36,12,35,094,36,21,19,306,17*77
$GPGSV,3,2,11,23,43,153,38,24,28,055,36,25,32,140,31,28,32,225,38*7F
$GPGSV,3,3,11,32,61,299,40,46,12,248,,48,15,245,*4D
$GPGLL,4506.04375,N,06839.85091,W,184203.00,A,A*74
$RDENS,9069,5292137,PC
$RDENS,9070,5292215,PC
$GPRMC,184204.00,A,4506.04375,N,06839.85035,W,1.395,87.11,180924,,,A*4D
$GPVTG,87.11,T,,M,1.395,N,2.584,K,A*07
$GPGGA,184204.00,4506.04375,N,06839.85035,W,1,08,1.00,39.9,M,-29.0,M,,*54
$GPGSA,A,3,24,12,25,21,23,10,28,32,,,,,2.05,1.00,1.79*01
$GPGSV,3,1,11,02,12,323,,10,79,220,36,12,35,094,36,21,19,306,18*78
$GPGSV,3,2,11,23,43,153,38,24,28,055,36,25,32,140,31,28,32,225,38*7F
$GPGSV,3,3,11,32,61,300,40,46,12,248,,48,15,245,*4C
$GPGLL,4506.04375,N,06839.85035,W,184204.00,A,A*7D
$RDENS,9071,5292295,PC
$GPRMC,184205.00,A,4506.04376,N,06839.84980,W,1.382,86.11,180924,,,A*4E
$GPVTG,86.11,T,,M,1.382,N,2.560,K,A*0A
$GPGGA,184205.00,4506.04376,N,06839.84980,W,1,08,1.00,39.8,M,-29.0,M,,*51
$GPGSA,A,3,24,12,25,21,23,10,28,32,,,,,2.05,1.00,1.79*01
$GPGSV,3,1,11,02,12,323,,10,79,220,35,12,35,094,36,21,19,306,17*74
$GPGSV,3,2,11,23,43,153,38,24,28,055,36,25,32,140,31,28,32,225,38*7F
$GPGSV,3,3,11,32,61,300,40,46,12,248,,48,15,245,*4C
$GPGLL,4506.04376,N,06839.84980,W,184205.00,A,A*79
$RDENS,9072,5292373,PC
$GPRMC,184206.00,A,4506.04378,N,06839.84925,W,1.339,84.72,180924,,,A*4B
$GPVTG,84.72,T,,M,1.339,N,2.480,K,A*02
$GPGGA,184206.00,4506.04378,N,06839.84925,W,1,08,1.00,39.7,M,-29.0,M,,*5C
$GPGSA,A,3,24,12,25,21,23,10,28,32,,,,,2.05,1.00,1.79*01
$GPGSV,3,1,11,02,12,323,,10,79,220,35,12,35,094,36,21,19,306,17*74
$GPGSV,3,2,11,23,43,153,38,24,28,055,36,25,32,140,31,28,32,225,38*7F
$GPGSV,3,3,11,32,61,300,40,46,12,248,,48,15,245,*4C
$GPGLL,4506.04378,N,06839.84925,W,184206.00,A,A*7B
$RDENS,9073,5292452,PC
$GPRMC,184207.00,A,4506.04382,N,06839.84871,W,1.395,82.60,180924,,,A*4C
$GPVTG,82.60,T,,M,1.395,N,2.583,K,A*03
$GPGGA,184207.00,4506.04382,N,06839.84871,W,1,07,1.27,39.7,M,-29.0,M,,*52
$GPGSA,A,3,24,12,25,23,10,28,32,,,,,,2.78,1.27,2.47*03
$GPGSV,3,1,11,02,12,323,,10,79,220,35,12,35,094,36,21,19,306,*72
$GPGSV,3,2,11,23,43,153,38,24,28,055,36,25,32,140,31,28,32,225,38*7F
$GPGSV,3,3,11,32,61,300,40,46,12,248,,48,15,245,*4C
$GPGLL,4506.04382,N,06839.84871,W,184207.00,A,A*7F
$RDENS,9074,5292531,PC
$RDENS,9075,5292609,PC
$GPRMC,184208.00,A,4506.04388,N,06839.84816,W,1.420,81.06,180924,,,A*42
$GPVTG,81.06,T,,M,1.420,N,2.631,K,A*03
$GPGGA,184208.00,4506.04388,N,06839.84816,W,1,07,1.27,39.5,M,-29.0,M,,*54
$GPGSA,A,3,24,12,25,23,10,28,32,,,,,,2.78,1.27,2.47*03
$GPGSV,3,1,11,02,12,323,,10,79,220,35,12,35,094,36,21,19,306,*72
$GPGSV,3,2,11,23,43,153,38,24,28,055,36,25,32,140,30,28,32,225,38*7E
$GPGSV,3,3,11,32,61,300,40,46,12,248,,48,15,245,*4C
$GPGLL,4506.04388,N,06839.84816,W,184208.00,A,A*7B
$RDENS,9076,5292688,PC
$GPRMC,184209.00,A,4506.04394,N,06839.84760,W,1.410,80.33,180924,,,A*44
$GPVTG,80.33,T,,M,1.410,N,2.611,K,A*05
$GPGGA,184209.00,4506.04394,N,06839.84760,W,1,07,1.27,39.4,M,-29.0,M,,*57
$GPGSA,A,3,24,12,25,23,10,28,32,,,,,,2.78,1.27,2.47*03
$GPGSV,3,1,11,02,12,323,,10,79,220,35,12,35,094,35,21,19,306,16*76
$GPGSV,3,2,11,23,43,153,38,24,28,055,36,25,32,140,31,28,32,225,38*7F
$GPGSV,3,3,11,32,61,300,40,46,12,248,,48,15,245,*4C
$GPGLL,4506.04394,N,06839.84760,W,184209.00,A,A*79
$RDENS,9077,5292766,PC
$GPRMC,184210.00,A,4506.04401,N,06839.84704,W,1.416,79.63,180924,,,A*40
$GPVTG,79.63,T,,M,1.416,N,2.623,K,A*01
$GPGGA,184210.00,4506.04401,N,06839.84704,W,1,07,1.27,39.3,M,-29.0,M,,*51
$GPGSA,A,3,24,12,25,23,10,28,32,,,,,,2.78,1.27,2.47*03
$GPGSV,3,1,11,02,12,323,,10,79,220,35,12,35,094,36,21,19,306,16*75
$GPGSV,3,2,11,23,43,153,38,24,28,055,36,25,32,140,31,28,32,225,38*7F
$GPGSV,3,3,11,32,61,300,40,46,12,248,,48,15,245,*4C
$GPGLL,4506.04401,N,06839.84704,W,184210.00,A,A*78
$RDENS,9078,5292845,PC
$GPRMC,184211.00,A,4506.04407,N,06839.84648,W,1.434,80.08,180924,,,A*45
$GPVTG,80.08,T,,M,1.434,N,2.656,K,A*08
$GPGGA,184211.00,4506.04407,N,06839.84648,W,1,07,1.27,39.3,M,-29.0,M,,*5F
$GPGSA,A,3,24,12,25,23,10,28,32,,,,,,2.78,1.27,2.47*03
$GPGSV,3,1,11,02,12,323,,10,79,220,36,12,35,094,36,21,19,306,15*75
$GPGSV,3,2,11,23,43,153,38,24,28,055,36,25,32,140,31,28,32,225,38*7F
$GPGSV,3,3,11,32,61,300,40,46,12,248,,48,15,245,*4C
$GPGLL,4506.04407,N,06839.84648,W,184211.00,A,A*76
$RDENS,9079,5292924,PC
$RDENS,9080,5293003,PC
$GPRMC,184212.00,A,4506.04416,N,06839.84596,W,1.392,77.40,180924,,,A*49
$GPVTG,77.40,T,,M,1.392,N,2.578,K,A*08
$GPGGA,184212.00,4506.04416,N,06839.84596,W,1,08,1.00,39.1,M,-29.0,M,,*54
$GPGSA,A,3,24,12,25,21,23,10,28,32,,,,,2.05,1.00,1.80*07
$GPGSV,3,1,11,02,12,323,,10,79,220,35,12,35,094,36,21,19,306,16*75
$GPGSV,3,2,11,23,43,153,38,24,28,055,36,25,32,140,31,28,32,225,38*7F
$GPGSV,3,3,11,32,61,300,40,46,12,248,,48,15,245,*4C
$GPGLL,4506.04416,N,06839.84596,W,184212.00,A,A*75
$RDENS,9081,5293081,PC
$GPRMC,184213.00,A,4506.04424,N,06839.84542,W,1.432,77.95,180924,,,A*45
$GPVTG,77.95,T,,M,1.432,N,2.652,K,A*06
$GPGGA,184213.00,4506.04424,N,06839.84542,W,1,07,1.27,39.0,M,-29.0,M,,*56
$GPGSA,A,3,24,12,25,23,10,28,32,,,,,,2.78,1.27,2.47*03
$GPGSV,3,1,11,02,12,323,,10,79,220,35,12,35,094,36,21,19,306,*72
$GPGSV,3,2,11,23,43,153,38,24,28,055,36,25,32,140,30,28,32,225,38*7E
$GPGSV,3,3,11,32,61,300,40,46,12,248,,48,15,245,*4C
$GPGLL,4506.04424,N,06839.84542,W,184213.00,A,A*7C
$RDENS,9082,5293160,PC
$GPRMC,184214.00,A,4506.04431,N,06839.84487,W,1.419,78.28,180924,,,A*4E
$GPVTG,78.28,T,,M,1.419,N,2.629,K,A*0A
$GPGGA,184214.00,4506.04431,N,06839.84487,W,1,07,1.27,38.9,M,-29.0,M,,*55
$GPGSA,A,3,24,12,25,23,10,28,32,,,,,,2.78,1.27,2.47*03
$GPGSV,3,1,11,02,12,323,,10,79,220,36,12,35,094,36,21,19,306,17*77
$GPGSV,3,2,11,23,43,153,38,24,28,055,36,25,32,140,30,28,32,225,38*7E
$GPGSV,3,3,11,32,61,300,40,46,12,248,,48,15,245,*4C
$GPGLL,4506.04431,N,06839.84487,W,184214.00,A,A*77
$RDENS,9083,5293239,PC
$RDENS,9084,5293317,PC
$GPRMC,184215.00,A,4506.04438,N,06839.84431,W,1.442,78.41,180924,,,A*4A
$GPVTG,78.41,T,,M,1.442,N,2.671,K,A*06
$GPGGA,184215.00,4506.04438,N,06839.84431,W,1,07,1.27,38.8,M,-29.0,M,,*51
$GPGSA,A,3,24,12,25,23,10,28,32,,,,,,2.78,1.27,2.47*03
$GPGSV,3,1,11,02,12,323,17,10,79,220,35,12,35,094,36,21,19,306,18*7D
$GPGSV,3,2,11,23,43,153,38,24,28,055,36,25,32,140,30,28,32,225,38*7E
$GPGSV,3,3,11,32,61,300,41,46,12,248,,48,15,245,*4D
$GPGLL,4506.04438,N,06839.84431,W,184215.00,A,A*72
$RDENS,9085,5293396,PC
$GPRMC,184216.00,A,4506.04448,N,06839.84374,W,1.504,78.36,180924,,,A*4B
$GPVTG,78.36,T,,M,1.504,N,2.785,K,A*0F
$GPGGA,184216.00,4506.04448,N,06839.84374,W,1,07,1.27,38.7,M,-29.0,M,,*5C
$GPGSA,A,3,24,12,25,23,10,28,32,,,,,,2.78,1.27,2.47*03
$GPGSV,3,1,11,02,12,323,17,10,79,220,35,12,35,094,36,21,19,306,17*72
$GPGSV,3,2,11,23,43,153,38,24,28,055,36,25,32,140,29,28,32,225,38*76
$GPGSV,3,3,11,32,61,300,41,46,12,248,,48,15,245,*4D
$GPGLL,4506.04448,N,06839.84374,W,184216.00,A,A*70
$RDENS,9086,5293475,PC
$GPRMC,184217.00,A,4506.04456,N,06839.84317,W,1.464,79.07,180924,,,A*44
$GPVTG,79.07,T,,M,1.464,N,2.711,K,A*06
$GPGGA,184217.00,4506.04456,N,06839.84317,W,1,07,1.27,38.6,M,-29.0,M,,*56
$GPGSA,A,3,24,12,25,23,10,28,32,,,,,,2.78,1.27,2.47*03
$GPGSV,3,1,11,02,12,323,16,10,79,220,35,12,35,094,36,21,19,306,17*73
$GPGSV,3,2,11,23,43,153,38,24,28,055,36,25,32,140,29,28,32,225,38*76
$GPGSV,3,3,11,32,61,300,41,46,12,248,,48,15,245,*4D
$GPGLL,4506.04456,N,06839.84317,W,184217.00,A,A*7B
$RDENS,9087,5293554,PC
$GPRMC,184218.00,A,4506.04462,N,06839.84259,W,1.462,79.31,180924,,,A*44
$GPVTG,79.31,T,,M,1.462,N,2.708,K,A*0D
$GPGGA,184218.00,4506.04462,N,06839.84259,W,1,08,1.00,38.6,M,-29.0,M,,*5F
$GPGSA,A,3,24,12,25,21,23,10,28,32,,,,,2.05,1.00,1.80*07
$GPGSV,3,1,11,02,12,323,16,10,79,220,36,12,35,094,35,21,19,306,16*72
$GPGSV,3,2,11,23,43,153,37,24,28,055,36,25,32,140,29,28,32,225,37*76
$GPGSV,3,3,11,32,61,300,41,46,12,248,,48,15,245,*4D
$GPGLL,4506.04462,N,06839.84259,W,184218.00,A,A*78
$RDENS,9088,5293632,PC
$RDENS,9089,5293711,PC
$GPRMC,184219.00,A,4506.04468,N,06839.84201,W,1.469,79.71,180924,,,A*4D
$GPVTG,79.71,T,,M,1.469,N,2.720,K,A*08
$GPGGA,184219.00,4506.04468,N,06839.84201,W,1,08,1.00,38.6,M,-29.0,M,,*59
$GPGSA,A,3,24,12,25,21,23,10,28,32,,,,,2.05,1.00,1.80*07
$GPGSV,3,1,11,02,12,323,,10,79,220,36,12,35,094,35,21,19,306,15*76
$GPGSV,3,2,11,23,43,153,37,24,28,055,35,25,32,140,29,28,32,225,36*74
$GPGSV,3,3,11,32,61,300,41,46,12,248,,48,15,245,*4D
$GPGLL,4506.04468,N,06839.84201,W,184219.00,A,A*7E
$RDENS,9090,5293789,PC
$GPRMC,184220.00,A,4506.04473,N,06839.84143,W,1.474,80.67,180924,,,A*45
$GPVTG,80.67,T,,M,1.474,N,2.730,K,A*04
$GPGGA,184220.00,4506.04473,N,06839.84143,W,1,07,1.27,38.5,M,-29.0,M,,*55
$GPGSA,A,3,24,12,25,23,10,28,32,,,,,,2.78,1.27,2.48*0C
$GPGSV,3,1,11,02,12,323,,10,79,220,35,12,35,094,35,21,19,306,*71
$GPGSV,3,2,11,23,43,153,37,24,28,055,35,25,32,140,29,28,32,225,36*74
$GPGSV,3,3,11,32,61,300,42,46,12,248,,48,15,245,*4E
$GPGLL,4506.04473,N,06839.84143,W,184220.00,A,A*7B
$RDENS,9091,5293869,PC
$GPRMC,184221.00,A,4506.04477,N,06839.84086,W,1.471,81.49,180924,,,A*40
$GPVTG,81.49,T,,M,1.471,N,2.725,K,A*08
$GPGGA,184221.00,4506.04477,N,06839.84086,W,1,07,1.27,38.4,M,-29.0,M,,*59
$GPGSA,A,3,24,12,25,23,10,28,32,,,,,,2.78,1.27,2.48*0C
$GPGSV,3,1,11,02,12,323,,10,79,220,35,12,35,094,35,21,19,306,17*77
$GPGSV,3,2,11,23,43,153,37,24,28,055,35,25,32,140,29,28,32,225,36*74
$GPGSV,3,3,11,32,61,300,42,46,12,248,,48,15,245,*4E
$GPGLL,4506.04477,N,06839.84086,W,184221.00,A,A*76
$RDENS,9092,5293947,PC
$GPRMC,184222.00,A,4506.04482,N,06839.84028,W,1.485,81.70,180924,,,A*4C
$GPVTG,81.70,T,,M,1.485,N,2.750,K,A*0B
$GPGGA,184222.00,4506.04482,N,06839.84028,W,1,07,1.27,38.3,M,-29.0,M,,*53
$GPGSA,A,3,24,12,25,23,10,28,32,,,,,,2.78,1.27,2.48*0C
$GPGSV,3,1,11,02,12,323,,10,79,220,36,12,35,094,35,21,19,306,17*74
$GPGSV,3,2,11,23,43,153,37,24,28,055,35,25,32,140,29,28,32,225,36*74
$GPGSV,3,3,11,32,61,300,42,46,12,248,,48,15,245,*4E
$GPGLL,4506.04482,N,06839.84028,W,184222.00,A,A*7B
$RDENS,9093,5294026,PC
$RDENS,9094,5294104,PC
$GPRMC,184223.00,A,4506.04486,N,06839.83969,W,1.467,82.51,180924,,,A*4E
$GPVTG,82.51,T,,M,1.467,N,2.717,K,A*04
$GPGGA,184223.00,4506.04486,N,06839.83969,W,1,07,1.27,38.3,M,-29.0,M,,*5D
$GPGSA,A,3,24,12,25,23,10,28,32,,,,,,2.78,1.27,2.48*0C
$GPGSV,3,1,11,02,12,323,,10,79,220,35,12,35,094,35,21,19,306,16*76
$GPGSV,3,2,11,23,43,153,37,24,28,055,34,25,32,140,28,28,32,225,36*74
$GPGSV,3,3,11,32,61,300,41,46,12,248,,48,15,245,*4D
$GPGLL,4506.04486,N,06839.83969,W,184223.00,A,A*75
$RDENS,9095,5294183,PC
$GPRMC,184224.00,A,4506.04489,N,06839.83910,W,1.472,83.36,180924,,,A*4C
$GPVTG,83.36,T,,M,1.472,N,2.726,K,A*02
$GPGGA,184224.00,4506.04489,N,06839.83910,W,1,07,1.27,38.4,M,-29.0,M,,*5C
$GPGSA,A,3,24,12,25,23,10,28,32,,,,,,2.78,1.27,2.48*0C
$GPGSV,3,1,11,02,12,323,,10,79,220,35,12,35,094,35,21,19,306,15*75
$GPGSV,3,2,11,23,43,153,37,24,28,055,34,25,32,140,29,28,32,225,36*75
$GPGSV,3,3,11,32,61,300,42,46,12,248,,48,15,245,*4E
$GPGLL,4506.04489,N,06839.83910,W,184224.00,A,A*73
$RDENS,9096,5294261,PC
$GPRMC,184225.00,A,4506.04493,N,06839.83853,W,1.488,83.64,180924,,,A*42
$GPVTG,83.64,T,,M,1.488,N,2.755,K,A*04
$GPGGA,184225.00,4506.04493,N,06839.83853,W,1,08,1.27,38.3,M,-29.0,M,,*58
$GPGSA,A,3,24,12,25,21,23,10,28,32,,,,,2.78,1.27,2.48*0F
$GPGSV,3,1,11,02,12,323,,10,79,220,35,12,35,094,35,21,19,306,14*74
$GPGSV,3,2,11,23,43,153,37,24,28,055,34,25,32,140,29,28,32,225,36*75
$GPGSV,3,3,11,32,61,300,41,46,12,248,,48,15,245,*4D
$GPGLL,4506.04493,N,06839.83853,W,184225.00,A,A*7F
$RDENS,9097,5294340,PC
$RDENS,9098,5294419,PC
$GPRMC,184226.00,A,4506.04497,N,06839.83796,W,1.493,83.74,180924,,,A*48
$GPVTG,83.74,T,,M,1.493,N,2.765,K,A*0C
$GPGGA,184226.00,4506.04497,N,06839.83796,W,1,07,1.27,38.3,M,-29.0,M,,*56
$GPGSA,A,3,24,12,25,23,10,28,32,,,,,,2.78,1.27,2.48*0C
$GPGSV,3,1,11,02,12,323,,10,79,218,35,12,35,094,35,21,19,306,*7A
$GPGSV,3,2,11,23,43,153,37,24,28,055,35,25,32,140,29,28,32,225,36*74
$GPGSV,3,3,11,32,61,300,41,46,12,248,,48,15,245,*4D
$GPGLL,4506.04497,N,06839.83796,W,184226.00,A,A*7E
$RDENS,9099,5294498,PC
$GPRMC,184227.00,A,4506.04501,N,06839.83739,W,1.461,83.50,180924,,,A*49
$GPVTG,83.50,T,,M,1.461,N,2.706,K,A*02
$GPGGA,184227.00,4506.04501,N,06839.83739,W,1,07,1.27,38.3,M,-29.0,M,,*5C
$GPGSA,A,3,24,12,25,23,10,28,32,,,,,,2.78,1.27,2.48*0C
$GPGSV,3,1,11,02,12,323,,10,79,218,35,12,35,094,35,21,19,306,*7A
$GPGSV,3,2,11,23,43,153,37,24,28,055,34,25,32,140,28,28,32,225,37*75
$GPGSV,3,3,11,32,61,300,41,46,12,248,,48,15,245,*4D
$GPGLL,4506.04501,N,06839.83739,W,184227.00,A,A*74
$RDENS,9100,5294577,PC
$GPRMC,184228.00,A,4506.04505,N,06839.83683,W,1.482,83.33,180924,,,A*4A
$GPVTG,83.33,T,,M,1.482,N,2.746,K,A*0E
$GPGGA,184228.00,4506.04505,N,06839.83683,W,1,07,1.27,38.3,M,-29.0,M,,*57
$GPGSA,A,3,24,12,25,23,10,28,32,,,,,,2.78,1.27,2.48*0C
$GPGSV,3,1,11,02,12,323,,10,79,218,35,12,35,094,36,21,19,306,16*7E
$GPGSV,3,2,11,23,43,153,38,24,28,055,35,25,32,140,28,28,32,225,37*7B
$GPGSV,3,3,11,32,61,300,41,46,12,248,,48,15,245,*4D
$GPGLL,4506.04505,N,06839.83683,W,184228.00,A,A*7F
$RDENS,9101,5294655,PC
$GPRMC,184229.00,A,4506.04509,N,06839.83627,W,1.473,83.73,180924,,,A*43
$GPVTG,83.73,T,,M,1.473,N,2.729,K,A*0D
$GPGGA,184229.00,4506.04509,N,06839.83627,W,1,07,1.27,38.3,M,-29.0,M,,*54
$GPGSA,A,3,24,12,25,23,10,28,32,,,,,,2.78,1.27,2.48*0C
$GPGSV,3,1,11,02,12,323,,10,79,218,36,12,35,094,36,21,19,306,16*7D
$GPGSV,3,2,11,23,43,153,38,24,28,055,35,25,32,140,27,28,32,225,38*7B
$GPGSV,3,3,11,32,61,300,41,46,12,248,,48,15,245,*4D
$GPGLL,4506.04509,N,06839.83627,W,184229.00,A,A*7C
$RDENS,9102,5294733,PC
$RDENS,9103,5294813,PC
$GPRMC,184230.00,A,4506.04514,N,06839.83570,W,1.496,83.60,180924,,,A*4F
$GPVTG,83.60,T,,M,1.496,N,2.771,K,A*09
$GPGGA,184230.00,4506.04514,N,06839.83570,W,1,07,1.27,38.3,M,-29.0,M,,*51
$GPGSA,A,3,24,12,25,23,10,28,32,,,,,,2.78,1.27,2.48*0C
$GPGSV,3,1,11,02,12,323,,10,79,218,35,12,35,094,36,21,19,306,19*71
$GPGSV,3,2,11,23,43,153,38,24,28,055,35,25,32,140,28,28,32,225,38*74
$GPGSV,3,3,11,32,61,300,41,46,12,248,,48,15,245,*4D
$GPGLL,4506.04514,N,06839.83570,W,184230.00,A,A*79
$RDENS,9104,5294892,PC
$GPRMC,184231.00,A,4506.04519,N,06839.83513,W,1.481,82.74,180924,,,A*44
$GPVTG,82.74,T,,M,1.481,N,2.743,K,A*0A
$GPGGA,184231.00,4506.04519,N,06839.83513,W,1,08,1.27,38.3,M,-29.0,M,,*57
$GPGSA,A,3,24,12,25,21,23,10,28,32,,,,,2.78,1.27,2.48*0F
$GPGSV,3,1,11,02,12,323,,10,79,218,35,12,35,094,36,21,19,306,19*71
$GPGSV,3,2,11,23,43,153,38,24,28,055,35,25,32,140,28,28,32,225,38*74
$GPGSV,3,3,11,32,61,300,41,46,12,248,,48,15,245,*4D
$GPGLL,4506.04519,N,06839.83513,W,184231.00,A,A*70
$RDENS,9105,5294970,PC
$GPRMC,184232.00,A,4506.04526,N,06839.83456,W,1.485,82.06,180924,,,A*4A
$GPVTG,82.06,T,,M,1.485,N,2.750,K,A*09
$GPGGA,184232.00,4506.04526,N,06839.83456,W,1,08,1.27,38.3,M,-29.0,M,,*58
$GPGSA,A,3,24,12,25,21,23,10,28,32,,,,,2.78,1.27,2.48*0F
$GPGSV,3,1,11,02,12,323,,10,79,218,35,12,35,094,36,21,19,306,19*71
$GPGSV,3,2,11,23,43,153,38,24,28,055,35,25,32,140,28,28,32,225,38*74
$GPGSV,3,3,11,32,61,300,41,46,12,248,,48,15,245,*4D
$GPGLL,4506.04526,N,06839.83456,W,184232.00,A,A*7F
$RDENS,9106,5295049,PC
$GPRMC,184233.00,A,4506.04533,N,06839.83397,W,1.487,82.54,180924,,,A*40
$GPVTG,82.54,T,,M,1.487,N,2.754,K,A*08
$GPGGA,184233.00,4506.04533,N,06839.83397,W,1,08,1.27,38.3,M,-29.0,M,,*57
$GPGSA,A,3,24,12,25,21,23,10,28,32,,,,,2.78,1.27,2.48*0F
$GPGSV,3,1,11,02,12,323,,10,79,218,35,12,35,094,36,21,19,306,18*70
$GPGSV,3,2,11,23,43,153,38,24,28,055,36,25,32,140,28,28,32,225,38*77
$GPGSV,3,3,11,32,61,300,41,46,12,248,,48,15,245,*4D
$GPGLL,4506.04533,N,06839.83397,W,184233.00,A,A*70
$RDENS,9107,5295128,PC
$RDENS,9108,5295206,PC
$GPRMC,184234.00,A,4506.04539,N,06839.83339,W,1.477,81.90,180924,,,A*4D
$GPVTG,81.90,T,,M,1.477,N,2.735,K,A*0B
$GPGGA,184234.00,4506.04539,N,06839.83339,W,1,08,1.27,38.3,M,-29.0,M,,*5E
$GPGSA,A,3,24,12,25,21,23,10,28,32,,,,,2.78,1.27,2.48*0F
