$GPRMC,171033.00,A,4505.96162,N,06839.81953,W,0.812,337.81,180924,,,A*74
$GPVTG,337.81,T,,M,0.812,N,1.503,K,A*3F
$GPGGA,171033.00,4505.96162,N,06839.81953,W,1,07,1.11,38.7,M,-29.0,M,,*59
$GPGSA,A,3,18,24,22,15,23,10,32,,,,,,1.78,1.11,1.39*0C
$GPGSV,3,1,11,08,02,307,,10,49,308,35,12,08,130,25,15,28,075,34*71
$GPGSV,3,2,11,18,28,190,28,21,00,334,,22,07,035,25,23,87,064,36*71
$GPGSV,3,3,11,24,64,083,41,27,02,277,,32,28,263,38*41
$GPGLL,4505.96162,N,06839.81953,W,171033.00,A,A*70
$GPRMC,171034.00,A,4505.96181,N,06839.81978,W,0.899,326.31,180924,,,A*7F
$GPVTG,326.31,T,,M,0.899,N,1.665,K,A*34
$GPGGA,171034.00,4505.96181,N,06839.81978,W,1,08,0.96,38.6,M,-29.0,M,,*5A
$GPGSA,A,3,18,24,12,22,15,23,10,32,,,,,1.58,0.96,1.25*0E
$GPGSV,3,1,11,08,02,307,,10,49,308,34,12,08,130,27,15,28,075,30*76
$GPGSV,3,2,11,18,28,190,30,21,00,334,,22,07,035,24,23,87,064,36*79
$GPGSV,3,3,11,24,64,083,41,27,02,277,,32,28,263,39*40
$GPGLL,4505.96181,N,06839.81978,W,171034.00,A,A*73
$RDENS,2096,4743297,PC
$GPRMC,171035.00,A,4505.96200,N,06839.82006,W,0.973,318.68,180924,,,A*73
$GPVTG,318.68,T,,M,0.973,N,1.801,K,A*3C
$GPGGA,171035.00,4505.96200,N,06839.82006,W,1,08,0.96,38.5,M,-29.0,M,,*51
$GPGSA,A,3,18,24,12,22,15,23,10,32,,,,,1.58,0.96,1.25*0E
$GPGSV,3,1,11,08,02,307,,10,49,308,32,12,08,130,27,15,28,075,32*72
$GPGSV,3,2,11,18,28,190,31,21,00,334,,22,07,035,23,23,87,064,36*7F
$GPGSV,3,3,11,24,64,083,41,27,02,277,,32,28,263,39*40
$GPGLL,4505.96200,N,06839.82006,W,171035.00,A,A*7B
$RDENS,2097,4743375,PC
$GPRMC,171036.00,A,4505.96216,N,06839.82039,W,0.993,310.86,180924,,,A*7D
$GPVTG,310.86,T,,M,0.993,N,1.839,K,A*31
$GPGGA,171036.00,4505.96216,N,06839.82039,W,1,08,0.96,38.4,M,-29.0,M,,*58
$GPGSA,A,3,18,24,12,22,15,23,10,32,,,,,1.58,0.96,1.25*0E
$GPGSV,3,1,11,08,02,307,,10,49,308,31,12,08,130,28,15,28,075,32*7E
$GPGSV,3,2,11,18,28,190,30,21,00,334,,22,07,035,26,23,87,064,36*7B
$GPGSV,3,3,11,24,64,083,41,27,02,277,,32,28,263,38*41
$GPGLL,4505.96216,N,06839.82039,W,171036.00,A,A*73
$RDENS,2098,4743455,PC
$GPRMC,171037.00,A,4505.96231,N,06839.82074,W,1.088,304.80,180924,,,A*71
$GPVTG,304.80,T,,M,1.088,N,2.014,K,A*34
$GPGGA,171037.00,4505.96231,N,06839.82074,W,1,08,0.96,38.4,M,-29.0,M,,*55
$GPGSA,A,3,18,24,12,22,15,23,10,32,,,,,1.58,0.96,1.25*0E
$GPGSV,3,1,11,08,02,307,,10,49,308,30,12,08,130,31,15,28,075,31*74
$GPGSV,3,2,11,18,28,190,30,21,00,334,,22,07,035,29,23,87,064,35*77
$GPGSV,3,3,11,24,64,083,39,27,02,277,,32,28,263,38*4E
$GPGLL,4505.96231,N,06839.82074,W,171037.00,A,A*7E
$RDENS,2099,4743533,PC
$RDENS,2100,4743612,PC
$GPRMC,171038.00,A,4505.96246,N,06839.82114,W,1.155,299.35,180924,,,A*73
$GPVTG,299.35,T,,M,1.155,N,2.140,K,A*3E
$GPGGA,171038.00,4505.96246,N,06839.82114,W,1,08,0.96,38.3,M,-29.0,M,,*5A
$GPGSA,A,3,18,24,12,22,15,23,10,32,,,,,1.58,0.96,1.25*0E
$GPGSV,3,1,11,08,02,307,,10,49,308,30,12,08,130,33,15,28,075,31*76
$GPGSV,3,2,11,18,28,190,29,21,00,334,,22,07,035,31,23,87,064,35*76
$GPGSV,3,3,11,24,64,083,39,27,02,277,,32,28,263,39*4F
$GPGLL,4505.96246,N,06839.82114,W,171038.00,A,A*76
$RDENS,2101,4743690,PC
$GPRMC,171039.00,A,4505.96261,N,06839.82159,W,1.229,295.59,180924,,,A*70
$GPVTG,295.59,T,,M,1.229,N,2.277,K,A*37
$GPGGA,171039.00,4505.96261,N,06839.82159,W,1,08,0.96,38.3,M,-29.0,M,,*57
$GPGSA,A,3,18,24,12,22,15,23,10,32,,,,,1.58,0.96,1.25*0E
$GPGSV,3,1,11,08,02,307,,10,49,308,31,12,09,129,33,15,28,075,33*7C
$GPGSV,3,2,11,18,28,190,30,21,00,334,,22,07,035,31,23,87,064,36*7D
$GPGSV,3,3,11,24,64,083,41,27,02,277,,32,28,263,38*41
$GPGLL,4505.96261,N,06839.82159,W,171039.00,A,A*7B
$RDENS,2102,4743769,PC
$GPRMC,171040.00,A,4505.96274,N,06839.82206,W,1.315,294.14,180924,,,A*75
$GPVTG,294.14,T,,M,1.315,N,2.435,K,A*31
$GPGGA,171040.00,4505.96274,N,06839.82206,W,1,08,0.96,38.2,M,-29.0,M,,*55
$GPGSA,A,3,18,24,12,22,15,23,10,32,,,,,1.58,0.96,1.25*0E
$GPGSV,3,1,11,08,02,307,,10,49,308,33,12,09,129,34,15,28,075,33*79
$GPGSV,3,2,11,18,28,190,31,21,00,334,,22,07,035,31,23,87,064,36*7C
$GPGSV,3,3,11,24,64,083,41,27,02,277,,32,28,263,38*41
$GPGLL,4505.96274,N,06839.82206,W,171040.00,A,A*78
$RDENS,2103,4743847,PC
$GPRMC,171041.00,A,4505.96284,N,06839.82260,W,1.375,291.47,180924,,,A*7E
$GPVTG,291.47,T,,M,1.375,N,2.547,K,A*30
$GPGGA,171041.00,4505.96284,N,06839.82260,W,1,08,0.96,38.1,M,-29.0,M,,*58
$GPGSA,A,3,18,24,12,22,15,23,10,32,,,,,1.58,0.96,1.25*0E
$GPGSV,3,1,11,08,02,307,,10,49,308,33,12,09,129,34,15,28,075,34*7E
$GPGSV,3,2,11,18,28,190,32,21,00,334,,22,07,035,31,23,87,064,36*7F
$GPGSV,3,3,11,24,64,083,40,27,02,277,,32,28,263,37*4F
$GPGLL,4505.96284,N,06839.82260,W,171041.00,A,A*76
$RDENS,2104,4743926,PC
$RDENS,2105,4744005,PC
$GPRMC,171042.00,A,4505.96294,N,06839.82315,W,1.420,289.42,180924,,,A*74
$GPVTG,289.42,T,,M,1.420,N,2.631,K,A*39
$GPGGA,171042.00,4505.96294,N,06839.82315,W,1,08,0.96,38.1,M,-29.0,M,,*59
$GPGSA,A,3,18,24,12,22,15,23,10,32,,,,,1.58,0.96,1.25*0E
$GPGSV,3,1,11,08,02,307,,10,49,308,33,12,09,129,33,15,28,075,35*78
$GPGSV,3,2,11,18,28,190,33,21,00,334,,22,07,035,31,23,87,064,36*7E
$GPGSV,3,3,11,24,64,083,40,27,02,277,,32,28,263,36*4E
$GPGLL,4505.96294,N,06839.82315,W,171042.00,A,A*77
$RDENS,2106,4744084,PC
$GPRMC,171043.00,A,4505.96304,N,06839.82370,W,1.447,287.78,180924,,,A*78
$GPVTG,287.78,T,,M,1.447,N,2.679,K,A*33
$GPGGA,171043.00,4505.96304,N,06839.82370,W,1,08,0.96,38.0,M,-29.0,M,,*52
$GPGSA,A,3,18,24,12,22,15,23,10,32,,,,,1.58,0.96,1.25*0E
$GPGSV,3,1,11,08,02,307,,10,49,308,34,12,09,129,33,15,28,075,35*7F
$GPGSV,3,2,11,18,28,190,33,21,00,334,,22,07,035,31,23,87,064,36*7E
$GPGSV,3,3,11,24,64,083,40,27,02,277,,32,28,263,36*4E
$GPGLL,4505.96304,N,06839.82370,W,171043.00,A,A*7D
$RDENS,2107,4744162,PC
$GPRMC,171044.00,A,4505.96316,N,06839.82424,W,1.441,287.46,180924,,,A*71
$GPVTG,287.46,T,,M,1.441,N,2.668,K,A*38
$GPGGA,171044.00,4505.96316,N,06839.82424,W,1,08,0.96,37.8,M,-29.0,M,,*57
$GPGSA,A,3,18,24,12,22,15,23,10,32,,,,,1.58,0.96,1.25*0E
$GPGSV,3,1,11,08,02,307,,10,49,308,34,12,09,129,33,15,28,075,34*7E
$GPGSV,3,2,11,18,28,190,33,21,00,334,,22,07,035,31,23,87,064,36*7E
$GPGSV,3,3,11,24,64,083,40,27,02,277,,32,28,263,37*4F
$GPGLL,4505.96316,N,06839.82424,W,171044.00,A,A*7F
$RDENS,2108,4744242,PC
$RDENS,2109,4744321,PC
$GPRMC,171045.00,A,4505.96327,N,06839.82480,W,1.488,287.41,180924,,,A*7E
$GPVTG,287.41,T,,M,1.488,N,2.756,K,A*36
$GPGGA,171045.00,4505.96327,N,06839.82480,W,1,08,0.96,37.8,M,-29.0,M,,*5A
$GPGSA,A,3,18,24,12,22,15,23,10,32,,,,,1.58,0.96,1.25*0E
$GPGSV,3,1,11,08,02,307,,10,49,308,32,12,09,129,33,15,28,075,33*7F
$GPGSV,3,2,11,18,27,190,32,21,00,334,,22,07,035,32,23,87,064,36*73
$GPGSV,3,3,11,24,64,083,40,27,02,277,,32,28,263,38*40
$GPGLL,4505.96327,N,06839.82480,W,171045.00,A,A*72
$RDENS,2110,4744399,PC
$GPRMC,171046.00,A,4505.96340,N,06839.82535,W,1.452,288.35,180924,,,A*78
$GPVTG,288.35,T,,M,1.452,N,2.689,K,A*3E
$GPGGA,171046.00,4505.96340,N,06839.82535,W,1,08,0.96,37.7,M,-29.0,M,,*58
$GPGSA,A,3,18,24,12,22,15,23,10,32,,,,,1.58,0.96,1.25*0E
$GPGSV,3,1,11,08,02,307,,10,49,308,32,12,09,129,31,15,28,075,32*7C
$GPGSV,3,2,11,18,27,190,31,21,00,334,,22,07,035,32,23,87,064,36*70
$GPGSV,3,3,11,24,64,083,41,27,02,277,,32,28,263,38*41
$GPGLL,4505.96340,N,06839.82535,W,171046.00,A,A*7F
$RDENS,2111,4744477,PC
$GPRMC,171047.00,A,4505.96351,N,06839.82587,W,1.414,289.50,180924,,,A*70
$GPVTG,289.50,T,,M,1.414,N,2.619,K,A*37
$GPGGA,171047.00,4505.96351,N,06839.82587,W,1,08,0.96,37.6,M,-29.0,M,,*51
$GPGSA,A,3,18,24,12,22,15,23,10,32,,,,,1.58,0.96,1.25*0E
$GPGSV,3,1,11,08,02,307,,10,49,308,31,12,09,129,29,15,28,075,32*76
$GPGSV,3,2,11,18,27,190,31,21,00,334,,22,07,035,30,23,87,064,37*73
$GPGSV,3,3,11,24,64,083,40,27,02,277,,32,28,263,38*40
$GPGLL,4505.96351,N,06839.82587,W,171047.00,A,A*77
$RDENS,2112,4744556,PC
$GPRMC,171048.00,A,4505.96366,N,06839.82636,W,1.353,293.52,180924,,,A*7F
$GPVTG,293.52,T,,M,1.353,N,2.505,K,A*34
$GPGGA,171048.00,4505.96366,N,06839.82636,W,1,08,0.96,37.6,M,-29.0,M,,*53
$GPGSA,A,3,18,24,12,22,15,23,10,32,,,,,1.58,0.96,1.25*0E
$GPGSV,3,1,11,08,02,307,,10,49,308,34,12,09,129,28,15,28,075,34*74
$GPGSV,3,2,11,18,27,190,30,21,00,334,,22,07,035,28,23,87,064,37*7B
$GPGSV,3,3,11,24,64,083,42,27,02,277,,32,28,263,40*4D
$GPGLL,4505.96366,N,06839.82636,W,171048.00,A,A*75
$RDENS,2113,4744635,PC
$RDENS,2114,4744713,PC
$GPRMC,171049.00,A,4505.96384,N,06839.82683,W,1.331,294.31,180924,,,A*7A
$GPVTG,294.31,T,,M,1.331,N,2.465,K,A*35
$GPGGA,171049.00,4505.96384,N,06839.82683,W,1,08,0.96,37.6,M,-29.0,M,,*50
$GPGSA,A,3,18,24,12,22,15,23,10,32,,,,,1.58,0.96,1.25*0E
$GPGSV,3,1,11,08,02,307,,10,49,308,35,12,09,129,29,15,28,075,35*75
$GPGSV,3,2,11,18,27,190,29,21,00,334,,22,07,035,26,23,87,064,37*7D
$GPGSV,3,3,11,24,64,083,41,27,02,277,,32,28,263,39*40
$GPGLL,4505.96384,N,06839.82683,W,171049.00,A,A*76
$RDENS,2115,4744792,PC
$GPRMC,171050.00,A,4505.96402,N,06839.82727,W,1.286,297.28,180924,,,A*72
$GPVTG,297.28,T,,M,1.286,N,2.381,K,A*3E
$GPGGA,171050.00,4505.96402,N,06839.82727,W,1,08,0.96,37.5,M,-29.0,M,,*5D
$GPGSA,A,3,18,24,12,22,15,23,10,32,,,,,1.58,0.96,1.25*0E
$GPGSV,3,1,11,08,02,307,,10,49,308,36,12,09,129,28,15,28,075,34*76
$GPGSV,3,2,11,18,27,190,28,21,00,334,,22,07,035,23,23,87,071,37*7D
$GPGSV,3,3,11,24,64,083,41,27,02,277,,32,28,263,39*40
$GPGLL,4505.96402,N,06839.82727,W,171050.00,A,A*78
$RDENS,2116,4744871,PC
$GPRMC,171051.00,A,4505.96421,N,06839.82766,W,1.316,300.55,180924,,,A*7A
$GPVTG,300.55,T,,M,1.316,N,2.437,K,A*39
$GPGGA,171051.00,4505.96421,N,06839.82766,W,1,08,0.96,37.5,M,-29.0,M,,*58
$GPGSA,A,3,18,24,12,22,15,23,10,32,,,,,1.58,0.96,1.25*0E
$GPGSV,3,1,11,08,02,307,,10,49,308,36,12,09,129,28,15,28,075,34*76
$GPGSV,3,2,11,18,27,190,28,21,00,334,,22,07,035,22,23,87,071,37*7C
$GPGSV,3,3,11,24,64,082,41,27,02,277,,32,28,263,40*4F
$GPGLL,4505.96421,N,06839.82766,W,171051.00,A,A*7D
$RDENS,2117,4744950,PC
$GPRMC,171052.00,A,4505.96444,N,06839.82806,W,1.284,302.29,180924,,,A*70
$GPVTG,302.29,T,,M,1.284,N,2.378,K,A*36
$GPGGA,171052.00,4505.96444,N,06839.82806,W,1,08,0.96,37.4,M,-29.0,M,,*50
$GPGSA,A,3,18,24,12,22,15,23,10,32,,,,,1.58,0.96,1.25*0E
$GPGSV,3,1,11,08,02,307,,10,49,308,36,12,09,129,28,15,28,075,34*76
$GPGSV,3,2,11,18,27,190,28,21,00,334,,22,07,035,23,23,87,071,37*7D
$GPGSV,3,3,11,24,64,082,40,27,02,277,,32,28,263,40*4E
$GPGLL,4505.96444,N,06839.82806,W,171052.00,A,A*74
$RDENS,2118,4745029,PC
$RDENS,2119,4745107,PC
$GPRMC,171053.00,A,4505.96468,N,06839.82847,W,1.363,304.37,180924,,,A*7B
$GPVTG,304.37,T,,M,1.363,N,2.524,K,A*38
$GPGGA,171053.00,4505.96468,N,06839.82847,W,1,08,0.96,37.4,M,-29.0,M,,*5A
$GPGSA,A,3,18,24,12,22,15,23,10,32,,,,,1.58,0.96,1.25*0E
$GPGSV,3,1,11,08,02,307,,10,49,308,36,12,09,129,28,15,28,075,33*71
$GPGSV,3,2,11,18,27,190,28,21,00,334,,22,07,035,23,23,87,071,37*7D
$GPGSV,3,3,11,24,64,082,40,27,02,277,,32,28,263,40*4E
$GPGLL,4505.96468,N,06839.82847,W,171053.00,A,A*7E
$RDENS,2120,4745186,PC
$GPRMC,171054.00,A,4505.96491,N,06839.82887,W,1.348,306.61,180924,,,A*7E
$GPVTG,306.61,T,,M,1.348,N,2.496,K,A*38
$GPGGA,171054.00,4505.96491,N,06839.82887,W,1,08,0.96,37.3,M,-29.0,M,,*50
$GPGSA,A,3,18,24,12,22,15,23,10,32,,,,,1.58,0.96,1.25*0E
$GPGSV,3,1,11,08,02,307,,10,49,308,36,12,09,129,27,15,28,075,33*7E
$GPGSV,3,2,11,18,27,190,31,21,00,334,,22,07,035,25,23,87,071,37*73
$GPGSV,3,3,11,24,64,082,40,27,02,277,,32,28,263,39*40
$GPGLL,4505.96491,N,06839.82887,W,171054.00,A,A*73
$RDENS,2121,4745265,PC
$GPRMC,171055.00,A,4505.96516,N,06839.82924,W,1.336,309.00,180924,,,A*78
$GPVTG,309.00,T,,M,1.336,N,2.474,K,A*35
$GPGGA,171055.00,4505.96516,N,06839.82924,W,1,08,0.96,37.2,M,-29.0,M,,*56
$GPGSA,A,3,18,24,12,22,15,23,10,32,,,,,1.58,0.96,1.25*0E
$GPGSV,3,1,11,08,02,307,,10,49,308,36,12,09,129,25,15,28,075,32*7D
$GPGSV,3,2,11,18,27,190,32,21,00,334,,22,07,035,27,23,87,071,37*72
$GPGSV,3,3,11,24,64,082,40,27,02,277,,32,28,263,40*4E
$GPGLL,4505.96516,N,06839.82924,W,171055.00,A,A*74
$RDENS,2122,4745343,PC
$RDENS,2123,4745422,PC
$GPRMC,171056.00,A,4505.96542,N,06839.82961,W,1.293,310.86,180924,,,A*73
$GPVTG,310.86,T,,M,1.293,N,2.394,K,A*34
$GPGGA,171056.00,4505.96542,N,06839.82961,W,1,08,0.96,37.2,M,-29.0,M,,*55
$GPGSA,A,3,18,24,12,22,15,23,10,32,,,,,1.58,0.96,1.25*0E
$GPGSV,3,1,11,08,02,307,,10,49,308,36,12,09,129,25,15,28,075,32*7D
$GPGSV,3,2,11,18,27,190,32,21,00,334,,22,07,035,27,23,87,071,37*72
$GPGSV,3,3,11,24,64,082,40,27,02,277,,32,28,263,40*4E
$GPGLL,4505.96542,N,06839.82961,W,171056.00,A,A*77
$RDENS,2124,4745501,PC
$GPRMC,171057.00,A,4505.96567,N,06839.82995,W,1.243,312.54,180924,,,A*7E
$GPVTG,312.54,T,,M,1.243,N,2.303,K,A*3A
$GPGGA,171057.00,4505.96567,N,06839.82995,W,1,08,0.96,37.3,M,-29.0,M,,*59
$GPGSA,A,3,18,24,12,22,15,23,10,32,,,,,1.58,0.96,1.25*0E
$GPGSV,3,1,11,08,02,307,,10,49,308,37,12,09,129,26,15,28,075,33*7E
$GPGSV,3,2,11,18,27,190,30,21,00,334,,22,07,035,28,23,87,071,37*7F
$GPGSV,3,3,11,24,64,082,40,27,02,277,,32,28,263,41*4F
$GPGLL,4505.96567,N,06839.82995,W,171057.00,A,A*7A
$RDENS,2125,4745579,PC
$GPRMC,171058.00,A,4505.96590,N,06839.83027,W,1.169,313.02,180924,,,A*71
$GPVTG,313.02,T,,M,1.169,N,2.165,K,A*31
$GPGGA,171058.00,4505.96590,N,06839.83027,W,1,08,0.96,37.2,M,-29.0,M,,*5E
$GPGSA,A,3,18,24,12,22,15,23,10,32,,,,,1.58,0.96,1.25*0E
$GPGSV,3,1,11,08,02,307,,10,49,308,37,12,09,129,26,15,28,075,34*79
$GPGSV,3,2,11,18,27,190,30,21,00,334,,22,07,035,28,23,87,071,37*7F
$GPGSV,3,3,11,24,64,082,40,27,02,277,,32,28,263,40*4E
$GPGLL,4505.96590,N,06839.83027,W,171058.00,A,A*7C
$RDENS,2126,4745658,PC
$GPRMC,171059.00,A,4505.96617,N,06839.83059,W,1.307,316.29,180924,,,A*73
$GPVTG,316.29,T,,M,1.307,N,2.420,K,A*33
$GPGGA,171059.00,4505.96617,N,06839.83059,W,1,08,0.96,37.3,M,-29.0,M,,*5B
$GPGSA,A,3,18,24,12,22,15,23,10,32,,,,,1.58,0.96,1.25*0E
$GPGSV,3,1,11,08,02,307,,10,49,308,37,12,09,129,25,15,28,075,33*7D
$GPGSV,3,2,11,18,27,190,31,21,00,334,,22,07,035,28,23,87,071,38*71
$GPGSV,3,3,11,24,64,082,40,27,02,277,,32,29,263,40*4F
$GPGLL,4505.96617,N,06839.83059,W,171059.00,A,A*78
$RDENS,2127,4745737,PC
$RDENS,2128,4745816,PC
$GPRMC,171100.00,A,4505.96643,N,06839.83091,W,1.251,316.53,180924,,,A*74
$GPVTG,316.53,T,,M,1.251,N,2.316,K,A*3E
$GPGGA,171100.00,4505.96643,N,06839.83091,W,1,08,0.96,37.3,M,-29.0,M,,*53
$GPGSA,A,3,18,24,12,22,15,23,10,32,,,,,1.58,0.96,1.25*0E
$GPGSV,3,1,11,08,02,307,,10,49,308,37,12,09,129,23,15,28,075,32*7A
$GPGSV,3,2,11,18,27,190,32,21,00,334,,22,07,035,28,23,87,071,37*7D
$GPGSV,3,3,11,24,64,082,40,27,02,277,,32,29,263,40*4F
$GPGLL,4505.96643,N,06839.83091,W,171100.00,A,A*70
$RDENS,2129,4745895,PC
$GPRMC,171101.00,A,4505.96666,N,06839.83126,W,1.283,315.21,180924,,,A*76
$GPVTG,315.21,T,,M,1.283,N,2.377,K,A*30
$GPGGA,171101.00,4505.96666,N,06839.83126,W,1,08,0.96,37.3,M,-29.0,M,,*58
$GPGSA,A,3,18,24,12,22,15,23,10,32,,,,,1.58,0.96,1.25*0E
$GPGSV,3,1,11,08,02,307,,10,49,308,36,12,09,129,23,15,28,075,33*7A
$GPGSV,3,2,11,18,27,190,31,21,00,334,,22,07,035,27,23,87,071,37*71
$GPGSV,3,3,11,24,64,082,40,27,02,277,,32,29,263,40*4F
$GPGLL,4505.96666,N,06839.83126,W,171101.00,A,A*7B
$RDENS,2130,4745974,PC
$GPRMC,171102.00,A,4505.96688,N,06839.83162,W,1.224,313.13,180924,,,A*7F
$GPVTG,313.13,T,,M,1.224,N,2.266,K,A*3B
$GPGGA,171102.00,4505.96688,N,06839.83162,W,1,08,0.96,37.3,M,-29.0,M,,*5B
$GPGSA,A,3,18,24,12,22,15,23,10,32,,,,,1.58,0.96,1.25*0E
$GPGSV,3,1,11,08,02,307,,10,49,308,36,12,09,129,25,15,28,075,33*7C
$GPGSV,3,2,11,18,27,190,30,21,00,334,,22,07,035,26,23,87,071,37*71
$GPGSV,3,3,11,24,64,082,40,27,02,277,,32,29,263,41*4E
$GPGLL,4505.96688,N,06839.83162,W,171102.00,A,A*78
$RDENS,2131,4746052,PC
$GPRMC,171103.00,A,4505.96709,N,06839.83199,W,1.257,312.33,180924,,,A*75
$GPVTG,312.33,T,,M,1.257,N,2.328,K,A*37
$GPGGA,171103.00,4505.96709,N,06839.83199,W,1,08,0.96,37.3,M,-29.0,M,,*56
$GPGSA,A,3,18,24,12,22,15,23,10,32,,,,,1.58,0.96,1.25*0E
$GPGSV,3,1,11,08,02,307,,10,49,308,36,12,09,129,26,15,28,075,33*7F
$GPGSV,3,2,11,18,27,190,31,21,00,334,,22,07,035,26,23,87,071,37*70
$GPGSV,3,3,11,24,64,082,40,27,02,277,,32,29,263,40*4F
$GPGLL,4505.96709,N,06839.83199,W,171103.00,A,A*75
$RDENS,2132,4746131,PC
$RDENS,2133,4746210,PC
$GPRMC,171104.00,A,4505.96735,N,06839.83236,W,1.277,312.72,180924,,,A*7C
$GPVTG,312.72,T,,M,1.277,N,2.366,K,A*3A
$GPGGA,171104.00,4505.96735,N,06839.83236,W,1,08,0.96,37.3,M,-29.0,M,,*58
$GPGSA,A,3,18,24,12,22,15,23,10,32,,,,,1.58,0.96,1.25*0E
$GPGSV,3,1,11,08,02,307,,10,49,308,36,12,09,129,24,15,28,075,32*7C
$GPGSV,3,2,11,18,27,190,32,21,00,334,,22,07,035,26,23,87,071,37*73
$GPGSV,3,3,11,24,64,082,40,27,02,277,,32,29,263,40*4F
$GPGLL,4505.96735,N,06839.83236,W,171104.00,A,A*7B
$RDENS,2134,4746289,PC
$GPRMC,171105.00,A,4505.96760,N,06839.83274,W,1.295,312.31,180924,,,A*70
$GPVTG,312.31,T,,M,1.295,N,2.398,K,A*30
$GPGGA,171105.00,4505.96760,N,06839.83274,W,1,08,0.96,37.3,M,-29.0,M,,*5F
$GPGSA,A,3,18,24,12,22,15,23,10,32,,,,,1.58,0.96,1.25*0E
$GPGSV,3,1,11,08,02,307,,10,49,308,36,12,09,129,22,15,28,075,33*7B
$GPGSV,3,2,11,18,27,190,33,21,00,334,,22,07,035,28,23,87,071,37*7C
$GPGSV,3,3,11,24,64,082,40,27,02,277,,32,29,263,40*4F
$GPGLL,4505.96760,N,06839.83274,W,171105.00,A,A*7C
$RDENS,2135,4746367,PC
$GPRMC,171106.00,A,4505.96785,N,06839.83310,W,1.234,313.78,180924,,,A*7C
$GPVTG,313.78,T,,M,1.234,N,2.284,K,A*3B
$GPGGA,171106.00,4505.96785,N,06839.83310,W,1,08,0.96,37.3,M,-29.0,M,,*54
$GPGSA,A,3,18,24,12,22,15,23,10,32,,,,,1.58,0.96,1.25*0E
$GPGSV,3,1,11,08,02,307,,10,49,308,36,12,09,129,26,15,28,075,35*79
$GPGSV,3,2,11,18,27,190,28,21,00,334,,22,07,035,28,23,87,071,38*79
$GPGSV,3,3,11,24,64,082,40,27,02,277,,32,29,263,40*4F
$GPGLL,4505.96785,N,06839.83310,W,171106.00,A,A*77
$RDENS,2136,4746445,PC
$GPRMC,171107.00,A,4505.96813,N,06839.83344,W,1.364,317.57,180924,,,A*71
$GPVTG,317.57,T,,M,1.364,N,2.527,K,A*38
$GPGGA,171107.00,4505.96813,N,06839.83344,W,1,08,0.96,37.3,M,-29.0,M,,*54
$GPGSA,A,3,18,24,12,22,15,23,10,32,,,,,1.58,0.96,1.25*0E
$GPGSV,3,1,11,08,02,307,,10,49,308,36,12,09,129,26,15,28,075,36*7A
$GPGSV,3,2,11,18,27,190,27,21,00,334,,22,07,035,28,23,87,071,38*76
$GPGSV,3,3,11,24,64,082,40,27,02,277,,32,29,263,40*4F
$GPGLL,4505.96813,N,06839.83344,W,171107.00,A,A*77
$RDENS,2137,4746525,PC
$RDENS,2138,4746603,PC
$GPRMC,171108.00,A,4505.96841,N,06839.83377,W,1.256,318.81,180924,,,A*7D
$GPVTG,318.81,T,,M,1.256,N,2.326,K,A*3B
$GPGGA,171108.00,4505.96841,N,06839.83377,W,1,08,0.96,37.3,M,-29.0,M,,*5C
$GPGSA,A,3,18,24,12,22,15,23,10,32,,,,,1.58,0.96,1.25*0E
$GPGSV,3,1,11,08,02,307,,10,49,308,37,12,09,129,27,15,28,075,36*7A
$GPGSV,3,2,11,18,27,190,26,21,00,334,,22,07,035,29,23,87,071,38*76
$GPGSV,3,3,11,24,64,082,40,27,02,277,,32,29,263,40*4F
$GPGLL,4505.96841,N,06839.83377,W,171108.00,A,A*7F
$RDENS,2139,4746682,PC
$GPRMC,171109.00,A,4505.96870,N,06839.83408,W,1.290,319.70,180924,,,A*74
$GPVTG,319.70,T,,M,1.290,N,2.388,K,A*3A
$GPGGA,171109.00,4505.96870,N,06839.83408,W,1,08,0.96,37.2,M,-29.0,M,,*51
$GPGSA,A,3,18,24,12,22,15,23,10,32,,,,,1.58,0.96,1.25*0E
$GPGSV,3,1,11,08,02,307,,10,49,308,37,12,09,129,27,15,28,075,36*7A
$GPGSV,3,2,11,18,27,190,25,21,00,334,,22,07,035,29,23,87,071,38*75
$GPGSV,3,3,11,24,64,082,39,27,02,277,,32,29,263,40*41
$GPGLL,4505.96870,N,06839.83408,W,171109.00,A,A*73
$RDENS,2140,4746761,PC
$GPRMC,171110.00,A,4505.96896,N,06839.83440,W,1.287,321.01,180924,,,A*73
$GPVTG,321.01,T,,M,1.287,N,2.384,K,A*3D
$GPGGA,171110.00,4505.96896,N,06839.83440,W,1,08,0.96,37.2,M,-29.0,M,,*5D
$GPGSA,A,3,18,24,12,22,15,23,10,32,,,,,1.58,0.96,1.25*0E
$GPGSV,3,1,11,08,02,307,,10,49,308,37,12,09,129,27,15,28,075,37*7B
$GPGSV,3,2,11,18,27,190,25,21,00,334,,22,07,035,29,23,87,071,38*75
$GPGSV,3,3,11,24,64,082,39,27,02,277,,32,29,263,40*41
$GPGLL,4505.96896,N,06839.83440,W,171110.00,A,A*7F
$RDENS,2141,4746839,PC
$RDENS,2142,4746918,PC
$GPRMC,171111.00,A,4505.96924,N,06839.83473,W,1.360,321.65,180924,,,A*70
$GPVTG,321.65,T,,M,1.360,N,2.518,K,A*34
$GPGGA,171111.00,4505.96924,N,06839.83473,W,1,08,0.96,37.2,M,-29.0,M,,*54
$GPGSA,A,3,18,24,12,22,15,23,10,32,,,,,1.58,0.96,1.25*0E
$GPGSV,3,1,11,08,02,307,,10,49,308,37,12,09,129,27,15,28,075,37*7B
$GPGSV,3,2,11,18,27,190,24,21,00,334,,22,07,035,28,23,87,071,38*75
$GPGSV,3,3,11,24,64,082,39,27,02,277,,32,29,263,40*41
$GPGLL,4505.96924,N,06839.83473,W,171111.00,A,A*76
$RDENS,2143,4746997,PC
$GPRMC,171112.00,A,4505.96950,N,06839.83505,W,1.226,321.09,180924,,,A*79
$GPVTG,321.09,T,,M,1.226,N,2.271,K,A*35
$GPGGA,171112.00,4505.96950,N,06839.83505,W,1,08,0.96,37.3,M,-29.0,M,,*55
$GPGSA,A,3,18,24,12,22,15,23,10,32,,,,,1.58,0.96,1.25*0E
$GPGSV,3,1,11,08,02,307,,10,49,308,37,12,09,129,26,15,28,075,37*7A
$GPGSV,3,2,11,18,27,190,24,21,00,334,,22,07,035,28,23,87,071,38*75
$GPGSV,3,3,11,24,64,082,39,27,02,277,,32,29,263,40*41
$GPGLL,4505.96950,N,06839.83505,W,171112.00,A,A*76
$RDENS,2144,4747076,PC
$GPRMC,171113.00,A,4505.96977,N,06839.83538,W,1.271,321.64,180924,,,A*7A
$GPVTG,321.64,T,,M,1.271,N,2.353,K,A*3D
$GPGGA,171113.00,4505.96977,N,06839.83538,W,1,08,0.96,37.3,M,-29.0,M,,*5F
$GPGSA,A,3,18,24,12,22,15,23,10,32,,,,,1.58,0.96,1.25*0E
$GPGSV,3,1,11,08,02,307,,10,49,308,37,12,09,129,25,15,28,075,37*79
$GPGSV,3,2,11,18,27,190,26,21,00,334,,22,07,035,28,23,87,071,38*77
$GPGSV,3,3,11,24,64,082,39,27,02,277,,32,29,263,38*4E
$GPGLL,4505.96977,N,06839.83538,W,171113.00,A,A*7C
$RDENS,2145,4747154,PC
$GPRMC,171114.00,A,4505.97004,N,06839.83569,W,1.267,323.78,180924,,,A*7D
$GPVTG,323.78,T,,M,1.267,N,2.346,K,A*31
$GPGGA,171114.00,4505.97004,N,06839.83569,W,1,08,0.96,37.4,M,-29.0,M,,*57
$GPGSA,A,3,18,24,12,22,15,23,10,32,,,,,1.58,0.96,1.25*0E
$GPGSV,3,1,11,08,02,307,,10,49,308,38,12,09,129,24,15,28,075,39*79
$GPGSV,3,2,11,18,27,190,27,21,00,334,,22,07,035,27,23,87,071,39*78
$GPGSV,3,3,11,24,64,082,38,27,02,277,,32,29,263,38*4F
$GPGLL,4505.97004,N,06839.83569,W,171114.00,A,A*73
$RDENS,2146,4747233,PC
$RDENS,2147,4747312,PC
$GPRMC,171115.00,A,4505.97034,N,06839.83599,W,1.262,324.84,180924,,,A*71
$GPVTG,324.84,T,,M,1.262,N,2.337,K,A*36
$GPGGA,171115.00,4505.97034,N,06839.83599,W,1,08,0.96,37.4,M,-29.0,M,,*5A
$GPGSA,A,3,18,24,12,22,15,23,10,32,,,,,1.58,0.96,1.25*0E
$GPGSV,3,1,11,08,02,307,,10,49,308,38,12,09,129,25,15,28,075,38*79
$GPGSV,3,2,11,18,27,190,28,21,00,334,,22,07,035,26,23,87,071,39*76
$GPGSV,3,3,11,24,64,082,39,27,02,277,,32,29,263,38*4E
$GPGLL,4505.97034,N,06839.83599,W,171115.00,A,A*7E
$RDENS,2148,4747391,PC
$GPRMC,171116.00,A,4505.97061,N,06839.83624,W,1.228,327.04,180924,,,A*72
$GPVTG,327.04,T,,M,1.228,N,2.274,K,A*35
$GPGGA,171116.00,4505.97061,N,06839.83624,W,1,08,0.96,37.4,M,-29.0,M,,*5C
$GPGSA,A,3,18,24,12,22,15,23,10,32,,,,,1.58,0.96,1.25*0E
$GPGSV,3,1,11,08,02,307,,10,49,308,39,12,09,129,25,15,28,075,39*79
$GPGSV,3,2,11,18,27,190,28,21,00,334,,22,07,035,25,23,87,071,38*74
$GPGSV,3,3,11,24,64,082,38,27,02,277,,32,29,263,36*41
$GPGLL,4505.97061,N,06839.83624,W,171116.00,A,A*78
$RDENS,2149,4747469,PC
$GPRMC,171117.00,A,4505.97089,N,06839.83649,W,1.302,328.32,180924,,,A*7D
$GPVTG,328.32,T,,M,1.302,N,2.411,K,A*33
$GPGGA,171117.00,4505.97089,N,06839.83649,W,1,08,0.96,37.5,M,-29.0,M,,*51
$GPGSA,A,3,18,24,12,22,15,23,10,32,,,,,1.58,0.96,1.25*0E
$GPGSV,3,1,11,08,02,307,,10,49,308,38,12,09,129,23,15,28,075,38*7F
$GPGSV,3,2,11,18,27,190,28,21,00,334,,22,07,035,24,23,87,071,38*75
$GPGSV,3,3,11,24,64,082,38,27,02,277,,32,29,263,38*4F
$GPGLL,4505.97089,N,06839.83649,W,171117.00,A,A*74
$RDENS,2150,4747549,PC
$GPRMC,171118.00,A,4505.97121,N,06839.83675,W,1.270,328.34,180924,,,A*7C
$GPVTG,328.34,T,,M,1.270,N,2.353,K,A*30
$GPGGA,171118.00,4505.97121,N,06839.83675,W,1,08,0.96,37.5,M,-29.0,M,,*52
$GPGSA,A,3,18,24,12,22,15,23,10,32,,,,,1.58,0.96,1.25*0E
$GPGSV,3,1,11,08,02,307,,10,49,308,36,12,09,129,25,15,28,075,36*79
$GPGSV,3,2,11,18,27,190,28,21,00,334,,22,07,035,24,23,87,071,38*75
$GPGSV,3,3,11,24,64,082,38,27,02,277,,32,29,263,40*40
$GPGLL,4505.97121,N,06839.83675,W,171118.00,A,A*77
$RDENS,2151,4747627,PC
$RDENS,2152,4747706,PC
$GPRMC,171119.00,A,4505.97154,N,06839.83701,W,1.374,330.99,180924,,,A*76
$GPVTG,330.99,T,,M,1.374,N,2.544,K,A*3B
$GPGGA,171119.00,4505.97154,N,06839.83701,W,1,08,0.96,37.4,M,-29.0,M,,*52
$GPGSA,A,3,18,24,12,22,15,23,10,32,,,,,1.58,0.96,1.25*0E
$GPGSV,3,1,11,08,02,307,,10,49,308,30,12,09,129,26,15,28,075,33*79
$GPGSV,3,2,11,18,27,190,30,21,00,334,,22,07,035,23,23,87,071,38*7B
$GPGSV,3,3,11,24,64,082,40,27,02,277,,32,29,263,40*4F
$GPGLL,4505.97154,N,06839.83701,W,171119.00,A,A*76
$RDENS,2153,4747784,PC
$GPRMC,171120.00,A,4505.97186,N,06839.83725,W,1.297,330.86,180924,,,A*77
$GPVTG,330.86,T,,M,1.297,N,2.402,K,A*3A
$GPGGA,171120.00,4505.97186,N,06839.83725,W,1,08,0.96,37.4,M,-29.0,M,,*51
$GPGSA,A,3,18,24,12,22,15,23,10,32,,,,,1.58,0.96,1.25*0E
$GPGSV,3,1,11,08,02,307,,10,49,308,37,12,09,129,26,15,28,075,33*7E
$GPGSV,3,2,11,18,27,190,30,21,00,334,,22,07,035,21,23,87,071,38*79
$GPGSV,3,3,11,24,64,082,40,27,02,277,,32,29,263,38*40
$GPGLL,4505.97186,N,06839.83725,W,171120.00,A,A*75
$RDENS,2154,4747864,PC
$GPRMC,171121.00,A,4505.97218,N,06839.83752,W,1.338,329.47,180924,,,A*73
$GPVTG,329.47,T,,M,1.338,N,2.479,K,A*37
$GPGGA,171121.00,4505.97218,N,06839.83752,W,1,08,0.96,37.5,M,-29.0,M,,*55
$GPGSA,A,3,18,24,12,22,15,23,10,32,,,,,1.58,0.96,1.25*0E
$GPGSV,3,1,11,08,02,307,,10,49,308,38,12,09,129,22,15,28,075,34*72
$GPGSV,3,2,11,18,27,190,30,21,00,334,,22,07,035,22,23,87,071,38*7A
$GPGSV,3,3,11,24,64,082,40,27,02,277,,32,29,263,38*40
$GPGLL,4505.97218,N,06839.83752,W,171121.00,A,A*70
$RDENS,2155,4747943,PC
$RDENS,2156,4748021,PC
$GPRMC,171122.00,A,4505.97250,N,06839.83782,W,1.368,329.17,180924,,,A*71
$GPVTG,329.17,T,,M,1.368,N,2.534,K,A*3F
$GPGGA,171122.00,4505.97250,N,06839.83782,W,1,08,0.96,37.5,M,-29.0,M,,*57
$GPGSA,A,3,18,24,12,22,15,23,10,32,,,,,1.58,0.96,1.25*0E
$GPGSV,3,1,11,08,02,307,,10,49,308,36,12,09,129,20,15,28,075,37*7D
$GPGSV,3,2,11,18,27,190,30,21,00,334,,22,07,035,29,23,87,071,38*71
$GPGSV,3,3,11,24,64,082,39,27,02,277,,32,29,263,38*4E
$GPGLL,4505.97250,N,06839.83782,W,171122.00,A,A*72
$RDENS,2157,4748100,PC
$GPRMC,171123.00,A,4505.97282,N,06839.83812,W,1.406,328.10,180924,,,A*70
$GPVTG,328.10,T,,M,1.406,N,2.605,K,A*37
$GPGGA,171123.00,4505.97282,N,06839.83812,W,1,08,0.96,37.6,M,-29.0,M,,*5C
$GPGSA,A,3,18,24,12,22,15,23,10,32,,,,,1.58,0.96,1.25*0E
$GPGSV,3,1,11,08,02,307,,10,49,308,38,12,09,129,18,15,28,075,38*77
$GPGSV,3,2,11,18,27,190,29,21,00,334,,22,07,035,29,23,87,071,39*78
$GPGSV,3,3,11,24,64,082,39,27,02,277,,32,29,263,37*41
$GPGLL,4505.97282,N,06839.83812,W,171123.00,A,A*7A
$RDENS,2158,4748179,PC
$GPRMC,171124.00,A,4505.97315,N,06839.83844,W,1.439,327.29,180924,,,A*72
$GPVTG,327.29,T,,M,1.439,N,2.666,K,A*3B
$GPGGA,171124.00,4505.97315,N,06839.83844,W,1,08,0.96,37.7,M,-29.0,M,,*56
$GPGSA,A,3,18,24,12,22,15,23,10,32,,,,,1.58,0.96,1.25*0E
$GPGSV,3,1,11,08,02,307,,10,49,308,37,12,09,129,19,15,28,075,38*79
$GPGSV,3,2,11,18,27,190,28,21,00,334,,22,07,035,29,23,87,071,39*79
$GPGSV,3,3,11,24,64,082,39,27,02,277,,32,29,263,39*4F
$GPGLL,4505.97315,N,06839.83844,W,171124.00,A,A*71
$RDENS,2159,4748257,PC
$GPRMC,171125.00,A,4505.97347,N,06839.83876,W,1.430,327.66,180924,,,A*77
$GPVTG,327.66,T,,M,1.430,N,2.649,K,A*34
$GPGGA,171125.00,4505.97347,N,06839.83876,W,1,08,0.96,37.8,M,-29.0,M,,*5E
$GPGSA,A,3,18,24,12,22,15,23,10,32,,,,,1.58,0.96,1.25*0E
$GPGSV,3,1,11,08,02,307,,10,49,308,38,12,09,129,20,15,28,076,38*7F
$GPGSV,3,2,11,18,27,190,29,21,00,334,,22,07,035,29,23,87,071,39*78
$GPGSV,3,3,11,24,64,082,39,27,02,277,,32,29,263,38*4E
$GPGLL,4505.97347,N,06839.83876,W,171125.00,A,A*76
$RDENS,2160,4748337,PC
$RDENS,2161,4748415,PC
$GPRMC,171126.00,A,4505.97381,N,06839.83907,W,1.474,327.87,180924,,,A*76
$GPVTG,327.87,T,,M,1.474,N,2.731,K,A*35
$GPGGA,171126.00,4505.97381,N,06839.83907,W,1,08,0.96,37.9,M,-29.0,M,,*51
$GPGSA,A,3,18,24,12,22,15,23,10,32,,,,,1.58,0.96,1.25*0E
$GPGSV,3,1,11,08,02,307,,10,49,308,38,12,09,129,19,15,28,076,38*75
$GPGSV,3,2,11,18,27,190,28,21,00,334,,22,07,035,29,23,87,071,39*79
$GPGSV,3,3,11,24,64,082,39,27,02,277,,32,29,263,38*4E
$GPGLL,4505.97381,N,06839.83907,W,171126.00,A,A*78
$RDENS,2162,4748494,PC
$GPRMC,171127.00,A,4505.97414,N,06839.83937,W,1.379,327.93,180924,,,A*70
$GPVTG,327.93,T,,M,1.379,N,2.554,K,A*3B
$GPGGA,171127.00,4505.97414,N,06839.83937,W,1,08,0.96,38.0,M,-29.0,M,,*5E
$GPGSA,A,3,18,24,12,22,15,23,10,32,,,,,1.58,0.96,1.25*0E
$GPGSV,3,1,11,08,02,307,,10,49,308,38,12,09,129,19,15,28,076,38*75
$GPGSV,3,2,11,18,27,190,29,21,00,334,,22,07,035,29,23,87,071,39*78
$GPGSV,3,3,11,24,64,082,39,27,02,277,,32,29,263,38*4E
$GPGLL,4505.97414,N,06839.83937,W,171127.00,A,A*71
$RDENS,2163,4748572,PC
$GPRMC,171128.00,A,4505.97446,N,06839.83965,W,1.358,328.48,180924,,,A*75
$GPVTG,328.48,T,,M,1.358,N,2.516,K,A*37
$GPGGA,171128.00,4505.97446,N,06839.83965,W,1,08,0.96,38.0,M,-29.0,M,,*51
$GPGSA,A,3,18,24,12,22,15,23,10,32,,,,,1.58,0.96,1.25*0E
$GPGSV,3,1,11,08,02,307,,10,49,308,38,12,09,129,19,15,28,076,38*75
$GPGSV,3,2,11,18,27,190,29,21,00,334,,22,07,035,29,23,87,071,39*78
$GPGSV,3,3,11,24,64,082,39,27,02,277,,32,29,263,38*4E
$GPGLL,4505.97446,N,06839.83965,W,171128.00,A,A*7E
$RDENS,2164,4748651,PC
$GPRMC,171129.00,A,4505.97479,N,06839.83994,W,1.476,328.79,180924,,,A*7F
$GPVTG,328.79,T,,M,1.476,N,2.734,K,A*3C
$GPGGA,171129.00,4505.97479,N,06839.83994,W,1,08,0.96,38.2,M,-29.0,M,,*50
$GPGSA,A,3,18,24,12,22,15,23,10,32,,,,,1.58,0.96,1.25*0E
$GPGSV,3,1,11,08,02,307,,10,49,308,38,12,09,129,18,15,28,076,38*74
$GPGSV,3,2,11,18,27,190,29,21,00,334,,22,07,035,29,23,87,071,39*78
$GPGSV,3,3,11,24,64,082,39,27,02,277,,32,29,263,38*4E
$GPGLL,4505.97479,N,06839.83994,W,171129.00,A,A*7D
$RDENS,2165,4748730,PC
$RDENS,2166,4748808,PC
$GPRMC,171130.00,A,4505.97510,N,06839.84025,W,1.410,328.08,180924,,,A*7B
$GPVTG,328.08,T,,M,1.410,N,2.612,K,A*3F
$GPGGA,171130.00,4505.97510,N,06839.84025,W,1,08,0.96,38.4,M,-29.0,M,,*54
$GPGSA,A,3,18,24,12,22,15,23,10,32,,,,,1.58,0.96,1.25*0E
$GPGSV,3,1,11,08,02,307,,10,49,308,38,12,09,129,20,15,28,076,38*7F
$GPGSV,3,2,11,18,27,190,29,21,00,334,,22,07,035,30,23,87,071,39*70
$GPGSV,3,3,11,24,64,082,39,27,02,277,,32,29,263,34*42
$GPGLL,4505.97510,N,06839.84025,W,171130.00,A,A*7F
$RDENS,2167,4748888,PC
$GPRMC,171131.00,A,4505.97541,N,06839.84056,W,1.449,327.68,180924,,,A*7F
$GPVTG,327.68,T,,M,1.449,N,2.683,K,A*32
$GPGGA,171131.00,4505.97541,N,06839.84056,W,1,08,0.96,38.4,M,-29.0,M,,*55
$GPGSA,A,3,18,24,12,22,15,23,10,32,,,,,1.58,0.96,1.25*0E
$GPGSV,3,1,11,08,02,307,,10,49,308,39,12,09,129,19,15,28,076,38*74
$GPGSV,3,2,11,18,27,190,29,21,00,333,,22,07,035,29,23,87,071,39*7F
$GPGSV,3,3,11,24,64,082,38,27,02,277,,32,29,263,37*40
$GPGLL,4505.97541,N,06839.84056,W,171131.00,A,A*7E
$RDENS,2168,4748966,PC
$GPRMC,171132.00,A,4505.97578,N,06839.84086,W,1.421,327.90,180924,,,A*72
$GPVTG,327.90,T,,M,1.421,N,2.632,K,A*31
$GPGGA,171132.00,4505.97578,N,06839.84086,W,1,08,0.96,38.5,M,-29.0,M,,*50
$GPGSA,A,3,18,24,12,22,15,23,10,32,,,,,1.58,0.96,1.25*0E
$GPGSV,3,1,11,08,02,307,,10,49,308,38,12,09,129,19,15,28,076,38*75
$GPGSV,3,2,11,18,27,190,31,21,00,333,,22,07,034,29,23,87,071,39*77
$GPGSV,3,3,11,24,64,082,38,27,02,277,,32,29,263,36*41
$GPGLL,4505.97578,N,06839.84086,W,171132.00,A,A*7A
$RDENS,2169,4749045,PC
$RDENS,2170,4749124,PC
$GPRMC,171133.00,A,4505.97618,N,06839.84116,W,1.413,328.71,180924,,,A*7F
$GPVTG,328.71,T,,M,1.413,N,2.617,K,A*37
$GPGGA,171133.00,4505.97618,N,06839.84116,W,1,08,0.96,38.7,M,-29.0,M,,*5E
$GPGSA,A,3,18,24,12,22,15,23,10,32,,,,,1.58,0.96,1.25*0E
$GPGSV,3,1,11,08,02,307,,10,49,308,38,12,09,129,19,15,28,076,39*74
$GPGSV,3,2,11,18,27,190,34,21,00,333,,22,07,034,29,23,87,077,39*74
$GPGSV,3,3,11,24,64,082,38,27,02,277,,32,29,263,36*41
$GPGLL,4505.97618,N,06839.84116,W,171133.00,A,A*76
$RDENS,2171,4749202,PC
$GPRMC,171134.00,A,4505.97650,N,06839.84145,W,1.385,328.10,180924,,,A*7D
$GPVTG,328.10,T,,M,1.385,N,2.565,K,A*3E
$GPGGA,171134.00,4505.97650,N,06839.84145,W,1,08,0.96,38.8,M,-29.0,M,,*5C
$GPGSA,A,3,18,24,12,22,15,23,10,32,,,,,1.58,0.96,1.25*0E
$GPGSV,3,1,11,08,02,307,,10,49,308,39,12,09,129,21,15,28,076,39*7E
$GPGSV,3,2,11,18,27,190,33,21,00,333,,22,07,034,28,23,87,077,39*72
$GPGSV,3,3,11,24,63,081,38,27,02,277,,32,29,263,36*45
$GPGLL,4505.97650,N,06839.84145,W,171134.00,A,A*7B
$RDENS,2172,4749281,PC
$GPRMC,171135.00,A,4505.97685,N,06839.84172,W,1.346,329.56,180924,,,A*7C
$GPVTG,329.56,T,,M,1.346,N,2.493,K,A*3A
$GPGGA,171135.00,4505.97685,N,06839.84172,W,1,08,0.96,38.9,M,-29.0,M,,*50
$GPGSA,A,3,18,24,12,22,15,23,10,32,,,,,1.58,0.96,1.25*0E
$GPGSV,3,1,11,08,02,307,,10,49,308,39,12,09,129,24,15,28,076,39*7B
$GPGSV,3,2,11,18,27,190,35,21,00,333,,22,07,034,28,23,87,077,39*74
$GPGSV,3,3,11,24,63,081,39,27,02,277,,32,29,263,35*47
$GPGLL,4505.97685,N,06839.84172,W,171135.00,A,A*76
$RDENS,2173,4749359,PC
$GPRMC,171136.00,A,4505.97719,N,06839.84198,W,1.376,330.99,180924,,,A*77
$GPVTG,330.99,T,,M,1.376,N,2.549,K,A*34
$GPGGA,171136.00,4505.97719,N,06839.84198,W,1,08,0.96,39.1,M,-29.0,M,,*5A
$GPGSA,A,3,18,24,12,22,15,23,10,32,,,,,1.58,0.96,1.25*0E
$GPGSV,3,1,11,08,02,307,,10,49,308,39,12,09,129,26,15,28,076,40*77
$GPGSV,3,2,11,18,27,190,35,21,00,333,,22,07,034,28,23,87,077,39*74
$GPGSV,3,3,11,24,63,081,39,27,02,277,,32,29,263,38*4A
$GPGLL,4505.97719,N,06839.84198,W,171136.00,A,A*75
$RDENS,2174,4749439,PC
$RDENS,2175,4749517,PC
$GPRMC,171137.00,A,4505.97752,N,06839.84226,W,1.434,331.42,180924,,,A*79
$GPVTG,331.42,T,,M,1.434,N,2.656,K,A*3F
$GPGGA,171137.00,4505.97752,N,06839.84226,W,1,08,0.96,39.2,M,-29.0,M,,*51
$GPGSA,A,3,18,24,12,22,15,23,10,32,,,,,1.58,0.96,1.25*0E
$GPGSV,3,1,11,08,02,307,,10,49,308,39,12,09,129,26,15,28,076,40*77
$GPGSV,3,2,11,18,27,190,32,21,00,333,,22,07,034,28,23,87,077,38*72
$GPGSV,3,3,11,24,63,081,39,27,02,277,,32,29,263,33*41
$GPGLL,4505.97752,N,06839.84226,W,171137.00,A,A*7D
$RDENS,2176,4749596,PC
$GPRMC,171138.00,A,4505.97787,N,06839.84253,W,1.392,332.65,180924,,,A*71
$GPVTG,332.65,T,,M,1.392,N,2.578,K,A*3D
$GPGGA,171138.00,4505.97787,N,06839.84253,W,1,08,0.96,39.3,M,-29.0,M,,*55
$GPGSA,A,3,18,24,12,22,15,23,10,32,,,,,1.58,0.96,1.25*0E
$GPGSV,3,1,11,08,02,307,,10,49,308,39,12,09,129,27,15,28,076,40*76
$GPGSV,3,2,11,18,27,190,34,21,00,333,,22,07,034,27,23,87,077,37*74
$GPGSV,3,3,11,24,63,081,39,27,02,277,,32,29,263,36*44
$GPGLL,4505.97787,N,06839.84253,W,171138.00,A,A*78
$RDENS,2177,4749674,PC
$GPRMC,171139.00,A,4505.97822,N,06839.84279,W,1.376,332.39,180924,,,A*7B
$GPVTG,332.39,T,,M,1.376,N,2.549,K,A*3C
$GPGGA,171139.00,4505.97822,N,06839.84279,W,1,08,0.96,39.4,M,-29.0,M,,*5B
$GPGSA,A,3,18,24,12,22,15,23,10,32,,,,,1.58,0.96,1.25*0E
$GPGSV,3,1,11,08,02,307,,10,49,308,39,12,09,129,28,15,28,076,39*77
$GPGSV,3,2,11,18,27,190,33,21,00,333,,22,07,034,27,23,87,077,37*73
$GPGSV,3,3,11,24,63,081,37,27,02,277,,32,29,263,35*49
$GPGLL,4505.97822,N,06839.84279,W,171139.00,A,A*71
$RDENS,2178,4749753,PC
$GPRMC,171140.00,A,4505.97856,N,06839.84306,W,1.385,331.83,180924,,,A*71
$GPVTG,331.83,T,,M,1.385,N,2.564,K,A*3D
$GPGGA,171140.00,4505.97856,N,06839.84306,W,1,08,0.96,39.5,M,-29.0,M,,*5E
$GPGSA,A,3,18,24,12,22,15,23,10,32,,,,,1.58,0.96,1.25*0E
$GPGSV,3,1,11,08,02,307,,10,49,308,39,12,09,129,27,15,28,076,40*76
$GPGSV,3,2,11,18,27,190,32,21,00,333,,22,07,034,27,23,87,077,37*72
$GPGSV,3,3,11,24,63,081,37,27,02,277,,32,29,263,35*49
$GPGLL,4505.97856,N,06839.84306,W,171140.00,A,A*75
$RDENS,2179,4749832,PC
$RDENS,2180,4749910,PC
$GPRMC,171141.00,A,4505.97891,N,06839.84332,W,1.410,332.32,180924,,,A*7E
$GPVTG,332.32,T,,M,1.410,N,2.612,K,A*3D
$GPGGA,171141.00,4505.97891,N,06839.84332,W,1,08,0.96,39.6,M,-29.0,M,,*50
$GPGSA,A,3,18,24,12,22,15,23,10,32,,,,,1.58,0.96,1.25*0E
$GPGSV,3,1,11,08,02,307,,10,49,308,39,12,09,129,27,15,28,076,40*76
$GPGSV,3,2,11,18,27,190,33,21,00,333,,22,07,034,27,23,87,077,38*7C
$GPGSV,3,3,11,24,63,081,37,27,02,277,,32,29,263,37*4B
$GPGLL,4505.97891,N,06839.84332,W,171141.00,A,A*78
$RDENS,2181,4749989,PC
$GPRMC,171142.00,A,4505.97923,N,06839.84358,W,1.334,331.97,180924,,,A*74
$GPVTG,331.97,T,,M,1.334,N,2.470,K,A*36
$GPGGA,171142.00,4505.97923,N,06839.84358,W,1,08,0.96,39.7,M,-29.0,M,,*56
$GPGSA,A,3,18,24,12,22,15,23,10,32,,,,,1.58,0.96,1.25*0E
$GPGSV,3,1,11,08,02,307,,10,49,308,39,12,09,129,27,15,28,076,40*76
$GPGSV,3,2,11,18,27,190,33,21,00,333,,22,07,034,27,23,87,077,38*7C
$GPGSV,3,3,11,24,63,081,37,27,02,277,,32,29,263,34*48
$GPGLL,4505.97923,N,06839.84358,W,171142.00,A,A*7F
$RDENS,2182,4750068,PC
$GPRMC,171143.00,A,4505.97956,N,06839.84383,W,1.305,331.73,180924,,,A*79
$GPVTG,331.73,T,,M,1.305,N,2.417,K,A*3F
$GPGGA,171143.00,4505.97956,N,06839.84383,W,1,08,0.96,39.8,M,-29.0,M,,*5C
$GPGSA,A,3,18,24,12,22,15,23,10,32,,,,,1.58,0.96,1.25*0E
$GPGSV,3,1,11,08,02,307,,10,49,308,39,12,09,129,27,15,28,076,40*76
$GPGSV,3,2,11,18,27,190,34,21,00,333,,22,07,034,27,23,87,077,38*7B
$GPGSV,3,3,11,24,63,081,37,27,02,277,,32,29,263,35*49
$GPGLL,4505.97956,N,06839.84383,W,171143.00,A,A*7A
$RDENS,2183,4750147,PC
$GPRMC,171144.00,A,4505.97991,N,06839.84407,W,1.328,332.99,180924,,,A*76
$GPVTG,332.99,T,,M,1.328,N,2.459,K,A*3D
$GPGGA,171144.00,4505.97991,N,06839.84407,W,1,08,0.96,39.9,M,-29.0,M,,*5A
$GPGSA,A,3,18,24,12,22,15,23,10,32,,,,,1.58,0.96,1.25*0E
$GPGSV,3,1,11,08,02,307,,10,49,308,39,12,09,129,28,15,28,076,40*79
$GPGSV,3,2,11,18,27,190,34,21,00,333,,22,07,034,26,23,87,077,38*7A
$GPGSV,3,3,11,24,63,081,37,27,02,277,,32,29,263,35*49
$GPGLL,4505.97991,N,06839.84407,W,171144.00,A,A*7D
$RDENS,2184,4750226,PC
$RDENS,2185,4750305,PC
$GPRMC,171145.00,A,4505.98022,N,06839.84430,W,1.247,332.71,180924,,,A*73
$GPVTG,332.71,T,,M,1.247,N,2.309,K,A*31
$GPGGA,171145.00,4505.98022,N,06839.84430,W,1,08,0.96,40.0,M,-29.0,M,,*56
$GPGSA,A,3,18,24,12,22,15,23,10,32,,,,,1.58,0.96,1.25*0E
$GPGSV,3,1,11,08,02,307,,10,49,308,39,12,09,129,27,15,28,076,40*76
$GPGSV,3,2,11,18,27,190,34,21,00,333,,22,07,034,26,23,87,077,38*7A
$GPGSV,3,3,11,24,63,081,37,27,02,277,,32,29,263,36*4A
$GPGLL,4505.98022,N,06839.84430,W,171145.00,A,A*76
$RDENS,2186,4750383,PC
$GPRMC,171146.00,A,4505.98055,N,06839.84451,W,1.310,334.09,180924,,,A*7D
$GPVTG,334.09,T,,M,1.310,N,2.426,K,A*31
$GPGGA,171146.00,4505.98055,N,06839.84451,W,1,08,0.96,40.2,M,-29.0,M,,*50
$GPGSA,A,3,18,24,12,22,15,23,10,32,,,,,1.58,0.96,1.25*0E
$GPGSV,3,1,11,08,02,307,,10,49,308,39,12,09,129,27,15,28,076,40*76
$GPGSV,3,2,11,18,27,190,35,21,00,333,,22,07,034,26,23,87,077,38*7B
$GPGSV,3,3,11,24,63,081,37,27,02,277,,32,29,263,34*48
$GPGLL,4505.98055,N,06839.84451,W,171146.00,A,A*72
$RDENS,2187,4750462,PC
$GPRMC,171147.00,A,4505.98087,N,06839.84472,W,1.300,334.95,180924,,,A*76
$GPVTG,334.95,T,,M,1.300,N,2.408,K,A*39
$GPGGA,171147.00,4505.98087,N,06839.84472,W,1,08,0.96,40.3,M,-29.0,M,,*5E
$GPGSA,A,3,18,24,12,22,15,23,10,32,,,,,1.58,0.96,1.25*0E
$GPGSV,3,1,11,08,02,307,,10,49,308,40,12,09,129,28,15,28,076,40*77
$GPGSV,3,2,11,18,27,190,34,21,00,333,,22,07,034,25,23,87,077,38*79
$GPGSV,3,3,11,24,63,081,37,27,02,277,,32,29,263,37*4B
$GPGLL,4505.98087,N,06839.84472,W,171147.00,A,A*7D
$RDENS,2188,4750541,PC
$RDENS,2189,4750619,PC
$GPRMC,171148.00,A,4505.98119,N,06839.84495,W,1.321,334.42,180924,,,A*7F
$GPVTG,334.42,T,,M,1.321,N,2.447,K,A*3B
$GPGGA,171148.00,4505.98119,N,06839.84495,W,1,08,0.96,40.4,M,-29.0,M,,*59
$GPGSA,A,3,18,24,12,22,15,23,10,32,,,,,1.58,0.96,1.25*0E
$GPGSV,3,1,11,08,02,307,,10,49,308,39,12,09,129,28,15,28,076,40*79
$GPGSV,3,2,11,18,27,190,36,21,00,333,,22,07,034,26,23,87,077,38*78
$GPGSV,3,3,11,24,63,081,37,27,02,277,,32,29,263,37*4B
$GPGLL,4505.98119,N,06839.84495,W,171148.00,A,A*7D
$RDENS,2190,4750698,PC
$GPRMC,171149.00,A,4505.98152,N,06839.84518,W,1.377,333.87,180924,,,A*78
$GPVTG,333.87,T,,M,1.377,N,2.550,K,A*31
$GPGGA,171149.00,4505.98152,N,06839.84518,W,1,08,0.96,40.5,M,-29.0,M,,*52
$GPGSA,A,3,18,24,12,22,15,23,10,32,,,,,1.58,0.96,1.25*0E
$GPGSV,3,1,11,08,02,307,,10,49,308,39,12,09,129,27,15,28,076,40*76
$GPGSV,3,2,11,18,27,190,34,21,00,333,,22,07,034,25,23,87,077,38*79
$GPGSV,3,3,11,24,63,081,36,27,02,277,,32,29,263,35*48
$GPGLL,4505.98152,N,06839.84518,W,171149.00,A,A*77
$RDENS,2191,4750777,PC
$GPRMC,171150.00,A,4505.98186,N,06839.84540,W,1.325,334.86,180924,,,A*75
$GPVTG,334.86,T,,M,1.325,N,2.455,K,A*34
$GPGGA,171150.00,4505.98186,N,06839.84540,W,1,08,0.96,40.6,M,-29.0,M,,*5D
$GPGSA,A,3,18,24,12,22,15,23,10,32,,,,,1.58,0.96,1.25*0E
$GPGSV,3,1,11,08,02,307,,10,49,308,39,12,09,129,28,15,28,076,41*78
$GPGSV,3,2,11,18,27,190,35,21,00,333,,22,07,034,25,23,87,077,38*78
$GPGSV,3,3,11,24,63,081,36,27,02,277,,32,29,263,35*48
$GPGLL,4505.98186,N,06839.84540,W,171150.00,A,A*7B
$RDENS,2192,4750856,PC
$GPRMC,171151.00,A,4505.98222,N,06839.84562,W,1.315,335.17,180924,,,A*73
$GPVTG,335.17,T,,M,1.315,N,2.435,K,A*38
$GPGGA,171151.00,4505.98222,N,06839.84562,W,1,08,0.96,40.5,M,-29.0,M,,*52
$GPGSA,A,3,18,24,12,22,15,23,10,32,,,,,1.58,0.96,1.25*0E
$GPGSV,3,1,11,08,02,307,,10,49,308,37,12,09,129,28,15,28,076,40*77
$GPGSV,3,2,11,18,27,190,36,21,00,333,,22,07,034,24,23,87,077,39*7B
$GPGSV,3,3,11,24,63,081,37,27,02,277,,32,29,263,36*4A
$GPGLL,4505.98222,N,06839.84562,W,171151.00,A,A*77
$RDENS,2193,4750934,PC
$RDENS,2194,4751013,PC
$GPRMC,171152.00,A,4505.98258,N,06839.84584,W,1.335,335.52,180924,,,A*76
$GPVTG,335.52,T,,M,1.335,N,2.472,K,A*38
$GPGGA,171152.00,4505.98258,N,06839.84584,W,1,08,0.96,40.5,M,-29.0,M,,*54
$GPGSA,A,3,18,24,12,22,15,23,10,32,,,,,1.58,0.96,1.25*0E
$GPGSV,3,1,11,08,02,307,,10,49,308,38,12,09,129,28,15,28,076,41*79
$GPGSV,3,2,11,18,27,190,36,21,00,333,,22,07,034,25,23,87,077,38*7B
$GPGSV,3,3,11,24,63,081,36,27,02,277,,32,29,263,36*4B
$GPGLL,4505.98258,N,06839.84584,W,171152.00,A,A*71
$RDENS,2195,4751092,PC
$GPRMC,171153.00,A,4505.98294,N,06839.84605,W,1.335,336.06,180924,,,A*7F
$GPVTG,336.06,T,,M,1.335,N,2.473,K,A*3B
$GPGGA,171153.00,4505.98294,N,06839.84605,W,1,08,0.96,40.5,M,-29.0,M,,*5F
$GPGSA,A,3,18,24,12,22,15,23,10,32,,,,,1.58,0.96,1.25*0E
$GPGSV,3,1,11,08,02,307,,10,49,308,38,12,09,129,27,15,28,076,41*76
$GPGSV,3,2,11,18,27,190,35,21,00,333,,22,07,034,24,23,87,077,38*79
$GPGSV,3,3,11,24,63,081,37,27,02,277,,32,29,263,36*4A
$GPGLL,4505.98294,N,06839.84605,W,171153.00,A,A*7A
$RDENS,2196,4751170,PC
$GPRMC,171154.00,A,4505.98328,N,06839.84625,W,1.324,336.77,180924,,,A*7A
$GPVTG,336.77,T,,M,1.324,N,2.451,K,A*3D
$GPGGA,171154.00,4505.98328,N,06839.84625,W,1,08,0.96,40.5,M,-29.0,M,,*5C
$GPGSA,A,3,18,24,12,22,15,23,10,32,,,,,1.58,0.96,1.25*0E
$GPGSV,3,1,11,08,02,307,,10,49,308,40,12,09,129,27,15,28,076,41*79
$GPGSV,3,2,11,18,27,190,35,21,00,333,,22,07,034,25,23,87,077,38*78
$GPGSV,3,3,11,24,63,081,37,27,02,277,,32,29,263,36*4A
$GPGLL,4505.98328,N,06839.84625,W,171154.00,A,A*79
$RDENS,2197,4751249,PC
$GPRMC,171155.00,A,4505.98362,N,06839.84645,W,1.306,336.20,180924,,,A*71
$GPVTG,336.20,T,,M,1.306,N,2.419,K,A*33
$GPGGA,171155.00,4505.98362,N,06839.84645,W,1,08,0.96,40.5,M,-29.0,M,,*55
$GPGSA,A,3,18,24,12,22,15,23,10,32,,,,,1.58,0.96,1.25*0E
$GPGSV,3,1,11,08,02,307,,10,49,308,38,12,09,129,27,15,28,076,41*76
$GPGSV,3,2,11,18,27,190,35,21,00,333,,22,07,034,25,23,87,077,38*78
$GPGSV,3,3,11,24,63,081,36,27,02,277,,32,29,263,37*4A
$GPGLL,4505.98362,N,06839.84645,W,171155.00,A,A*70
$RDENS,2198,4751328,PC
$RDENS,2199,4751406,PC
$GPRMC,171156.00,A,4505.98398,N,06839.84668,W,1.402,336.03,180924,,,A*7A
$GPVTG,336.03,T,,M,1.402,N,2.596,K,A*37
$GPGGA,171156.00,4505.98398,N,06839.84668,W,1,08,0.96,40.5,M,-29.0,M,,*5C
$GPGSA,A,3,18,24,12,22,15,23,10,32,,,,,1.58,0.96,1.25*0E
$GPGSV,3,1,11,08,02,307,,10,49,308,37,12,09,129,31,15,28,076,39*71
$GPGSV,3,2,11,18,27,190,35,21,00,333,,22,07,034,25,23,87,077,35*75
$GPGSV,3,3,11,24,63,081,33,27,02,277,,32,29,263,38*40
$GPGLL,4505.98398,N,06839.84668,W,171156.00,A,A*79
$RDENS,2200,4751485,PC
$GPRMC,171157.00,A,4505.98435,N,06839.84690,W,1.344,335.59,180924,,,A*75
$GPVTG,335.59,T,,M,1.344,N,2.489,K,A*31
$GPGGA,171157.00,4505.98435,N,06839.84690,W,1,08,0.96,40.4,M,-29.0,M,,*5B
$GPGSA,A,3,18,24,12,22,15,23,10,32,,,,,1.58,0.96,1.25*0E
$GPGSV,3,1,11,08,02,307,,10,49,308,38,12,09,129,30,15,28,076,38*7E
$GPGSV,3,2,11,18,27,190,37,21,00,333,,22,07,034,22,23,87,077,35*70
$GPGSV,3,3,11,24,63,081,36,27,02,277,,32,29,263,39*44
$GPGLL,4505.98435,N,06839.84690,W,171157.00,A,A*7F
$RDENS,2201,4751564,PC
$GPRMC,171158.00,A,4505.98472,N,06839.84712,W,1.378,335.89,180924,,,A*70
$GPVTG,335.89,T,,M,1.378,N,2.552,K,A*34
$GPGGA,171158.00,4505.98472,N,06839.84712,W,1,08,0.96,40.4,M,-29.0,M,,*5C
$GPGSA,A,3,18,24,12,22,15,23,10,32,,,,,1.58,0.96,1.25*0E
$GPGSV,3,1,11,08,02,307,,10,49,308,38,12,09,129,29,15,28,076,38*76
$GPGSV,3,2,11,18,27,190,37,21,00,333,,22,07,034,22,23,87,077,33*76
$GPGSV,3,3,11,24,63,081,36,27,02,277,,32,29,263,38*45
$GPGLL,4505.98472,N,06839.84712,W,171158.00,A,A*78
$RDENS,2202,4751643,PC
$RDENS,2203,4751721,PC
$GPRMC,171159.00,A,4505.98507,N,06839.84733,W,1.433,337.31,180924,,,A*78
$GPVTG,337.31,T,,M,1.433,N,2.653,K,A*3F
$GPGGA,171159.00,4505.98507,N,06839.84733,W,1,08,0.96,40.4,M,-29.0,M,,*5D
$GPGSA,A,3,18,24,12,22,15,23,10,32,,,,,1.58,0.96,1.25*0E
$GPGSV,3,1,11,08,02,307,,10,49,308,37,12,09,129,30,15,28,076,38*71
$GPGSV,3,2,11,18,27,190,31,21,00,333,,22,07,034,22,23,87,077,34*77
$GPGSV,3,3,11,24,63,081,36,27,02,277,,32,29,263,36*4B
$GPGLL,4505.98507,N,06839.84733,W,171159.00,A,A*79
$RDENS,2204,4751800,PC
$GPRMC,171200.00,A,4505.98545,N,06839.84754,W,1.400,338.03,180924,,,A*7E
$GPVTG,338.03,T,,M,1.400,N,2.593,K,A*3E
$GPGGA,171200.00,4505.98545,N,06839.84754,W,1,08,0.96,40.4,M,-29.0,M,,*55
$GPGSA,A,3,18,24,12,22,15,23,10,32,,,,,1.58,0.96,1.25*0E
$GPGSV,3,1,11,08,02,307,,10,49,308,38,12,09,129,29,15,28,076,37*79
$GPGSV,3,2,11,18,27,190,32,21,00,333,,22,07,034,21,23,87,077,36*75
$GPGSV,3,3,11,24,63,081,36,27,02,277,,32,29,263,36*4B
$GPGLL,4505.98545,N,06839.84754,W,171200.00,A,A*71
$RDENS,2205,4751879,PC
$GPRMC,171201.00,A,4505.98582,N,06839.84774,W,1.372,338.62,180924,,,A*73
$GPVTG,338.62,T,,M,1.372,N,2.540,K,A*35
$GPGGA,171201.00,4505.98582,N,06839.84774,W,1,08,0.96,40.3,M,-29.0,M,,*5A
$GPGSA,A,3,18,24,12,22,15,23,10,32,,,,,1.58,0.96,1.25*0E
$GPGSV,3,1,11,08,02,307,,10,49,308,39,12,09,129,29,15,28,076,37*78
$GPGSV,3,2,11,18,27,190,34,21,00,333,,22,07,034,21,23,87,077,38*7D
$GPGSV,3,3,11,24,63,081,33,27,02,277,,32,29,263,37*4F
$GPGLL,4505.98582,N,06839.84774,W,171201.00,A,A*79
$RDENS,2206,4751957,PC
$GPRMC,171202.00,A,4505.98622,N,06839.84793,W,1.410,339.55,180924,,,A*76
$GPVTG,339.55,T,,M,1.410,N,2.612,K,A*37
$GPGGA,171202.00,4505.98622,N,06839.84793,W,1,08,0.96,40.3,M,-29.0,M,,*59
$GPGSA,A,3,18,24,12,22,15,23,10,32,,,,,1.58,0.96,1.25*0E
$GPGSV,3,1,11,08,02,307,,10,49,308,41,12,09,129,29,15,28,076,37*77
$GPGSV,3,2,11,18,27,190,37,21,00,333,,22,07,034,23,23,87,077,38*7C
$GPGSV,3,3,11,24,63,081,36,27,02,277,,32,29,263,37*4A
$GPGLL,4505.98622,N,06839.84793,W,171202.00,A,A*7A
$RDENS,2207,4752036,PC
$RDENS,2208,4752115,PC
$GPRMC,171203.00,A,4505.98660,N,06839.84810,W,1.317,341.05,180924,,,A*7F
$GPVTG,341.05,T,,M,1.317,N,2.439,K,A*36
$GPGGA,171203.00,4505.98660,N,06839.84810,W,1,08,0.96,40.3,M,-29.0,M,,*5A
$GPGSA,A,3,18,24,12,22,15,23,10,32,,,,,1.58,0.96,1.25*0E
$GPGSV,3,1,11,08,02,307,,10,50,308,40,12,09,129,29,15,28,076,38*71
$GPGSV,3,2,11,18,27,190,37,21,00,333,,22,07,034,26,23,87,077,38*79
$GPGSV,3,3,11,24,63,081,36,27,02,277,,32,29,263,37*4A
$GPGLL,4505.98660,N,06839.84810,W,171203.00,A,A*79
$RDENS,2209,4752193,PC
$GPRMC,171204.00,A,4505.98698,N,06839.84824,W,1.343,344.61,180924,,,A*7E
$GPVTG,344.61,T,,M,1.343,N,2.486,K,A*34
$GPGGA,171204.00,4505.98698,N,06839.84824,W,1,08,0.96,40.4,M,-29.0,M,,*5A
$GPGSA,A,3,18,24,12,22,15,23,10,32,,,,,1.58,0.96,1.25*0E
$GPGSV,3,1,11,08,02,307,,10,50,308,40,12,09,129,31,15,28,076,39*79
$GPGSV,3,2,11,18,27,190,37,21,00,333,,22,07,034,26,23,87,077,38*79
$GPGSV,3,3,11,24,63,081,36,27,02,277,,32,29,263,37*4A
$GPGLL,4505.98698,N,06839.84824,W,171204.00,A,A*7E
$RDENS,2210,4752273,PC
$GPRMC,171205.00,A,4505.98735,N,06839.84834,W,1.277,346.29,180924,,,A*70
$GPVTG,346.29,T,,M,1.277,N,2.366,K,A*35
$GPGGA,171205.00,4505.98735,N,06839.84834,W,1,08,0.96,40.4,M,-29.0,M,,*5C
$GPGSA,A,3,18,24,12,22,15,23,10,32,,,,,1.58,0.96,1.25*0E
$GPGSV,3,1,11,08,02,307,,10,50,308,40,12,09,129,31,15,28,076,39*79
$GPGSV,3,2,11,18,27,190,36,21,00,333,,22,07,034,25,23,87,077,38*7B
$GPGSV,3,3,11,24,63,081,36,27,02,277,,32,29,263,37*4A
$GPGLL,4505.98735,N,06839.84834,W,171205.00,A,A*78
$RDENS,2211,4752351,PC
$GPRMC,171206.00,A,4505.98774,N,06839.84845,W,1.385,347.37,180924,,,A*72
$GPVTG,347.37,T,,M,1.385,N,2.566,K,A*31
$GPGGA,171206.00,4505.98774,N,06839.84845,W,1,08,0.96,40.5,M,-29.0,M,,*5D
$GPGSA,A,3,18,24,12,22,15,23,10,32,,,,,1.58,0.96,1.25*0E
$GPGSV,3,1,11,08,02,307,,10,50,308,40,12,09,129,31,15,28,076,38*78
$GPGSV,3,2,11,18,27,190,37,21,00,333,,22,07,034,23,23,87,077,38*7C
$GPGSV,3,3,11,24,63,081,36,27,02,277,,32,29,263,37*4A
$GPGLL,4505.98774,N,06839.84845,W,171206.00,A,A*78
$RDENS,2212,4752429,PC
$RDENS,2213,4752509,PC
$GPRMC,171207.00,A,4505.98815,N,06839.84855,W,1.489,347.61,180924,,,A*72
$GPVTG,347.61,T,,M,1.489,N,2.757,K,A*39
$GPGGA,171207.00,4505.98815,N,06839.84855,W,1,08,0.96,40.5,M,-29.0,M,,*55
$GPGSA,A,3,18,24,12,22,15,23,10,32,,,,,1.58,0.96,1.25*0E
$GPGSV,3,1,11,08,02,307,,10,50,308,40,12,09,129,30,15,28,076,38*79
$GPGSV,3,2,11,18,27,190,37,21,00,333,,22,07,034,24,23,87,077,38*7B
$GPGSV,3,3,11,24,63,081,35,27,02,277,,32,29,263,34*4A
$GPGLL,4505.98815,N,06839.84855,W,171207.00,A,A*70
$RDENS,2214,4752587,PC
$GPRMC,171208.00,A,4505.98861,N,06839.84868,W,1.665,347.28,180924,,,A*7D
$GPVTG,347.28,T,,M,1.665,N,3.083,K,A*3B
$GPGGA,171208.00,4505.98861,N,06839.84868,W,1,08,0.96,40.5,M,-29.0,M,,*57
$GPGSA,A,3,18,24,12,22,15,23,10,32,,,,,1.58,0.96,1.25*0E
$GPGSV,3,1,11,08,02,307,,10,50,308,41,12,09,129,29,15,28,076,39*71
$GPGSV,3,2,11,18,27,190,37,21,00,333,,22,07,034,25,23,87,077,38*7A
$GPGSV,3,3,11,24,63,081,36,27,02,277,,32,29,263,36*4B
$GPGLL,4505.98861,N,06839.84868,W,171208.00,A,A*72
$RDENS,2215,4752666,PC
$GPRMC,171209.00,A,4505.98908,N,06839.84883,W,1.707,347.25,180924,,,A*7F
$GPVTG,347.25,T,,M,1.707,N,3.161,K,A*3E
$GPGGA,171209.00,4505.98908,N,06839.84883,W,1,08,0.96,40.6,M,-29.0,M,,*5E
$GPGSA,A,3,18,24,12,22,15,23,10,32,,,,,1.58,0.96,1.25*0E
$GPGSV,3,1,11,08,02,307,,10,50,308,41,12,09,129,29,15,28,076,39*71
$GPGSV,3,2,11,18,27,190,37,21,00,333,,22,07,034,25,23,87,077,38*7A
$GPGSV,3,3,11,24,63,081,36,27,02,277,,32,29,263,33*4E
$GPGLL,4505.98908,N,06839.84883,W,171209.00,A,A*78
$RDENS,2216,4752745,PC
$GPRMC,171210.00,A,4505.98957,N,06839.84898,W,1.769,347.02,180924,,,A*7A
$GPVTG,347.02,T,,M,1.769,N,3.277,K,A*37
$GPGGA,171210.00,4505.98957,N,06839.84898,W,1,08,0.96,40.6,M,-29.0,M,,*56
$GPGSA,A,3,18,24,12,22,15,23,10,32,,,,,1.58,0.96,1.25*0E
$GPGSV,3,1,11,08,02,307,,10,50,308,40,12,09,129,28,15,28,076,38*70
$GPGSV,3,2,11,18,27,190,37,21,00,333,,22,07,034,25,23,87,077,38*7A
$GPGSV,3,3,11,24,63,081,36,27,02,277,,32,29,263,36*4B
$GPGLL,4505.98957,N,06839.84898,W,171210.00,A,A*70
$RDENS,2217,4752824,PC
$RDENS,2218,4752902,PC
$GPRMC,171211.00,A,4505.99009,N,06839.84914,W,1.858,347.08,180924,,,A*7A
$GPVTG,347.08,T,,M,1.858,N,3.441,K,A*33
$GPGGA,171211.00,4505.99009,N,06839.84914,W,1,08,0.96,40.6,M,-29.0,M,,*51
$GPGSA,A,3,18,24,12,22,15,23,10,32,,,,,1.58,0.96,1.25*0E
$GPGSV,3,1,11,08,02,307,,10,50,308,40,12,09,129,28,15,28,076,38*70
$GPGSV,3,2,11,18,27,190,37,21,00,333,,22,07,034,26,23,87,077,38*79
$GPGSV,3,3,11,24,63,081,36,27,02,277,,32,29,263,28*44
$GPGLL,4505.99009,N,06839.84914,W,171211.00,A,A*77
$RDENS,2219,4752982,PC
$GPRMC,171212.00,A,4505.99065,N,06839.84930,W,1.915,347.48,180924,,,A*79
$GPVTG,347.48,T,,M,1.915,N,3.547,K,A*38
$GPGGA,171212.00,4505.99065,N,06839.84930,W,1,08,0.96,40.6,M,-29.0,M,,*5E
$GPGSA,A,3,18,24,12,22,15,23,10,32,,,,,1.58,0.96,1.25*0E
$GPGSV,3,1,11,08,02,307,,10,50,308,40,12,09,129,29,15,28,076,38*71
$GPGSV,3,2,11,18,27,190,37,21,00,333,,22,07,034,26,23,87,077,38*79
$GPGSV,3,3,11,24,63,081,36,27,02,277,,32,29,263,28*44
$GPGLL,4505.99065,N,06839.84930,W,171212.00,A,A*78
$RDENS,2220,4753060,PC
$GPRMC,171213.00,A,4505.99121,N,06839.84948,W,1.975,346.69,180924,,,A*72
$GPVTG,346.69,T,,M,1.975,N,3.658,K,A*31
$GPGGA,171213.00,4505.99121,N,06839.84948,W,1,08,0.96,40.5,M,-29.0,M,,*52
$GPGSA,A,3,18,24,12,22,15,23,10,32,,,,,1.58,0.96,1.25*0E
$GPGSV,3,1,11,08,02,307,,10,50,308,40,12,09,129,30,15,28,076,39*78
$GPGSV,3,2,11,18,27,190,37,21,00,333,,22,07,034,27,23,87,077,39*79
$GPGSV,3,3,11,24,63,081,36,27,02,277,,32,29,263,33*4E
$GPGLL,4505.99121,N,06839.84948,W,171213.00,A,A*77
$RDENS,2221,4753139,PC
$RDENS,2222,4753218,PC
$GPRMC,171214.00,A,4505.99175,N,06839.84963,W,1.923,347.73,180924,,,A*74
$GPVTG,347.73,T,,M,1.923,N,3.561,K,A*31
$GPGGA,171214.00,4505.99175,N,06839.84963,W,1,08,0.96,40.5,M,-29.0,M,,*5D
$GPGSA,A,3,18,24,12,22,15,23,10,32,,,,,1.58,0.96,1.25*0E
$GPGSV,3,1,11,08,02,307,,10,50,308,41,12,09,129,31,15,28,076,39*78
$GPGSV,3,2,11,18,27,190,37,21,00,333,,22,07,034,27,23,87,077,39*79
$GPGSV,3,3,11,24,63,081,36,27,02,277,,32,29,263,29*45
$GPGLL,4505.99175,N,06839.84963,W,171214.00,A,A*78
$RDENS,2223,4753296,PC
$GPRMC,171215.00,A,4505.99228,N,06839.84978,W,1.888,347.37,180924,,,A*74
$GPVTG,347.37,T,,M,1.888,N,3.497,K,A*39
$GPGGA,171215.00,4505.99228,N,06839.84978,W,1,08,0.96,40.6,M,-29.0,M,,*5E
$GPGSA,A,3,18,24,12,22,15,23,10,32,,,,,1.58,0.96,1.25*0E
$GPGSV,3,1,11,08,02,307,,10,50,308,41,12,09,129,31,15,28,076,39*78
$GPGSV,3,2,11,18,27,190,37,21,00,333,,22,07,034,25,23,87,077,39*7B
$GPGSV,3,3,11,24,63,081,36,27,02,277,,32,29,263,29*45
$GPGLL,4505.99228,N,06839.84978,W,171215.00,A,A*78
$RDENS,2224,4753376,PC
$GPRMC,171216.00,A,4505.99282,N,06839.84993,W,1.996,347.90,180924,,,A*71
$GPVTG,347.90,T,,M,1.996,N,3.697,K,A*38
$GPGGA,171216.00,4505.99282,N,06839.84993,W,1,08,0.96,40.6,M,-29.0,M,,*58
$GPGSA,A,3,18,24,12,22,15,23,10,32,,,,,1.58,0.96,1.25*0E
$GPGSV,3,1,11,08,02,307,,10,50,308,41,12,09,129,31,15,28,076,39*78
$GPGSV,3,2,11,18,27,190,37,21,00,333,,22,07,034,25,23,87,083,39*70
$GPGSV,3,3,11,24,63,081,36,27,02,277,,32,29,263,28*44
$GPGLL,4505.99282,N,06839.84993,W,171216.00,A,A*7E
$RDENS,2225,4753454,PC
$GPRMC,171217.00,A,4505.99335,N,06839.85008,W,1.957,348.08,180924,,,A*74
$GPVTG,348.08,T,,M,1.957,N,3.624,K,A*33
$GPGGA,171217.00,4505.99335,N,06839.85008,W,1,08,0.96,40.6,M,-29.0,M,,*5E
$GPGSA,A,3,18,24,12,22,15,23,10,32,,,,,1.58,0.96,1.25*0E
$GPGSV,3,1,11,08,02,307,,10,50,308,41,12,09,129,31,15,28,076,39*78
$GPGSV,3,2,11,18,27,190,37,21,00,333,,22,07,034,26,23,87,083,39*73
$GPGSV,3,3,11,24,63,081,36,27,02,277,,32,29,263,33*4E
$GPGLL,4505.99335,N,06839.85008,W,171217.00,A,A*78
$RDENS,2226,4753533,PC
$RDENS,2227,4753611,PC
$GPRMC,171218.00,A,4505.99389,N,06839.85025,W,1.983,347.09,180924,,,A*74
$GPVTG,347.09,T,,M,1.983,N,3.673,K,A*36
$GPGGA,171218.00,4505.99389,N,06839.85025,W,1,08,0.96,40.7,M,-29.0,M,,*58
$GPGSA,A,3,18,24,12,22,15,23,10,32,,,,,1.58,0.96,1.25*0E
$GPGSV,3,1,11,08,02,307,,10,50,308,40,12,09,129,30,15,28,076,38*79
$GPGSV,3,2,11,18,27,190,36,21,00,333,,22,07,034,25,23,87,083,39*71
$GPGSV,3,3,11,24,63,081,35,27,02,277,,32,29,263,32*4C
$GPGLL,4505.99389,N,06839.85025,W,171218.00,A,A*7F
$RDENS,2228,4753690,PC
$GPRMC,171219.00,A,4505.99444,N,06839.85043,W,2.059,346.14,180924,,,A*73
$GPVTG,346.14,T,,M,2.059,N,3.813,K,A*3E
$GPGGA,171219.00,4505.99444,N,06839.85043,W,1,08,0.96,40.7,M,-29.0,M,,*5F
$GPGSA,A,3,18,24,12,22,15,23,10,32,,,,,1.58,0.96,1.25*0E
$GPGSV,3,1,11,08,02,307,,10,50,308,40,12,09,129,30,15,28,076,39*78
$GPGSV,3,2,11,18,27,190,37,21,00,333,,22,07,034,26,23,87,083,39*73
$GPGSV,3,3,11,24,63,081,36,27,02,277,,32,29,263,34*49
$GPGLL,4505.99444,N,06839.85043,W,171219.00,A,A*78
$RDENS,2229,4753769,PC
$GPRMC,171220.00,A,4505.99501,N,06839.85062,W,2.083,345.57,180924,,,A*79
$GPVTG,345.57,T,,M,2.083,N,3.858,K,A*32
$GPGGA,171220.00,4505.99501,N,06839.85062,W,1,08,0.96,40.8,M,-29.0,M,,*59
$GPGSA,A,3,18,24,12,22,15,23,10,32,,,,,1.58,0.96,1.26*0D
$GPGSV,3,1,11,08,02,307,,10,50,308,39,12,09,129,29,15,28,076,38*7F
$GPGSV,3,2,11,18,27,190,36,21,00,333,,22,07,034,27,23,87,083,38*72
$GPGSV,3,3,11,24,63,081,36,27,01,277,,32,29,263,33*4D
$GPGLL,4505.99501,N,06839.85062,W,171220.00,A,A*71
$RDENS,2230,4753847,PC
$GPRMC,171221.00,A,4505.99556,N,06839.85084,W,2.031,344.49,180924,,,A*75
$GPVTG,344.49,T,,M,2.031,N,3.761,K,A*30
$GPGGA,171221.00,4505.99556,N,06839.85084,W,1,08,0.96,40.8,M,-29.0,M,,*52
$GPGSA,A,3,18,24,12,22,15,23,10,32,,,,,1.58,0.96,1.26*0D
$GPGSV,3,1,11,08,02,307,,10,50,308,40,12,09,129,29,15,28,076,39*70
$GPGSV,3,2,11,18,27,190,36,21,00,333,,22,07,034,27,23,87,083,38*72
$GPGSV,3,3,11,24,63,081,36,27,01,277,,32,29,263,29*46
$GPGLL,4505.99556,N,06839.85084,W,171221.00,A,A*7A
$RDENS,2231,4753927,PC
$RDENS,2232,4754005,PC
$GPRMC,171222.00,A,4505.99612,N,06839.85107,W,2.071,343.64,180924,,,A*73
$GPVTG,343.64,T,,M,2.071,N,3.836,K,A*31
$GPGGA,171222.00,4505.99612,N,06839.85107,W,1,08,0.96,40.9,M,-29.0,M,,*59
$GPGSA,A,3,18,24,12,22,15,23,10,32,,,,,1.58,0.96,1.26*0D
$GPGSV,3,1,11,08,02,307,,10,50,308,40,12,09,129,30,15,28,076,39*78
$GPGSV,3,2,11,18,27,190,36,21,00,333,,22,07,034,27,23,87,083,38*72
$GPGSV,3,3,11,24,63,081,34,27,01,277,,32,29,263,34*48
$GPGLL,4505.99612,N,06839.85107,W,171222.00,A,A*70
$RDENS,2233,4754084,PC
$GPRMC,171223.00,A,4505.99667,N,06839.85127,W,2.002,344.44,180924,,,A*73
$GPVTG,344.44,T,,M,2.002,N,3.708,K,A*32
$GPGGA,171223.00,4505.99667,N,06839.85127,W,1,08,0.96,41.0,M,-29.0,M,,*50
$GPGSA,A,3,18,24,12,22,15,23,10,32,,,,,1.58,0.96,1.26*0D
$GPGSV,3,1,11,08,02,307,,10,50,308,40,12,09,129,30,15,28,076,38*79
$GPGSV,3,2,11,18,27,190,37,21,00,333,,22,07,034,26,23,87,083,38*72
$GPGSV,3,3,11,24,63,081,35,27,01,277,,32,29,263,34*49
$GPGLL,4505.99667,N,06839.85127,W,171223.00,A,A*71
$RDENS,2234,4754163,PC
$GPRMC,171224.00,A,4505.99722,N,06839.85144,W,2.001,344.81,180924,,,A*7B
$GPVTG,344.81,T,,M,2.001,N,3.706,K,A*36
$GPGGA,171224.00,4505.99722,N,06839.85144,W,1,08,0.96,41.0,M,-29.0,M,,*52
$GPGSA,A,3,18,24,12,22,15,23,10,32,,,,,1.58,0.96,1.26*0D
$GPGSV,3,1,11,08,02,307,,10,50,308,41,12,09,129,30,15,28,076,38*78
$GPGSV,3,2,11,18,27,190,37,21,00,333,,22,07,034,25,23,87,083,39*70
$GPGSV,3,3,11,24,63,081,35,27,01,277,,32,29,263,30*4D
$GPGLL,4505.99722,N,06839.85144,W,171224.00,A,A*73
$RDENS,2235,4754242,PC
$RDENS,2236,4754321,PC
$GPRMC,171225.00,A,4505.99779,N,06839.85161,W,2.019,346.42,180924,,,A*77
$GPVTG,346.42,T,,M,2.019,N,3.739,K,A*3E
$GPGGA,171225.00,4505.99779,N,06839.85161,W,1,08,0.96,41.1,M,-29.0,M,,*5B
$GPGSA,A,3,18,24,12,22,15,23,10,32,,,,,1.58,0.96,1.26*0D
$GPGSV,3,1,11,08,02,307,,10,50,308,40,12,09,129,30,15,28,076,39*78
$GPGSV,3,2,11,18,27,190,37,21,00,333,,22,07,034,25,23,87,083,39*70
$GPGSV,3,3,11,24,63,081,36,27,01,277,,32,29,263,29*46
$GPGLL,4505.99779,N,06839.85161,W,171225.00,A,A*7B
$RDENS,2237,4754400,PC
$GPRMC,171226.00,A,4505.99835,N,06839.85177,W,2.046,346.35,180924,,,A*7E
$GPVTG,346.35,T,,M,2.046,N,3.789,K,A*3F
$GPGGA,171226.00,4505.99835,N,06839.85177,W,1,08,0.96,41.1,M,-29.0,M,,*58
$GPGSA,A,3,18,24,12,22,15,23,10,32,,,,,1.58,0.96,1.26*0D
$GPGSV,3,1,11,08,02,307,,10,50,308,40,12,09,129,30,15,28,076,38*79
$GPGSV,3,2,11,18,27,190,36,21,00,333,,22,07,034,25,23,87,083,38*70
$GPGSV,3,3,11,24,63,081,36,27,01,277,,32,29,263,29*46
$GPGLL,4505.99835,N,06839.85177,W,171226.00,A,A*78
$RDENS,2238,4754478,PC
$GPRMC,171227.00,A,4505.99891,N,06839.85193,W,2.041,346.67,180924,,,A*7B
$GPVTG,346.67,T,,M,2.041,N,3.780,K,A*36
$GPGGA,171227.00,4505.99891,N,06839.85193,W,1,08,0.96,41.2,M,-29.0,M,,*5E
$GPGSA,A,3,18,24,12,22,15,23,10,32,,,,,1.58,0.96,1.26*0D
$GPGSV,3,1,11,08,02,307,,10,50,308,40,12,09,129,30,15,28,076,38*79
$GPGSV,3,2,11,18,27,190,37,21,00,333,,22,07,034,26,23,87,083,38*72
$GPGSV,3,3,11,24,63,081,36,27,01,277,,32,29,263,29*46
$GPGLL,4505.99891,N,06839.85193,W,171227.00,A,A*7D
$RDENS,2239,4754556,PC
$GPRMC,171228.00,A,4505.99946,N,06839.85210,W,2.023,346.84,180924,,,A*7E
