$GPRMC,180422.00,A,4505.92458,N,06839.66634,W,1.544,85.22,180924,,,A*4D
$GPVTG,85.22,T,,M,1.544,N,2.860,K,A*08
$GPGGA,180422.00,4505.92458,N,06839.66634,W,1,09,0.89,36.3,M,-29.0,M,,*58
$GPGSA,A,3,24,12,15,25,21,23,10,28,32,,,,1.51,0.89,1.21*0A
$GPGSV,4,1,13,02,04,334,09,10,73,300,38,12,26,112,32,15,10,090,15*74
$GPGSV,4,2,13,18,05,184,24,21,14,321,19,23,62,145,35,24,44,056,35*74
$GPGSV,4,3,13,25,16,150,23,28,16,218,30,32,47,282,37,46,12,248,*7D
$GPGSV,4,4,13,48,15,245,*40
$GPGLL,4505.92458,N,06839.66634,W,180422.00,A,A*75
$GPRMC,180423.00,A,4505.92465,N,06839.66578,W,1.462,80.57,180924,,,A*4B
$GPVTG,80.57,T,,M,1.462,N,2.707,K,A*04
$GPGGA,180423.00,4505.92465,N,06839.66578,W,1,09,0.89,36.3,M,-29.0,M,,*5C
$GPGSA,A,3,24,12,15,25,21,23,10,28,32,,,,1.51,0.89,1.21*0A
$GPGSV,4,1,13,02,04,334,09,10,73,300,39,12,26,112,31,15,09,090,17*7C
$GPGSV,4,2,13,18,05,184,26,21,14,321,20,23,62,145,35,24,44,056,35*7C
$GPGSV,4,3,13,25,16,150,26,28,16,218,30,32,47,282,37,46,12,248,*78
$GPGSV,4,4,13,48,15,245,*40
$GPGLL,4505.92465,N,06839.66578,W,180423.00,A,A*71
$RDENS,6198,5066185,PC
$GPRMC,180424.00,A,4505.92478,N,06839.66525,W,1.451,73.50,180924,,,A*43
$GPVTG,73.50,T,,M,1.451,N,2.688,K,A*09
$GPGGA,180424.00,4505.92478,N,06839.66525,W,1,09,0.89,36.3,M,-29.0,M,,*5F
$GPGSA,A,3,24,12,15,25,21,23,10,28,32,,,,1.51,0.89,1.21*0A
$GPGSV,4,1,13,02,04,334,13,10,73,300,40,12,26,112,31,15,09,090,18*76
$GPGSV,4,2,13,18,05,184,27,21,14,321,20,23,62,145,35,24,44,056,35*7D
$GPGSV,4,3,13,25,16,150,25,28,16,218,29,32,47,282,37,46,12,248,*73
$GPGSV,4,4,13,48,15,245,*40
$GPGLL,4505.92478,N,06839.66525,W,180424.00,A,A*72
$RDENS,6199,5066264,PC
$GPRMC,180425.00,A,4505.92496,N,06839.66474,W,1.530,68.18,180924,,,A*47
$GPVTG,68.18,T,,M,1.530,N,2.834,K,A*00
$GPGGA,180425.00,4505.92496,N,06839.66474,W,1,09,0.89,36.2,M,-29.0,M,,*5A
$GPGSA,A,3,24,12,15,25,21,23,10,28,32,,,,1.51,0.89,1.21*0A
$GPGSV,4,1,13,02,04,334,18,10,73,300,40,12,26,112,31,15,09,090,17*72
$GPGSV,4,2,13,18,05,184,29,21,14,321,22,23,62,145,35,24,44,056,30*74
$GPGSV,4,3,13,25,16,150,24,28,16,218,27,32,47,282,39,46,12,248,*72
$GPGSV,4,4,13,48,15,245,*40
$GPGLL,4505.92496,N,06839.66474,W,180425.00,A,A*76
$RDENS,6200,5066343,PC
$RDENS,6201,5066421,PC
$GPRMC,180426.00,A,4505.92517,N,06839.66430,W,1.393,63.26,180924,,,A*45
$GPVTG,63.26,T,,M,1.393,N,2.581,K,A*0A
$GPGGA,180426.00,4505.92517,N,06839.66430,W,1,09,0.89,36.2,M,-29.0,M,,*51
$GPGSA,A,3,24,12,15,25,21,23,10,28,32,,,,1.51,0.89,1.21*0A
$GPGSV,4,1,13,02,04,334,19,10,73,300,40,12,26,112,29,15,09,090,14*79
$GPGSV,4,2,13,18,04,184,31,21,14,321,24,23,62,145,36,24,44,056,28*70
$GPGSV,4,3,13,25,16,150,20,28,16,218,26,32,47,282,41,46,12,248,*78
$GPGSV,4,4,13,48,15,245,*40
$GPGLL,4505.92517,N,06839.66430,W,180426.00,A,A*7D
$RDENS,6202,5066500,PC
$GPRMC,180427.00,A,4505.92536,N,06839.66391,W,1.213,58.80,180924,,,A*46
$GPVTG,58.80,T,,M,1.213,N,2.246,K,A*0B
$GPGGA,180427.00,4505.92536,N,06839.66391,W,1,09,0.89,36.2,M,-29.0,M,,*5F
$GPGSA,A,3,24,12,15,25,21,23,10,28,32,,,,1.51,0.89,1.21*0A
$GPGSV,4,1,13,02,04,334,17,10,73,300,41,12,26,112,27,15,09,090,13*7F
$GPGSV,4,2,13,18,04,184,32,21,14,321,25,23,62,145,37,24,44,056,28*73
$GPGSV,4,3,13,25,16,150,17,28,16,218,24,32,47,282,40,46,12,248,*7F
$GPGSV,4,4,13,48,15,245,*40
$GPGLL,4505.92536,N,06839.66391,W,180427.00,A,A*73
$RDENS,6203,5066579,PC
$GPRMC,180428.00,A,4505.92556,N,06839.66358,W,1.051,,180924,,,A*65
$GPVTG,,T,,M,1.051,N,1.946,K,A*2C
$GPGGA,180428.00,4505.92556,N,06839.66358,W,1,09,0.89,36.0,M,-29.0,M,,*51
$GPGSA,A,3,24,12,15,25,21,23,10,28,32,,,,1.51,0.89,1.21*0A
$GPGSV,4,1,13,02,04,334,14,10,73,300,41,12,26,112,25,15,09,090,11*7C
$GPGSV,4,2,13,18,04,184,32,21,14,321,25,23,62,145,38,24,44,056,28*7C
$GPGSV,4,3,13,25,16,150,12,28,16,218,22,32,47,282,39,46,12,248,*72
$GPGSV,4,4,13,48,15,245,33*40
$GPGLL,4505.92556,N,06839.66358,W,180428.00,A,A*7F
$RDENS,6204,5066657,PC
$GPRMC,180429.00,A,4505.92582,N,06839.66325,W,1.264,47.98,180924,,,A*4F
$GPVTG,47.98,T,,M,1.264,N,2.341,K,A*0A
$GPGGA,180429.00,4505.92582,N,06839.66325,W,1,09,0.89,36.0,M,-29.0,M,,*53
$GPGSA,A,3,24,12,15,25,21,23,10,28,32,,,,1.51,0.89,1.21*0A
$GPGSV,4,1,13,02,04,334,10,10,73,300,41,12,26,112,25,15,09,090,13*7A
$GPGSV,4,2,13,18,04,184,31,21,14,320,25,23,62,145,37,24,44,056,28*71
$GPGSV,4,3,13,25,16,150,15,28,16,218,22,32,47,282,39,46,12,248,*75
$GPGSV,4,4,13,48,15,245,32*41
$GPGLL,4505.92582,N,06839.66325,W,180429.00,A,A*7D
$RDENS,6205,5066736,PC
$RDENS,6206,5066815,PC
$GPRMC,180430.00,A,4505.92612,N,06839.66293,W,1.318,43.67,180924,,,A*4F
$GPVTG,43.67,T,,M,1.318,N,2.441,K,A*03
$GPGGA,180430.00,4505.92612,N,06839.66293,W,1,09,0.89,35.9,M,-29.0,M,,*57
$GPGSA,A,3,24,12,15,25,21,23,10,28,32,,,,1.51,0.89,1.21*0A
$GPGSV,4,1,13,02,04,334,09,10,73,300,41,12,26,112,26,15,09,090,13*71
$GPGSV,4,2,13,18,04,184,31,21,14,320,24,23,62,145,37,24,44,056,28*70
$GPGSV,4,3,13,25,16,150,16,28,16,218,22,32,47,282,39,46,12,248,*76
$GPGSV,4,4,13,48,15,245,31*42
$GPGLL,4505.92612,N,06839.66293,W,180430.00,A,A*73
$RDENS,6207,5066894,PC
$GPRMC,180431.00,A,4505.92644,N,06839.66265,W,1.189,36.75,180924,,,A*4F
$GPVTG,36.75,T,,M,1.189,N,2.201,K,A*0A
$GPGGA,180431.00,4505.92644,N,06839.66265,W,1,09,0.89,35.8,M,-29.0,M,,*5D
$GPGSA,A,3,24,12,15,25,21,23,10,28,32,,,,1.51,0.89,1.21*0A
$GPGSV,4,1,13,02,04,334,,10,73,300,41,12,26,112,29,15,09,090,11*75
$GPGSV,4,2,13,18,04,184,30,21,14,320,24,23,62,145,38,24,44,056,34*73
$GPGSV,4,3,13,25,16,150,19,28,16,218,25,32,47,282,39,46,12,248,*7E
$GPGSV,4,4,13,48,15,245,32*41
$GPGLL,4505.92644,N,06839.66265,W,180431.00,A,A*78
$RDENS,6208,5066972,PC
$GPRMC,180432.00,A,4505.92676,N,06839.66239,W,1.077,33.22,180924,,,A*43
$GPVTG,33.22,T,,M,1.077,N,1.995,K,A*08
$GPGGA,180432.00,4505.92676,N,06839.66239,W,1,08,0.98,35.7,M,-29.0,M,,*58
$GPGSA,A,3,24,12,25,21,23,10,28,32,,,,,1.69,0.98,1.37*02
$GPGSV,4,1,13,02,04,334,,10,73,300,41,12,26,112,34,15,09,090,09*70
$GPGSV,4,2,13,18,04,184,29,21,14,320,25,23,62,145,39,24,44,056,35*7A
$GPGSV,4,3,13,25,16,150,23,28,16,218,26,32,47,282,39,46,12,248,*74
$GPGSV,4,4,13,48,15,245,32*41
$GPGLL,4505.92676,N,06839.66239,W,180432.00,A,A*73
$RDENS,6209,5067050,PC
$GPRMC,180433.00,A,4505.92711,N,06839.66219,W,1.237,26.51,180924,,,A*46
$GPVTG,26.51,T,,M,1.237,N,2.291,K,A*02
$GPGGA,180433.00,4505.92711,N,06839.66219,W,1,08,0.98,35.5,M,-29.0,M,,*59
$GPGSA,A,3,24,12,25,21,23,10,28,32,,,,,1.69,0.98,1.37*02
$GPGSV,4,1,13,02,04,334,,10,73,300,41,12,26,112,33,15,09,090,08*76
$GPGSV,4,2,13,18,04,184,28,21,14,320,24,23,62,145,39,24,44,056,36*79
$GPGSV,4,3,13,25,17,150,25,28,16,218,26,32,47,282,39,46,12,248,*73
$GPGSV,4,4,13,48,15,245,32*41
$GPGLL,4505.92711,N,06839.66219,W,180433.00,A,A*70
$RDENS,6210,5067130,PC
$RDENS,6211,5067208,PC
$GPRMC,180434.00,A,4505.92745,N,06839.66197,W,1.124,24.35,180924,,,A*44
$GPVTG,24.35,T,,M,1.124,N,2.082,K,A*03
$GPGGA,180434.00,4505.92745,N,06839.66197,W,1,08,0.98,35.3,M,-29.0,M,,*5C
$GPGSA,A,3,24,12,25,21,23,10,28,32,,,,,1.69,0.98,1.37*02
$GPGSV,4,1,13,02,04,334,,10,73,300,41,12,26,112,33,15,09,090,08*76
$GPGSV,4,2,13,18,04,184,27,21,14,320,23,23,62,145,39,24,44,056,35*72
$GPGSV,4,3,13,25,17,150,25,28,16,218,27,32,47,282,38,46,12,248,*73
$GPGSV,4,4,13,48,15,245,32*41
$GPGLL,4505.92745,N,06839.66197,W,180434.00,A,A*73
$RDENS,6212,5067287,PC
$GPRMC,180435.00,A,4505.92776,N,06839.66178,W,1.079,23.43,180924,,,A*4B
$GPVTG,23.43,T,,M,1.079,N,1.999,K,A*0C
$GPGGA,180435.00,4505.92776,N,06839.66178,W,1,08,0.98,35.3,M,-29.0,M,,*5C
$GPGSA,A,3,24,12,25,21,23,10,28,32,,,,,1.69,0.98,1.37*02
$GPGSV,4,1,13,02,04,334,,10,73,300,41,12,26,112,33,15,09,090,08*76
$GPGSV,4,2,13,18,04,184,26,21,14,320,20,23,62,145,39,24,44,056,38*7D
$GPGSV,4,3,13,25,17,150,25,28,16,218,29,32,47,282,40,46,12,248,*72
$GPGSV,4,4,13,48,15,245,31*42
$GPGLL,4505.92776,N,06839.66178,W,180435.00,A,A*73
$RDENS,6213,5067365,PC
$GPRMC,180436.00,A,4505.92805,N,06839.66164,W,1.092,20.26,180924,,,A*4B
$GPVTG,20.26,T,,M,1.092,N,2.022,K,A*03
$GPGGA,180436.00,4505.92805,N,06839.66164,W,1,08,0.98,35.2,M,-29.0,M,,*58
$GPGSA,A,3,24,12,25,21,23,10,28,32,,,,,1.69,0.98,1.37*02
$GPGSV,4,1,13,02,04,334,,10,73,300,40,12,26,112,34,15,09,090,08*70
$GPGSV,4,2,13,18,04,184,24,21,14,320,20,23,62,145,39,24,44,056,38*7F
$GPGSV,4,3,13,25,17,150,24,28,16,218,30,32,47,282,40,46,12,248,*7B
$GPGSV,4,4,13,48,15,245,33*40
$GPGLL,4505.92805,N,06839.66164,W,180436.00,A,A*76
$RDENS,6214,5067444,PC
$RDENS,6215,5067523,PC
$GPRMC,180437.00,A,4505.92832,N,06839.66155,W,1.018,16.57,180924,,,A*4D
$GPVTG,16.57,T,,M,1.018,N,1.886,K,A*07
$GPGGA,180437.00,4505.92832,N,06839.66155,W,1,07,1.43,35.1,M,-29.0,M,,*54
$GPGSA,A,3,24,12,25,23,10,28,32,,,,,,2.61,1.43,2.18*03
$GPGSV,4,1,13,02,04,334,,10,73,300,40,12,26,112,35,15,09,090,08*71
$GPGSV,4,2,13,18,04,184,22,21,14,320,19,23,62,145,40,24,44,056,38*7D
$GPGSV,4,3,13,25,17,150,25,28,16,218,31,32,47,282,39,46,12,248,*75
$GPGSV,4,4,13,48,15,245,33*40
$GPGLL,4505.92832,N,06839.66155,W,180437.00,A,A*71
$RDENS,6216,5067601,PC
$GPRMC,180438.00,A,4505.92865,N,06839.66144,W,1.033,12.85,180924,,,A*42
$GPVTG,12.85,T,,M,1.033,N,1.913,K,A*08
$GPGGA,180438.00,4505.92865,N,06839.66144,W,1,09,0.89,35.2,M,-29.0,M,,*53
$GPGSA,A,3,24,12,15,25,21,23,10,28,32,,,,1.51,0.89,1.21*0A
$GPGSV,4,1,13,02,04,334,,10,73,300,39,12,26,112,34,15,09,090,16*71
$GPGSV,4,2,13,18,04,184,22,21,14,320,19,23,62,145,39,24,44,056,38*73
$GPGSV,4,3,13,25,17,150,24,28,16,218,31,32,47,282,39,46,12,248,*74
$GPGSV,4,4,13,48,15,245,33*40
$GPGLL,4505.92865,N,06839.66144,W,180438.00,A,A*7C
$RDENS,6217,5067680,PC
$GPRMC,180439.00,A,4505.92895,N,06839.66134,W,0.927,12.18,180924,,,A*42
$GPVTG,12.18,T,,M,0.927,N,1.716,K,A*0A
$GPGGA,180439.00,4505.92895,N,06839.66134,W,1,09,0.89,35.4,M,-29.0,M,,*5C
$GPGSA,A,3,24,12,15,25,21,23,10,28,32,,,,1.51,0.89,1.21*0A
$GPGSV,4,1,13,02,04,334,,10,73,300,40,12,26,112,35,15,09,090,16*7E
$GPGSV,4,2,13,18,04,184,22,21,14,320,20,23,62,145,40,24,44,056,38*77
$GPGSV,4,3,13,25,17,150,25,28,16,218,31,32,47,282,39,46,12,248,*75
$GPGSV,4,4,13,48,15,245,33*40
$GPGLL,4505.92895,N,06839.66134,W,180439.00,A,A*75
$RDENS,6218,5067759,PC
$GPRMC,180440.00,A,4505.92926,N,06839.66127,W,0.967,9.80,180924,,,D*7D
$GPVTG,9.80,T,,M,0.967,N,1.790,K,D*3E
$GPGGA,180440.00,4505.92926,N,06839.66127,W,2,09,0.89,35.5,M,-29.0,M,,0000*5B
$GPGSA,A,3,24,12,15,25,21,23,10,28,32,,,,1.51,0.89,1.21*0A
$GPGSV,4,1,13,02,04,334,,10,73,300,39,12,26,112,35,15,09,090,16*70
$GPGSV,4,2,13,18,04,184,21,21,14,320,20,23,62,145,40,24,44,056,39*75
$GPGSV,4,3,13,25,17,150,24,28,16,218,31,32,48,282,39,46,12,248,*7B
$GPGSV,4,4,13,48,15,245,33*40
$GPGLL,4505.92926,N,06839.66127,W,180440.00,A,D*75
$RDENS,6219,5067838,PC
$RDENS,6220,5067916,PC
$GPRMC,180441.00,A,4505.92956,N,06839.66121,W,1.016,8.96,180924,,,D*75
$GPVTG,8.96,T,,M,1.016,N,1.881,K,D*39
$GPGGA,180441.00,4505.92956,N,06839.66121,W,2,09,0.89,35.8,M,-29.0,M,,0000*56
$GPGSA,A,3,24,12,15,25,21,23,10,28,32,,,,1.51,0.89,1.21*0A
$GPGSV,4,1,13,02,04,334,,10,73,300,39,12,26,112,34,15,09,090,16*71
$GPGSV,4,2,13,18,04,184,21,21,14,320,20,23,62,145,39,24,44,056,39*7B
$GPGSV,4,3,13,25,17,150,25,28,16,218,32,32,48,282,39,46,12,248,*79
$GPGSV,4,4,13,48,15,245,33*40
$GPGLL,4505.92956,N,06839.66121,W,180441.00,A,D*75
$RDENS,6221,5067995,PC
$GPRMC,180442.00,A,4505.92983,N,06839.66121,W,0.958,4.92,180924,,,D*74
$GPVTG,4.92,T,,M,0.958,N,1.774,K,D*36
$GPGGA,180442.00,4505.92983,N,06839.66121,W,2,09,0.89,35.7,M,-29.0,M,,0000*52
$GPGSA,A,3,24,12,15,25,21,23,10,28,32,,,,1.51,0.89,1.21*0A
$GPGSV,4,1,13,02,04,334,,10,73,300,40,12,26,112,34,15,09,090,16*7F
$GPGSV,4,2,13,18,04,184,25,21,14,320,18,23,62,145,39,24,44,056,39*74
$GPGSV,4,3,13,25,17,150,25,28,16,218,30,32,48,282,39,46,12,248,*7B
$GPGSV,4,4,13,48,15,245,33*40
$GPGLL,4505.92983,N,06839.66121,W,180442.00,A,D*7E
$RDENS,6222,5068075,PC
$GPRMC,180443.00,A,4505.93008,N,06839.66117,W,0.932,7.68,180924,,,D*71
$GPVTG,7.68,T,,M,0.932,N,1.725,K,D*38
$GPGGA,180443.00,4505.93008,N,06839.66117,W,2,08,1.23,35.8,M,-29.0,M,,0000*52
$GPGSA,A,3,24,12,15,25,23,10,28,32,,,,,2.06,1.23,1.65*09
$GPGSV,4,1,13,02,04,334,,10,73,300,40,12,26,112,33,15,09,090,16*78
$GPGSV,4,2,13,18,04,184,27,21,14,320,,23,62,145,39,24,44,056,39*7F
$GPGSV,4,3,13,25,17,150,24,28,16,218,28,32,48,282,39,46,12,248,*73
$GPGSV,4,4,13,48,15,245,33*40
$GPGLL,4505.93008,N,06839.66117,W,180443.00,A,D*71
$RDENS,6223,5068153,PC
$GPRMC,180444.00,A,4505.93033,N,06839.66112,W,0.851,7.36,180924,,,D*74
$GPVTG,7.36,T,,M,0.851,N,1.576,K,D*33
$GPGGA,180444.00,4505.93033,N,06839.66112,W,2,08,1.23,35.9,M,-29.0,M,,0000*59
$GPGSA,A,3,24,12,15,25,23,10,28,32,,,,,2.06,1.23,1.65*09
$GPGSV,4,1,13,02,04,334,,10,73,300,40,12,26,112,33,15,09,090,15*7B
$GPGSV,4,2,13,18,04,184,26,21,14,320,,23,62,145,40,24,44,056,39*70
$GPGSV,4,3,13,25,17,150,26,28,16,218,29,32,48,282,39,46,12,248,*70
$GPGSV,4,4,13,48,15,245,32*41
$GPGLL,4505.93033,N,06839.66112,W,180444.00,A,D*7B
$RDENS,6224,5068231,PC
$RDENS,6225,5068310,PC
$GPRMC,180445.00,A,4505.93055,N,06839.66110,W,0.809,5.44,180924,,,D*7D
$GPVTG,5.44,T,,M,0.809,N,1.499,K,D*39
$GPGGA,180445.00,4505.93055,N,06839.66110,W,2,08,1.23,35.9,M,-29.0,M,,0000*5A
$GPGSA,A,3,24,12,15,25,23,10,28,32,,,,,2.06,1.23,1.65*09
$GPGSV,4,1,13,02,04,334,,10,73,300,39,12,26,112,33,15,09,090,15*75
$GPGSV,4,2,13,18,04,184,24,21,14,320,18,23,62,145,40,24,44,056,39*7B
$GPGSV,4,3,13,25,17,150,27,28,16,218,29,32,48,282,39,46,12,248,*71
$GPGSV,4,4,13,48,15,245,32*41
$GPGLL,4505.93055,N,06839.66110,W,180445.00,A,D*78
$RDENS,6226,5068389,PC
$GPRMC,180446.00,A,4505.93079,N,06839.66105,W,0.833,5.12,180924,,,D*7E
$GPVTG,5.12,T,,M,0.833,N,1.543,K,D*35
$GPGGA,180446.00,4505.93079,N,06839.66105,W,2,08,1.23,36.0,M,-29.0,M,,0000*59
$GPGSA,A,3,24,12,15,25,23,10,28,32,,,,,2.06,1.23,1.65*09
$GPGSV,4,1,13,02,04,334,,10,73,300,39,12,26,112,32,15,09,090,15*74
$GPGSV,4,2,13,18,04,184,22,21,14,320,18,23,62,145,40,24,44,056,39*7D
$GPGSV,4,3,13,25,17,150,27,28,16,218,30,32,48,282,38,46,12,248,*78
$GPGSV,4,4,13,48,15,245,32*41
$GPGLL,4505.93079,N,06839.66105,W,180446.00,A,D*71
$RDENS,6227,5068468,PC
$GPRMC,180447.00,A,4505.93100,N,06839.66104,W,0.749,5.41,180924,,,D*75
$GPVTG,5.41,T,,M,0.749,N,1.388,K,D*30
$GPGGA,180447.00,4505.93100,N,06839.66104,W,2,08,1.23,36.0,M,-29.0,M,,0000*56
$GPGSA,A,3,24,12,15,25,23,10,28,32,,,,,2.06,1.23,1.65*09
$GPGSV,4,1,13,02,04,334,,10,73,300,39,12,26,112,32,15,09,090,15*74
$GPGSV,4,2,13,18,04,184,22,21,14,320,20,23,62,145,40,24,44,056,39*76
$GPGSV,4,3,13,25,17,150,27,28,16,218,29,32,48,282,38,46,12,248,*70
$GPGSV,4,4,13,48,15,245,32*41
$GPGLL,4505.93100,N,06839.66104,W,180447.00,A,D*7E
$RDENS,6228,5068547,PC
$GPRMC,180448.00,A,4505.93121,N,06839.66104,W,0.724,4.51,180924,,,D*72
$GPVTG,4.51,T,,M,0.724,N,1.341,K,D*3E
$GPGGA,180448.00,4505.93121,N,06839.66104,W,2,09,0.89,35.9,M,-29.0,M,,0000*50
$GPGSA,A,3,24,12,15,25,21,23,10,28,32,,,,1.51,0.89,1.21*0A
$GPGSV,4,1,13,02,04,334,,10,73,300,40,12,26,112,30,15,09,090,15*78
$GPGSV,4,2,13,18,04,184,23,21,14,320,20,23,62,145,40,24,44,056,39*77
$GPGSV,4,3,13,25,17,150,26,28,16,218,28,32,48,282,37,46,12,248,*7F
$GPGSV,4,4,13,48,15,245,32*41
$GPGLL,4505.93121,N,06839.66104,W,180448.00,A,D*72
$RDENS,6229,5068626,PC
$RDENS,6230,5068705,PC
$GPRMC,180449.00,A,4505.93144,N,06839.66105,W,0.796,2.49,180924,,,D*77
$GPVTG,2.49,T,,M,0.796,N,1.474,K,D*39
$GPGGA,180449.00,4505.93144,N,06839.66105,W,2,09,0.89,36.0,M,-29.0,M,,0000*59
$GPGSA,A,3,24,12,15,25,21,23,10,28,32,,,,1.51,0.89,1.21*0A
$GPGSV,4,1,13,02,04,334,,10,73,300,40,12,26,112,30,15,09,090,15*78
$GPGSV,4,2,13,18,04,184,22,21,14,320,21,23,62,145,39,24,44,056,39*79
$GPGSV,4,3,13,25,17,150,25,28,16,218,28,32,48,282,37,46,12,248,*7C
$GPGSV,4,4,13,48,15,245,32*41
$GPGLL,4505.93144,N,06839.66105,W,180449.00,A,D*71
$RDENS,6231,5068783,PC
$GPRMC,180450.00,A,4505.93166,N,06839.66104,W,0.773,2.37,180924,,,D*7C
$GPVTG,2.37,T,,M,0.773,N,1.432,K,D*39
$GPGGA,180450.00,4505.93166,N,06839.66104,W,2,09,0.89,36.0,M,-29.0,M,,0000*50
$GPGSA,A,3,24,12,15,25,21,23,10,28,32,,,,1.51,0.89,1.21*0A
$GPGSV,4,1,13,02,04,334,,10,73,300,40,12,26,112,29,15,09,090,10*75
$GPGSV,4,2,13,18,04,184,23,21,14,320,21,23,62,145,39,24,44,056,39*78
$GPGSV,4,3,13,25,17,150,26,28,16,218,27,32,48,282,37,46,12,248,*70
$GPGSV,4,4,13,48,15,245,32*41
$GPGLL,4505.93166,N,06839.66104,W,180450.00,A,D*78
$RDENS,6232,5068862,PC
$GPRMC,180451.00,A,4505.93188,N,06839.66106,W,0.813,1.00,180924,,,D*71
$GPVTG,1.00,T,,M,0.813,N,1.506,K,D*31
$GPGGA,180451.00,4505.93188,N,06839.66106,W,2,09,0.89,36.1,M,-29.0,M,,0000*52
$GPGSA,A,3,24,12,15,25,21,23,10,28,32,,,,1.51,0.89,1.21*0A
$GPGSV,4,1,13,02,04,334,,10,73,300,40,12,26,112,30,15,09,090,10*7D
$GPGSV,4,2,13,18,04,184,23,21,14,320,21,23,62,145,40,24,44,056,39*76
$GPGSV,4,3,13,25,17,150,25,28,16,218,26,32,48,282,37,46,12,248,*72
$GPGSV,4,4,13,48,15,245,32*41
$GPGLL,4505.93188,N,06839.66106,W,180451.00,A,D*7B
$RDENS,6233,5068941,PC
$RDENS,6234,5069020,PC
$GPRMC,180452.00,A,4505.93208,N,06839.66109,W,0.792,358.11,180924,,,D*7F
$GPVTG,358.11,T,,M,0.792,N,1.467,K,D*3E
$GPGGA,180452.00,4505.93208,N,06839.66109,W,2,09,0.89,36.1,M,-29.0,M,,0000*55
$GPGSA,A,3,24,12,15,25,21,23,10,28,32,,,,1.51,0.89,1.22*09
$GPGSV,4,1,13,02,04,334,,10,73,300,40,12,26,112,30,15,09,090,10*7D
$GPGSV,4,2,13,18,04,184,24,21,14,320,22,23,62,145,40,24,44,056,39*72
$GPGSV,4,3,13,25,17,150,24,28,16,218,26,32,48,282,37,46,12,248,*73
$GPGSV,4,4,13,48,15,245,33*40
$GPGLL,4505.93208,N,06839.66109,W,180452.00,A,D*7C
$RDENS,6235,5069098,PC
$GPRMC,180453.00,A,4505.93229,N,06839.66113,W,0.786,357.16,180924,,,D*7B
$GPVTG,357.16,T,,M,0.786,N,1.456,K,D*31
$GPGGA,180453.00,4505.93229,N,06839.66113,W,2,09,0.89,36.1,M,-29.0,M,,0000*5C
$GPGSA,A,3,24,12,15,25,21,23,10,28,32,,,,1.51,0.89,1.22*09
$GPGSV,4,1,13,02,04,334,,10,73,300,41,12,26,112,29,15,09,090,10*74
$GPGSV,4,2,13,18,04,184,25,21,14,320,23,23,62,145,39,24,44,056,39*7C
$GPGSV,4,3,13,25,17,150,25,28,16,218,26,32,48,282,37,46,12,248,*72
$GPGSV,4,4,13,48,15,245,33*40
$GPGLL,4505.93229,N,06839.66113,W,180453.00,A,D*75
$RDENS,6236,5069177,PC
$GPRMC,180454.00,A,4505.93252,N,06839.66115,W,0.761,358.56,180924,,,D*74
$GPVTG,358.56,T,,M,0.761,N,1.409,K,D*39
$GPGGA,180454.00,4505.93252,N,06839.66115,W,2,09,0.89,36.1,M,-29.0,M,,0000*51
$GPGSA,A,3,24,12,15,25,21,23,10,28,32,,,,1.51,0.89,1.22*09
$GPGSV,4,1,13,02,04,334,,10,73,300,40,12,26,112,31,15,09,090,10*7C
$GPGSV,4,2,13,18,04,184,27,21,14,320,22,23,62,145,40,24,44,056,40*7F
$GPGSV,4,3,13,25,17,150,26,28,16,218,25,32,48,282,37,46,12,248,*72
$GPGSV,4,4,13,48,15,245,32*41
$GPGLL,4505.93252,N,06839.66115,W,180454.00,A,D*78
$RDENS,6237,5069256,PC
$GPRMC,180455.00,A,4505.93273,N,06839.66119,W,0.710,357.40,180924,,,D*74
$GPVTG,357.40,T,,M,0.710,N,1.316,K,D*3E
$GPGGA,180455.00,4505.93273,N,06839.66119,W,2,09,0.89,36.1,M,-29.0,M,,0000*5F
$GPGSA,A,3,24,12,15,25,21,23,10,28,32,,,,1.51,0.89,1.22*09
$GPGSV,4,1,13,02,04,334,,10,73,300,40,12,26,112,34,15,09,090,10*79
$GPGSV,4,2,13,18,04,184,27,21,14,320,22,23,62,145,40,24,44,056,40*7F
$GPGSV,4,3,13,25,17,150,25,28,16,218,26,32,48,282,37,46,12,248,*72
$GPGSV,4,4,13,48,15,245,31*42
$GPGLL,4505.93273,N,06839.66119,W,180455.00,A,D*76
$RDENS,6238,5069334,PC
$RDENS,6239,5069413,PC
$GPRMC,180456.00,A,4505.93296,N,06839.66125,W,0.698,358.34,180924,,,D*7E
$GPVTG,358.34,T,,M,0.698,N,1.292,K,D*3E
$GPGGA,180456.00,4505.93296,N,06839.66125,W,2,08,0.98,36.2,M,-29.0,M,,0000*5A
$GPGSA,A,3,24,12,25,21,23,10,28,32,,,,,1.69,0.98,1.38*0D
$GPGSV,4,1,13,02,04,334,,10,73,300,39,12,26,112,34,15,09,090,*76
$GPGSV,4,2,13,18,04,184,26,21,14,320,20,23,62,145,40,24,44,056,40*7C
$GPGSV,4,3,13,25,17,150,25,28,16,218,28,32,48,282,38,46,12,248,*73
$GPGSV,4,4,13,48,15,245,32*41
$GPGLL,4505.93296,N,06839.66125,W,180456.00,A,D*71
$RDENS,6240,5069492,PC
$GPRMC,180457.00,A,4505.93316,N,06839.66131,W,0.634,357.14,180924,,,D*78
$GPVTG,357.14,T,,M,0.634,N,1.174,K,D*3E
$GPGGA,180457.00,4505.93316,N,06839.66131,W,2,09,0.92,36.1,M,-29.0,M,,0000*5F
$GPGSA,A,3,24,12,25,21,23,10,28,32,48,,,,1.62,0.92,1.34*0C
$GPGSV,4,1,13,02,04,334,,10,73,300,39,12,26,112,33,15,09,090,*71
$GPGSV,4,2,13,18,04,184,25,21,14,320,17,23,62,145,40,24,44,056,40*7B
$GPGSV,4,3,13,25,17,150,25,28,16,218,29,32,48,282,38,46,12,248,*72
$GPGSV,4,4,13,48,15,245,32*41
$GPGLL,4505.93316,N,06839.66131,W,180457.00,A,D*7C
$RDENS,6241,5069571,PC
$GPRMC,180458.00,A,4505.93335,N,06839.66135,W,0.679,354.19,180924,,,D*75
$GPVTG,354.19,T,,M,0.679,N,1.257,K,D*3B
$GPGGA,180458.00,4505.93335,N,06839.66135,W,2,09,0.92,36.0,M,-29.0,M,,0000*54
$GPGSA,A,3,24,12,25,21,23,10,28,32,48,,,,1.62,0.92,1.34*0C
$GPGSV,4,1,13,02,04,334,,10,73,300,39,12,26,112,31,15,09,090,*73
$GPGSV,4,2,13,18,04,184,25,21,14,320,16,23,62,145,40,24,44,056,39*74
$GPGSV,4,3,13,25,17,150,24,28,16,218,29,32,48,282,39,46,12,248,*72
$GPGSV,4,4,13,48,15,245,34*47
$GPGLL,4505.93335,N,06839.66135,W,180458.00,A,D*76
$RDENS,6242,5069649,PC
$GPRMC,180459.00,A,4505.93356,N,06839.66141,W,0.719,351.70,180924,,,D*7F
$GPVTG,351.70,T,,M,0.719,N,1.331,K,D*37
$GPGGA,180459.00,4505.93356,N,06839.66141,W,2,09,0.92,35.9,M,-29.0,M,,0000*59
$GPGSA,A,3,24,12,25,21,23,10,28,32,48,,,,1.62,0.92,1.34*0C
$GPGSV,4,1,13,02,04,334,,10,73,300,39,12,26,112,31,15,09,090,*73
$GPGSV,4,2,13,18,04,184,24,21,14,320,17,23,62,145,40,24,44,056,39*74
$GPGSV,4,3,13,25,17,150,24,28,16,218,30,32,48,282,38,46,12,248,*7B
$GPGSV,4,4,13,48,15,245,34*47
$GPGLL,4505.93356,N,06839.66141,W,180459.00,A,D*71
$RDENS,6243,5069728,PC
$RDENS,6244,5069807,PC
$GPRMC,180500.00,A,4505.93376,N,06839.66146,W,0.709,350.60,180924,,,D*76
$GPVTG,350.60,T,,M,0.709,N,1.313,K,D*36
$GPGGA,180500.00,4505.93376,N,06839.66146,W,2,09,0.92,35.9,M,-29.0,M,,0000*51
$GPGSA,A,3,24,12,25,21,23,10,28,32,48,,,,1.62,0.92,1.34*0C
$GPGSV,4,1,13,02,04,334,,10,73,300,40,12,26,112,30,15,09,090,*7C
$GPGSV,4,2,13,18,04,184,23,21,14,320,20,23,62,145,40,24,44,056,40*79
$GPGSV,4,3,13,25,17,150,24,28,16,218,29,32,48,282,38,46,12,248,*73
$GPGSV,4,4,13,48,15,245,33*40
$GPGLL,4505.93376,N,06839.66146,W,180500.00,A,D*79
$RDENS,6245,5069886,PC
$GPRMC,180501.00,A,4505.93396,N,06839.66150,W,0.742,349.65,180924,,,D*7C
$GPVTG,349.65,T,,M,0.742,N,1.374,K,D*35
$GPGGA,180501.00,4505.93396,N,06839.66150,W,2,09,0.92,35.8,M,-29.0,M,,0000*58
$GPGSA,A,3,24,12,25,21,23,10,28,32,48,,,,1.62,0.92,1.34*0C
$GPGSV,4,1,13,02,04,334,,10,73,300,40,12,26,112,30,15,09,090,*7C
$GPGSV,4,2,13,18,04,184,26,21,14,320,23,23,62,145,39,24,44,056,40*71
$GPGSV,4,3,13,25,17,150,25,28,16,218,29,32,48,282,37,46,12,248,*7D
$GPGSV,4,4,13,48,15,245,33*40
$GPGLL,4505.93396,N,06839.66150,W,180501.00,A,D*71
$RDENS,6246,5069964,PC
$GPRMC,180502.00,A,4505.93417,N,06839.66153,W,0.662,351.52,180924,,,D*7C
$GPVTG,351.52,T,,M,0.662,N,1.226,K,D*3D
$GPGGA,180502.00,4505.93417,N,06839.66153,W,2,09,0.92,35.8,M,-29.0,M,,0000*56
$GPGSA,A,3,24,12,25,21,23,10,28,32,48,,,,1.62,0.92,1.34*0C
$GPGSV,4,1,13,02,04,334,,10,73,299,40,12,26,112,30,15,09,090,*7D
$GPGSV,4,2,13,18,04,184,27,21,14,320,22,23,62,145,40,24,44,056,39*71
$GPGSV,4,3,13,25,17,150,27,28,16,218,28,32,48,282,37,46,12,248,*7E
$GPGSV,4,4,13,48,15,245,33*40
$GPGLL,4505.93417,N,06839.66153,W,180502.00,A,D*7F
$RDENS,6247,5070043,PC
$RDENS,6248,5070122,PC
$GPRMC,180503.00,A,4505.93438,N,06839.66154,W,0.736,354.84,180924,,,D*79
$GPVTG,354.84,T,,M,0.736,N,1.362,K,D*32
$GPGGA,180503.00,4505.93438,N,06839.66154,W,2,09,0.92,35.8,M,-29.0,M,,0000*5D
$GPGSA,A,3,24,12,25,21,23,10,28,32,48,,,,1.62,0.92,1.34*0C
$GPGSV,4,1,13,02,04,334,,10,73,299,41,12,26,112,31,15,09,090,*7D
$GPGSV,4,2,13,18,04,184,28,21,14,320,20,23,62,145,40,24,44,056,39*7C
$GPGSV,4,3,13,25,17,150,27,28,16,218,27,32,48,282,37,46,12,248,*71
$GPGSV,4,4,13,48,15,245,32*41
$GPGLL,4505.93438,N,06839.66154,W,180503.00,A,D*74
$RDENS,6249,5070200,PC
$GPRMC,180504.00,A,4505.93458,N,06839.66158,W,0.714,354.52,180924,,,D*7F
$GPVTG,354.52,T,,M,0.714,N,1.322,K,D*3D
$GPGGA,180504.00,4505.93458,N,06839.66158,W,2,09,0.92,35.7,M,-29.0,M,,0000*5F
$GPGSA,A,3,24,12,25,21,23,10,28,32,48,,,,1.62,0.92,1.34*0C
$GPGSV,4,1,13,02,04,334,,10,73,299,41,12,26,111,31,15,09,090,*7E
$GPGSV,4,2,13,18,04,184,27,21,14,320,18,23,62,145,40,24,44,056,40*76
$GPGSV,4,3,13,25,17,150,27,28,16,218,27,32,48,282,37,46,12,248,*71
$GPGSV,4,4,13,48,15,245,32*41
$GPGLL,4505.93458,N,06839.66158,W,180504.00,A,D*79
$RDENS,6250,5070280,PC
$GPRMC,180505.00,A,4505.93477,N,06839.66160,W,0.711,353.50,180924,,,D*78
$GPVTG,353.50,T,,M,0.711,N,1.316,K,D*3A
$GPGGA,180505.00,4505.93477,N,06839.66160,W,2,09,0.92,35.7,M,-29.0,M,,0000*58
$GPGSA,A,3,24,12,25,21,23,10,28,32,48,,,,1.62,0.92,1.34*0C
$GPGSV,4,1,13,02,04,334,,10,73,299,41,12,26,111,31,15,09,090,*7E
$GPGSV,4,2,13,18,04,184,27,21,14,320,19,23,62,145,40,24,44,056,40*77
$GPGSV,4,3,13,25,17,150,27,28,16,218,27,32,48,282,36,46,12,248,34*77
$GPGSV,4,4,13,48,15,245,33*40
$GPGLL,4505.93477,N,06839.66160,W,180505.00,A,D*7E
$RDENS,6251,5070358,PC
$GPRMC,180506.00,A,4505.93493,N,06839.66165,W,0.643,350.72,180924,,,D*71
$GPVTG,350.72,T,,M,0.643,N,1.191,K,D*32
$GPGGA,180506.00,4505.93493,N,06839.66165,W,2,09,0.92,35.6,M,-29.0,M,,0000*55
$GPGSA,A,3,24,12,25,21,23,10,28,32,48,,,,1.62,0.92,1.34*0C
$GPGSV,4,1,13,02,04,334,,10,73,299,41,12,26,111,31,15,09,090,*7E
$GPGSV,4,2,13,18,04,184,25,21,14,320,22,23,62,145,40,24,44,056,40*7D
$GPGSV,4,3,13,25,17,150,27,28,16,218,30,32,48,282,36,46,12,248,34*71
$GPGSV,4,4,13,48,15,245,34*47
$GPGLL,4505.93493,N,06839.66165,W,180506.00,A,D*72
$RDENS,6252,5070437,PC
$RDENS,6253,5070515,PC
$GPRMC,180507.00,A,4505.93511,N,06839.66174,W,0.751,345.80,180924,,,D*70
$GPVTG,345.80,T,,M,0.751,N,1.391,K,D*3B
$GPGGA,180507.00,4505.93511,N,06839.66174,W,2,09,0.92,35.6,M,-29.0,M,,0000*5F
$GPGSA,A,3,24,12,25,21,23,10,28,32,48,,,,1.62,0.92,1.34*0C
$GPGSV,4,1,13,02,04,334,,10,73,299,40,12,26,111,31,15,09,090,*7F
$GPGSV,4,2,13,18,04,184,23,21,14,320,25,23,62,145,40,24,44,056,39*72
$GPGSV,4,3,13,25,17,150,27,28,16,218,31,32,48,282,37,46,12,248,33*76
$GPGSV,4,4,13,48,15,245,33*40
$GPGLL,4505.93511,N,06839.66174,W,180507.00,A,D*78
$RDENS,6254,5070594,PC
$GPRMC,180508.00,A,4505.93529,N,06839.66184,W,0.737,342.60,180924,,,D*72
$GPVTG,342.60,T,,M,0.737,N,1.364,K,D*38
$GPGGA,180508.00,4505.93529,N,06839.66184,W,2,09,0.92,35.6,M,-29.0,M,,0000*54
$GPGSA,A,3,24,12,25,21,23,10,28,32,48,,,,1.62,0.92,1.34*0C
$GPGSV,4,1,13,02,04,334,,10,73,299,41,12,26,111,32,15,09,090,*7D
$GPGSV,4,2,13,18,04,184,22,21,14,320,24,23,62,145,40,24,44,056,39*72
$GPGSV,4,3,13,25,17,150,28,28,16,218,31,32,48,282,37,46,12,248,33*79
$GPGSV,4,4,13,48,15,245,33*40
$GPGLL,4505.93529,N,06839.66184,W,180508.00,A,D*73
$RDENS,6255,5070673,PC
$GPRMC,180509.00,A,4505.93547,N,06839.66194,W,0.777,340.83,180924,,,D*71
$GPVTG,340.83,T,,M,0.777,N,1.440,K,D*32
$GPGGA,180509.00,4505.93547,N,06839.66194,W,2,09,0.92,35.5,M,-29.0,M,,0000*5F
$GPGSA,A,3,24,12,25,21,23,10,28,32,48,,,,1.62,0.92,1.34*0C
$GPGSV,4,1,13,02,04,334,,10,73,299,41,12,26,111,31,15,09,090,*7E
$GPGSV,4,2,13,18,04,184,24,21,14,320,24,23,62,145,40,24,44,056,39*74
$GPGSV,4,3,13,25,17,150,28,28,16,218,29,32,48,282,36,46,12,248,32*70
$GPGSV,4,4,13,48,15,245,34*47
$GPGLL,4505.93547,N,06839.66194,W,180509.00,A,D*7B
$RDENS,6256,5070752,PC
$GPRMC,180510.00,A,4505.93568,N,06839.66206,W,0.833,341.18,180924,,,D*70
$GPVTG,341.18,T,,M,0.833,N,1.543,K,D*3C
$GPGGA,180510.00,4505.93568,N,06839.66206,W,2,09,0.92,35.6,M,-29.0,M,,0000*51
$GPGSA,A,3,24,12,25,21,23,10,28,32,48,,,,1.62,0.92,1.34*0C
$GPGSV,4,1,13,02,04,334,,10,73,299,40,12,26,111,30,15,09,090,*7E
$GPGSV,4,2,13,18,04,184,25,21,14,320,22,23,62,145,40,24,44,056,39*73
$GPGSV,4,3,13,25,17,150,27,28,16,218,29,32,48,282,37,46,12,248,33*7F
$GPGSV,4,4,13,48,15,245,33*40
$GPGLL,4505.93568,N,06839.66206,W,180510.00,A,D*76
$RDENS,6257,5070830,PC
$RDENS,6258,5070910,PC
$GPRMC,180511.00,A,4505.93587,N,06839.66214,W,0.716,342.89,180924,,,D*70
$GPVTG,342.89,T,,M,0.716,N,1.326,K,D*3A
$GPGGA,180511.00,4505.93587,N,06839.66214,W,2,09,0.92,35.5,M,-29.0,M,,0000*51
$GPGSA,A,3,24,12,25,21,23,10,28,32,48,,,,1.62,0.92,1.34*0C
$GPGSV,4,1,13,02,04,334,,10,73,299,40,12,26,111,30,15,09,090,*7E
$GPGSV,4,2,13,18,04,184,26,21,14,320,21,23,62,145,40,24,44,056,38*72
$GPGSV,4,3,13,25,17,150,26,28,16,218,27,32,48,282,37,46,12,248,33*70
$GPGSV,4,4,13,48,15,245,31*42
$GPGLL,4505.93587,N,06839.66214,W,180511.00,A,D*75
$RDENS,6259,5070988,PC
$GPRMC,180512.00,A,4505.93608,N,06839.66221,W,0.810,347.91,180924,,,D*74
$GPVTG,347.91,T,,M,0.810,N,1.499,K,D*3C
$GPGGA,180512.00,4505.93608,N,06839.66221,W,2,09,0.92,35.6,M,-29.0,M,,0000*53
$GPGSA,A,3,24,12,25,21,23,10,28,32,48,,,,1.62,0.92,1.34*0C
$GPGSV,4,1,13,02,04,334,,10,73,299,40,12,26,111,34,15,09,090,*7A
$GPGSV,4,2,13,18,04,184,25,21,14,320,20,23,62,145,40,24,44,056,39*71
$GPGSV,4,3,13,25,17,150,26,28,16,218,30,32,48,282,36,46,12,248,34*70
$GPGSV,4,4,13,48,15,245,31*42
$GPGLL,4505.93608,N,06839.66221,W,180512.00,A,D*74
$RDENS,6260,5071066,PC
$GPRMC,180513.00,A,4505.93631,N,06839.66225,W,0.724,350.91,180924,,,D*75
$GPVTG,350.91,T,,M,0.724,N,1.340,K,D*31
$GPGGA,180513.00,4505.93631,N,06839.66225,W,2,09,0.92,35.5,M,-29.0,M,,0000*5F
$GPGSA,A,3,24,12,25,21,23,10,28,32,48,,,,1.62,0.92,1.34*0C
$GPGSV,4,1,13,02,04,334,,10,73,299,41,12,26,111,33,15,09,090,13*7E
$GPGSV,4,2,13,18,04,184,26,21,15,320,21,23,62,145,39,24,44,056,39*7C
$GPGSV,4,3,13,25,17,150,25,28,16,218,29,32,48,282,37,46,12,248,35*7B
$GPGSV,4,4,13,48,15,245,32*41
$GPGLL,4505.93631,N,06839.66225,W,180513.00,A,D*7B
$RDENS,6261,5071145,PC
$RDENS,6262,5071224,PC
$GPRMC,180514.00,A,4505.93657,N,06839.66233,W,0.852,350.34,180924,,,D*74
$GPVTG,350.34,T,,M,0.852,N,1.578,K,D*3D
$GPGGA,180514.00,4505.93657,N,06839.66233,W,2,09,0.92,35.5,M,-29.0,M,,0000*5F
$GPGSA,A,3,24,12,25,21,23,10,28,32,48,,,,1.62,0.92,1.34*0C
$GPGSV,4,1,13,02,04,334,,10,73,299,40,12,26,111,33,15,09,090,12*7E
$GPGSV,4,2,13,18,04,184,26,21,15,320,22,23,62,145,39,24,44,056,39*7F
$GPGSV,4,3,13,25,17,150,25,28,16,218,29,32,48,282,37,46,12,248,35*7B
$GPGSV,4,4,13,48,15,245,33*40
$GPGLL,4505.93657,N,06839.66233,W,180514.00,A,D*7B
$RDENS,6263,5071303,PC
$GPRMC,180515.00,A,4505.93682,N,06839.66239,W,0.857,352.00,180924,,,D*77
$GPVTG,352.00,T,,M,0.857,N,1.588,K,D*32
$GPGGA,180515.00,4505.93682,N,06839.66239,W,2,09,0.92,35.5,M,-29.0,M,,0000*5C
$GPGSA,A,3,24,12,25,21,23,10,28,32,48,,,,1.62,0.92,1.34*0C
$GPGSV,4,1,13,02,04,334,,10,73,299,40,12,26,111,33,15,09,090,09*74
$GPGSV,4,2,13,18,04,184,28,21,15,320,21,23,62,145,39,24,44,056,39*72
$GPGSV,4,3,13,25,17,150,24,28,16,218,30,32,48,282,37,46,12,248,35*72
$GPGSV,4,4,13,48,15,245,33*40
$GPGLL,4505.93682,N,06839.66239,W,180515.00,A,D*78
$RDENS,6264,5071382,PC
$GPRMC,180516.00,A,4505.93707,N,06839.66241,W,0.839,353.47,180924,,,D*7D
$GPVTG,353.47,T,,M,0.839,N,1.555,K,D*38
$GPGGA,180516.00,4505.93707,N,06839.66241,W,2,09,0.92,35.4,M,-29.0,M,,0000*5D
$GPGSA,A,3,24,12,25,21,23,10,28,32,48,,,,1.62,0.92,1.34*0C
$GPGSV,4,1,13,02,04,334,,10,73,299,40,12,26,111,34,15,09,090,08*72
$GPGSV,4,2,13,18,04,184,27,21,15,320,19,23,62,145,39,24,43,056,39*71
$GPGSV,4,3,13,25,17,150,26,28,16,218,31,32,48,282,38,46,12,248,35*7E
$GPGSV,4,4,13,48,15,245,32*41
$GPGLL,4505.93707,N,06839.66241,W,180516.00,A,D*78
$RDENS,6265,5071460,PC
$GPRMC,180517.00,A,4505.93731,N,06839.66243,W,0.807,353.26,180924,,,D*71
$GPVTG,353.26,T,,M,0.807,N,1.494,K,D*3E
$GPGGA,180517.00,4505.93731,N,06839.66243,W,2,09,0.92,35.4,M,-29.0,M,,0000*5B
$GPGSA,A,3,24,12,25,21,23,10,28,32,48,,,,1.62,0.92,1.34*0C
$GPGSV,4,1,13,02,04,334,,10,73,299,40,12,26,111,35,15,09,090,08*73
$GPGSV,4,2,13,18,04,184,26,21,15,320,18,23,62,145,40,24,43,056,39*7F
$GPGSV,4,3,13,25,17,149,26,28,16,218,31,32,48,282,38,46,12,248,34*77
$GPGSV,4,4,13,48,15,245,32*41
$GPGLL,4505.93731,N,06839.66243,W,180517.00,A,D*7E
$RDENS,6266,5071539,PC
$RDENS,6267,5071617,PC
$GPRMC,180518.00,A,4505.93753,N,06839.66246,W,0.789,354.26,180924,,,D*71
$GPVTG,354.26,T,,M,0.789,N,1.462,K,D*39
$GPGGA,180518.00,4505.93753,N,06839.66246,W,2,09,0.92,35.3,M,-29.0,M,,0000*52
$GPGSA,A,3,24,12,25,21,23,10,28,32,48,,,,1.62,0.92,1.34*0C
$GPGSV,4,1,13,02,04,334,,10,73,299,41,12,26,111,35,15,09,090,08*72
$GPGSV,4,2,13,18,04,184,28,21,15,320,17,23,62,145,40,24,43,056,39*7E
$GPGSV,4,3,13,25,17,149,25,28,16,218,31,32,48,282,38,46,12,248,34*74
$GPGSV,4,4,13,48,15,245,32*41
$GPGLL,4505.93753,N,06839.66246,W,180518.00,A,D*70
$RDENS,6268,5071696,PC
$GPRMC,180519.00,A,4505.93774,N,06839.66246,W,0.814,355.94,180924,,,D*76
$GPVTG,355.94,T,,M,0.814,N,1.508,K,D*37
$GPGGA,180519.00,4505.93774,N,06839.66246,W,2,09,0.92,35.3,M,-29.0,M,,0000*56
$GPGSA,A,3,24,12,25,21,23,10,28,32,48,,,,1.62,0.92,1.34*0C
$GPGSV,4,1,13,02,04,334,,10,73,299,40,12,26,111,35,15,09,090,08*73
$GPGSV,4,2,13,18,04,184,29,21,15,320,17,23,62,145,40,24,43,056,39*7F
$GPGSV,4,3,13,25,17,149,24,28,16,218,30,32,48,282,38,46,12,248,34*74
$GPGSV,4,4,13,48,15,245,32*41
$GPGLL,4505.93774,N,06839.66246,W,180519.00,A,D*74
$RDENS,6269,5071775,PC
$GPRMC,180520.00,A,4505.93798,N,06839.66247,W,0.871,357.38,180924,,,D*78
$GPVTG,357.38,T,,M,0.871,N,1.613,K,D*39
$GPGGA,180520.00,4505.93798,N,06839.66247,W,2,09,0.92,35.3,M,-29.0,M,,0000*5F
$GPGSA,A,3,24,12,25,21,23,10,28,32,48,,,,1.62,0.92,1.34*0C
$GPGSV,4,1,13,02,04,334,,10,73,299,40,12,26,111,35,15,09,090,*7B
$GPGSV,4,2,13,18,04,184,28,21,15,320,19,23,62,145,40,24,43,056,39*70
$GPGSV,4,3,13,25,17,149,23,28,17,218,30,32,48,282,39,46,12,248,34*73
$GPGSV,4,4,13,48,15,245,33*40
$GPGLL,4505.93798,N,06839.66247,W,180520.00,A,D*7D
$RDENS,6270,5071854,PC
$GPRMC,180521.00,A,4505.93821,N,06839.66246,W,0.785,358.95,180924,,,D*79
$GPVTG,358.95,T,,M,0.785,N,1.454,K,D*34
$GPGGA,180521.00,4505.93821,N,06839.66246,W,2,09,0.92,35.3,M,-29.0,M,,0000*52
$GPGSA,A,3,24,12,25,21,23,10,28,32,48,,,,1.62,0.92,1.34*0C
$GPGSV,4,1,13,02,04,334,,10,73,299,40,12,26,111,34,15,09,090,*7A
$GPGSV,4,2,13,18,04,184,29,21,15,320,21,23,62,145,40,24,43,056,39*7A
$GPGSV,4,3,13,25,17,149,23,28,17,218,29,32,48,282,39,46,12,248,33*7C
$GPGSV,4,4,13,48,15,245,33*40
$GPGLL,4505.93821,N,06839.66246,W,180521.00,A,D*70
$RDENS,6271,5071932,PC
$RDENS,6272,5072011,PC
$GPRMC,180522.00,A,4505.93844,N,06839.66245,W,0.777,1.33,180924,,,D*74
$GPVTG,1.33,T,,M,0.777,N,1.440,K,D*3F
$GPGGA,180522.00,4505.93844,N,06839.66245,W,2,09,0.92,35.3,M,-29.0,M,,0000*51
$GPGSA,A,3,24,12,25,21,23,10,28,32,48,,,,1.62,0.92,1.34*0C
$GPGSV,4,1,13,02,04,334,,10,73,299,40,12,26,111,34,15,09,090,*7A
$GPGSV,4,2,13,18,04,184,28,21,15,320,22,23,62,145,40,24,43,056,38*79
$GPGSV,4,3,13,25,17,149,23,28,17,218,29,32,48,282,40,46,12,248,33*72
$GPGSV,4,4,13,48,15,245,33*40
$GPGLL,4505.93844,N,06839.66245,W,180522.00,A,D*73
$RDENS,6273,5072090,PC
$GPRMC,180523.00,A,4505.93870,N,06839.66244,W,0.863,1.85,180924,,,D*74
$GPVTG,1.85,T,,M,0.863,N,1.597,K,D*33
$GPGGA,180523.00,4505.93870,N,06839.66244,W,2,09,0.92,35.2,M,-29.0,M,,0000*57
$GPGSA,A,3,24,12,25,21,23,10,28,32,48,,,,1.62,0.92,1.34*0C
$GPGSV,4,1,13,02,04,334,,10,73,299,40,12,26,111,35,15,09,090,*7B
$GPGSV,4,2,13,18,04,184,27,21,15,320,22,23,62,145,40,24,43,056,39*77
$GPGSV,4,3,13,25,17,149,22,28,17,218,30,32,48,282,39,46,12,248,32*74
$GPGSV,4,4,13,48,15,245,32*41
$GPGLL,4505.93870,N,06839.66244,W,180523.00,A,D*74
$RDENS,6274,5072169,PC
$GPRMC,180524.00,A,4505.93897,N,06839.66245,W,0.813,0.40,180924,,,D*74
$GPVTG,0.40,T,,M,0.813,N,1.505,K,D*37
$GPGGA,180524.00,4505.93897,N,06839.66245,W,2,09,0.92,35.2,M,-29.0,M,,0000*58
$GPGSA,A,3,24,12,25,21,23,10,28,32,48,,,,1.63,0.92,1.34*0D
$GPGSV,4,1,13,02,04,334,,10,73,299,39,12,26,111,33,15,09,090,*73
$GPGSV,4,2,13,18,04,184,27,21,15,320,22,23,62,145,40,24,43,056,38*76
$GPGSV,4,3,13,25,17,149,23,28,17,218,30,32,48,283,39,46,12,248,33*75
$GPGSV,4,4,13,48,15,245,33*40
$GPGLL,4505.93897,N,06839.66245,W,180524.00,A,D*7B
$RDENS,6275,5072247,PC
$GPRMC,180525.00,A,4505.93923,N,06839.66243,W,0.837,0.75,180924,,,D*7D
$GPVTG,0.75,T,,M,0.837,N,1.550,K,D*37
$GPGGA,180525.00,4505.93923,N,06839.66243,W,2,09,0.92,35.1,M,-29.0,M,,0000*52
$GPGSA,A,3,24,12,25,21,23,10,28,32,48,,,,1.63,0.92,1.34*0D
$GPGSV,4,1,13,02,04,334,,10,73,299,39,12,26,111,33,15,09,090,07*74
$GPGSV,4,2,13,18,04,184,27,21,15,320,22,23,62,145,40,24,43,056,38*76
$GPGSV,4,3,13,25,17,149,25,28,17,218,31,32,48,283,39,46,12,248,33*72
$GPGSV,4,4,13,48,15,245,32*41
$GPGLL,4505.93923,N,06839.66243,W,180525.00,A,D*72
$RDENS,6276,5072325,PC
$RDENS,6277,5072405,PC
$GPRMC,180526.00,A,4505.93948,N,06839.66242,W,0.760,0.22,180924,,,D*7D
$GPVTG,0.22,T,,M,0.760,N,1.407,K,D*3B
$GPGGA,180526.00,4505.93948,N,06839.66242,W,2,09,0.92,35.1,M,-29.0,M,,0000*5D
$GPGSA,A,3,24,12,25,21,23,10,28,32,48,,,,1.63,0.92,1.34*0D
$GPGSV,4,1,13,02,04,334,,10,73,299,39,12,26,111,34,15,09,090,08*7C
$GPGSV,4,2,13,18,04,184,28,21,15,320,20,23,62,145,40,24,43,056,39*7A
$GPGSV,4,3,13,25,17,149,24,28,17,218,31,32,48,283,39,46,12,248,33*73
$GPGSV,4,4,13,48,15,245,32*41
$GPGLL,4505.93948,N,06839.66242,W,180526.00,A,D*7D
$RDENS,6278,5072484,PC
$GPRMC,180527.00,A,4505.93974,N,06839.66242,W,0.795,0.00,180924,,,D*79
$GPVTG,0.00,T,,M,0.795,N,1.473,K,D*32
$GPGGA,180527.00,4505.93974,N,06839.66242,W,2,09,0.92,35.0,M,-29.0,M,,0000*52
$GPGSA,A,3,24,12,25,21,23,10,28,32,48,,,,1.63,0.92,1.34*0D
$GPGSV,4,1,13,02,04,334,,10,73,299,41,12,26,111,35,15,09,090,10*7B
$GPGSV,4,2,13,18,04,184,28,21,15,320,19,23,62,145,40,24,43,056,39*70
$GPGSV,4,3,13,25,17,149,25,28,17,218,32,32,48,283,39,46,12,248,33*71
$GPGSV,4,4,13,48,15,245,33*40
$GPGLL,4505.93974,N,06839.66242,W,180527.00,A,D*73
$RDENS,6279,5072562,PC
$GPRMC,180528.00,A,4505.93997,N,06839.66243,W,0.830,359.52,180924,,,D*72
$GPVTG,359.52,T,,M,0.830,N,1.537,K,D*3B
$GPGGA,180528.00,4505.93997,N,06839.66243,W,2,09,0.92,35.0,M,-29.0,M,,0000*51
$GPGSA,A,3,24,12,25,21,23,10,28,32,48,,,,1.63,0.92,1.34*0D
$GPGSV,4,1,13,02,04,334,,10,73,299,40,12,26,111,35,15,09,090,10*7A
$GPGSV,4,2,13,18,04,184,28,21,15,320,18,23,62,145,39,24,43,056,39*7F
$GPGSV,4,3,13,25,17,149,25,28,17,218,31,32,48,283,39,46,12,248,33*72
$GPGSV,4,4,13,48,15,245,33*40
$GPGLL,4505.93997,N,06839.66243,W,180528.00,A,D*70
$RDENS,6280,5072641,PC
$RDENS,6281,5072719,PC
$GPRMC,180529.00,A,4505.94021,N,06839.66244,W,0.825,358.77,180924,,,D*75
$GPVTG,358.77,T,,M,0.825,N,1.528,K,D*37
$GPGGA,180529.00,4505.94021,N,06839.66244,W,2,09,0.92,35.0,M,-29.0,M,,0000*54
$GPGSA,A,3,24,12,25,21,23,10,28,32,48,,,,1.63,0.92,1.34*0D
$GPGSV,4,1,13,02,04,334,,10,73,299,40,12,26,111,35,15,09,090,11*7B
$GPGSV,4,2,13,18,04,184,29,21,15,320,19,23,62,145,39,24,43,056,39*7F
$GPGSV,4,3,13,25,17,149,24,28,17,218,31,32,48,283,39,46,12,248,33*73
$GPGSV,4,4,13,48,15,245,33*40
$GPGLL,4505.94021,N,06839.66244,W,180529.00,A,D*75
$RDENS,6282,5072798,PC
$GPRMC,180530.00,A,4505.94047,N,06839.66244,W,0.855,358.14,180924,,,D*7F
$GPVTG,358.14,T,,M,0.855,N,1.584,K,D*33
$GPGGA,180530.00,4505.94047,N,06839.66244,W,2,10,0.84,34.9,M,-29.0,M,,0000*5B
$GPGSA,A,3,24,12,15,25,21,23,10,28,32,48,,,1.43,0.84,1.16*0C
$GPGSV,4,1,13,02,04,334,,10,73,299,40,12,26,111,32,15,09,090,11*7C
$GPGSV,4,2,13,18,04,184,28,21,15,320,20,23,62,145,39,24,43,056,38*75
$GPGSV,4,3,13,25,17,149,25,28,17,218,31,32,48,283,39,46,12,248,33*72
$GPGSV,4,4,13,48,15,245,33*40
$GPGLL,4505.94047,N,06839.66244,W,180530.00,A,D*7D
$RDENS,6283,5072876,PC
$GPRMC,180531.00,A,4505.94073,N,06839.66245,W,0.849,359.36,180924,,,D*74
$GPVTG,359.36,T,,M,0.849,N,1.572,K,D*36
$GPGGA,180531.00,4505.94073,N,06839.66245,W,2,10,0.84,34.9,M,-29.0,M,,0000*5C
$GPGSA,A,3,24,12,15,25,21,23,10,28,32,48,,,1.43,0.84,1.16*0C
$GPGSV,4,1,13,02,04,334,,10,73,299,42,12,26,111,35,15,09,090,11*79
$GPGSV,4,2,13,18,04,184,25,21,15,320,20,23,62,145,40,24,43,056,38*76
$GPGSV,4,3,13,25,17,149,25,28,17,218,31,32,48,283,39,46,12,248,33*72
$GPGSV,4,4,13,48,15,245,32*41
$GPGLL,4505.94073,N,06839.66245,W,180531.00,A,D*7A
$RDENS,6284,5072956,PC
$GPRMC,180532.00,A,4505.94099,N,06839.66246,W,0.811,359.54,180924,,,D*79
$GPVTG,359.54,T,,M,0.811,N,1.502,K,D*38
$GPGGA,180532.00,4505.94099,N,06839.66246,W,2,09,0.92,34.9,M,-29.0,M,,0000*57
$GPGSA,A,3,24,12,25,21,23,10,28,32,48,,,,1.63,0.92,1.34*0D
$GPGSV,4,1,13,02,04,334,,10,73,299,35,12,26,111,35,15,09,090,*79
$GPGSV,4,2,13,18,04,184,26,21,15,320,19,23,62,145,37,24,43,056,38*7F
$GPGSV,4,3,13,25,17,149,24,28,17,218,32,32,48,283,32,46,12,248,34*7C
$GPGSV,4,4,13,48,15,245,32*41
$GPGLL,4505.94099,N,06839.66246,W,180532.00,A,D*7E
$RDENS,6285,5073035,PC
$RDENS,6286,5073113,PC
$GPRMC,180533.00,A,4505.94123,N,06839.66249,W,0.854,356.66,180924,,,D*78
$GPVTG,356.66,T,,M,0.854,N,1.582,K,D*3F
$GPGGA,180533.00,4505.94123,N,06839.66249,W,2,09,0.92,35.0,M,-29.0,M,,0000*51
$GPGSA,A,3,24,12,25,21,23,10,28,32,48,,,,1.63,0.92,1.34*0D
$GPGSV,4,1,13,02,04,334,,10,73,299,32,12,26,111,26,15,09,090,*7C
$GPGSV,4,2,13,18,04,184,24,21,15,320,21,23,62,145,34,24,43,056,38*75
$GPGSV,4,3,13,25,17,149,21,28,17,218,32,32,48,283,29,46,12,248,29*7F
$GPGSV,4,4,13,48,15,245,30*43
$GPGLL,4505.94123,N,06839.66249,W,180533.00,A,D*70
$RDENS,6287,5073191,PC
$GPRMC,180534.00,A,4505.94151,N,06839.66262,W,1.003,344.35,180924,,,D*7D
$GPVTG,344.35,T,,M,1.003,N,1.858,K,D*3B
$GPGGA,180534.00,4505.94151,N,06839.66262,W,2,09,0.92,34.8,M,-29.0,M,,0000*53
$GPGSA,A,3,24,12,25,21,23,10,28,32,48,,,,1.63,0.92,1.34*0D
$GPGSV,4,1,13,02,04,334,,10,73,299,27,12,26,111,30,15,09,090,*7F
$GPGSV,4,2,13,18,04,184,22,21,15,320,20,23,62,145,32,24,43,056,35*79
$GPGSV,4,3,13,25,17,149,19,28,17,218,30,32,48,283,30,46,12,248,*75
$GPGSV,4,4,13,48,15,245,26*44
$GPGLL,4505.94151,N,06839.66262,W,180534.00,A,D*7B
$RDENS,6288,5073271,PC
$GPRMC,180535.00,A,4505.94177,N,06839.66269,W,0.869,347.90,180924,,,D*7A
$GPVTG,347.90,T,,M,0.869,N,1.610,K,D*30
$GPGGA,180535.00,4505.94177,N,06839.66269,W,2,08,0.98,34.8,M,-29.0,M,,0000*56
$GPGSA,A,3,24,12,25,21,23,10,28,32,,,,,1.69,0.98,1.38*0D
$GPGSV,4,1,13,02,04,334,,10,73,299,27,12,26,111,29,15,09,090,*77
$GPGSV,4,2,13,18,04,184,21,21,15,320,20,23,62,145,32,24,43,056,35*7A
$GPGSV,4,3,13,25,17,149,19,28,17,218,29,32,48,283,30,46,12,248,*7D
$GPGSV,4,4,13,48,15,245,*40
$GPGLL,4505.94177,N,06839.66269,W,180535.00,A,D*75
$RDENS,6289,5073349,PC
$GPRMC,180536.00,A,4505.94200,N,06839.66268,W,0.672,,180924,,,D*68
$GPVTG,,T,,M,0.672,N,1.245,K,D*27
$GPGGA,180536.00,4505.94200,N,06839.66268,W,2,08,0.98,34.5,M,-29.0,M,,0000*5A
$GPGSA,A,3,24,12,25,21,23,10,28,32,,,,,1.69,0.98,1.38*0D
$GPGSV,4,1,13,02,04,334,,10,73,299,25,12,26,111,29,15,09,090,*75
$GPGSV,4,2,13,18,04,184,19,21,15,320,19,23,62,145,32,24,43,056,35*7B
$GPGSV,4,3,13,25,17,149,20,28,17,218,28,32,48,283,29,46,12,248,*7E
$GPGSV,4,4,13,48,15,245,*40
$GPGLL,4505.94200,N,06839.66268,W,180536.00,A,D*74
$RDENS,6290,5073427,PC
$RDENS,6291,5073506,PC
$GPRMC,180537.00,A,4505.94218,N,06839.66268,W,0.670,,180924,,,D*62
$GPVTG,,T,,M,0.670,N,1.240,K,D*20
$GPGGA,180537.00,4505.94218,N,06839.66268,W,2,08,0.98,34.5,M,-29.0,M,,0000*52
$GPGSA,A,3,24,12,25,21,23,10,28,32,,,,,1.69,0.98,1.38*0D
$GPGSV,4,1,13,02,04,334,,10,73,299,24,12,26,111,29,15,09,090,*74
$GPGSV,4,2,13,18,04,184,20,21,15,320,17,23,62,145,31,24,43,056,34*7D
$GPGSV,4,3,13,25,17,149,20,28,17,218,26,32,48,283,29,46,12,248,*70
$GPGSV,4,4,13,48,15,245,*40
$GPGLL,4505.94218,N,06839.66268,W,180537.00,A,D*7C
$RDENS,6292,5073585,PC
$GPRMC,180538.00,A,4505.94244,N,06839.66272,W,0.929,349.42,180924,,,D*7A
$GPVTG,349.42,T,,M,0.929,N,1.721,K,D*37
$GPGGA,180538.00,4505.94244,N,06839.66272,W,2,08,0.98,34.3,M,-29.0,M,,0000*59
$GPGSA,A,3,24,12,25,21,23,10,28,32,,,,,1.69,0.98,1.38*0D
$GPGSV,4,1,13,02,04,334,,10,73,299,22,12,26,111,28,15,09,090,*73
$GPGSV,4,2,13,18,04,184,19,21,15,320,16,23,62,145,31,24,43,056,34*76
$GPGSV,4,3,13,25,17,149,20,28,17,218,26,32,48,283,28,46,12,248,*71
$GPGSV,4,4,13,48,15,245,*40
$GPGLL,4505.94244,N,06839.66272,W,180538.00,A,D*71
$RDENS,6293,5073664,PC
$GPRMC,180539.00,A,4505.94271,N,06839.66277,W,0.854,,180924,,,D*65
$GPVTG,,T,,M,0.854,N,1.581,K,D*22
$GPGGA,180539.00,4505.94271,N,06839.66277,W,2,08,0.98,34.2,M,-29.0,M,,0000*5A
$GPGSA,A,3,24,12,25,21,23,10,28,32,,,,,1.69,0.98,1.38*0D
$GPGSV,4,1,13,02,04,334,,10,73,299,21,12,26,111,28,15,09,090,*70
$GPGSV,4,2,13,18,04,184,18,21,15,320,14,23,62,145,31,24,43,056,34*75
$GPGSV,4,3,13,25,17,149,19,28,17,218,25,32,48,283,28,46,12,248,*78
$GPGSV,4,4,13,48,15,245,*40
$GPGLL,4505.94271,N,06839.66277,W,180539.00,A,D*73
$RDENS,6294,5073743,PC
$RDENS,6295,5073821,PC
$GPRMC,180540.00,A,4505.94298,N,06839.66285,W,0.713,353.35,180924,,,D*70
$GPVTG,353.35,T,,M,0.713,N,1.320,K,D*3E
$GPGGA,180540.00,4505.94298,N,06839.66285,W,2,09,0.92,34.2,M,-29.0,M,,0000*55
$GPGSA,A,3,24,12,25,21,23,10,28,32,48,,,,1.63,0.92,1.34*0D
$GPGSV,4,1,13,02,04,334,,10,73,299,41,12,26,111,35,15,09,090,*7A
$GPGSV,4,2,13,18,04,184,20,21,15,320,15,23,62,145,40,24,43,056,38*75
$GPGSV,4,3,13,25,17,149,19,28,17,218,31,32,48,283,39,46,12,248,*7D
$GPGSV,4,4,13,48,15,245,31*42
$GPGLL,4505.94298,N,06839.66285,W,180540.00,A,D*77
$RDENS,6296,5073899,PC
$GPRMC,180541.00,A,4505.94319,N,06839.66280,W,0.877,358.67,180924,,,D*7D
$GPVTG,358.67,T,,M,0.877,N,1.624,K,D*3E
$GPGGA,180541.00,4505.94319,N,06839.66280,W,2,09,0.92,34.2,M,-29.0,M,,0000*59
$GPGSA,A,3,24,12,25,21,23,10,28,32,48,,,,1.63,0.92,1.34*0D
$GPGSV,4,1,13,02,04,334,,10,73,299,41,12,26,111,33,15,09,090,*7C
$GPGSV,4,2,13,18,04,184,20,21,15,320,19,23,62,145,39,24,43,056,37*78
$GPGSV,4,3,13,25,17,149,21,28,17,218,31,32,48,283,38,46,12,248,*77
$GPGSV,4,4,13,48,15,245,32*41
$GPGLL,4505.94319,N,06839.66280,W,180541.00,A,D*7B
$RDENS,6297,5073979,PC
$GPRMC,180542.00,A,4505.94349,N,06839.66283,W,0.791,356.57,180924,,,D*72
$GPVTG,356.57,T,,M,0.791,N,1.465,K,D*33
$GPGGA,180542.00,4505.94349,N,06839.66283,W,2,09,0.92,34.1,M,-29.0,M,,0000*5F
$GPGSA,A,3,24,12,25,21,23,10,28,32,48,,,,1.63,0.92,1.34*0D
$GPGSV,4,1,13,02,04,334,,10,73,299,40,12,26,111,32,15,09,090,*7C
$GPGSV,4,2,13,18,04,184,21,21,15,320,20,23,62,145,39,24,43,056,37*73
$GPGSV,4,3,13,25,17,149,23,28,17,218,31,32,48,283,39,46,12,248,*74
$GPGSV,4,4,13,48,15,245,32*41
$GPGLL,4505.94349,N,06839.66283,W,180542.00,A,D*7E
$RDENS,6298,5074057,PC
$GPRMC,180543.00,A,4505.94376,N,06839.66286,W,0.812,355.36,180924,,,D*7A
$GPVTG,355.36,T,,M,0.812,N,1.503,K,D*32
$GPGGA,180543.00,4505.94376,N,06839.66286,W,2,09,0.92,33.9,M,-29.0,M,,0000*58
$GPGSA,A,3,24,12,25,21,23,10,28,32,48,,,,1.63,0.92,1.34*0D
$GPGSV,4,1,13,02,04,334,,10,73,299,40,12,26,111,32,15,09,090,*7C
$GPGSV,4,2,13,18,04,184,22,21,15,320,21,23,62,145,39,24,43,056,38*7E
$GPGSV,4,3,13,25,17,149,23,28,17,218,31,32,48,283,39,46,12,248,*74
$GPGSV,4,4,13,48,15,245,32*41
$GPGLL,4505.94376,N,06839.66286,W,180543.00,A,D*76
$RDENS,6299,5074136,PC
$RDENS,6300,5074215,PC
$GPRMC,180544.00,A,4505.94399,N,06839.66288,W,0.805,355.36,180924,,,D*74
$GPVTG,355.36,T,,M,0.805,N,1.490,K,D*3F
$GPGGA,180544.00,4505.94399,N,06839.66288,W,2,09,0.92,34.0,M,-29.0,M,,0000*5E
$GPGSA,A,3,24,12,25,21,23,10,28,32,48,,,,1.63,0.92,1.34*0D
$GPGSV,4,1,13,02,04,334,,10,73,299,40,12,26,111,33,15,09,090,*7D
$GPGSV,4,2,13,18,04,184,22,21,15,320,22,23,62,145,39,24,43,056,38*7D
$GPGSV,4,3,13,25,17,149,24,28,17,218,31,32,48,283,38,46,12,248,*72
$GPGSV,4,4,13,48,15,245,32*41
$GPGLL,4505.94399,N,06839.66288,W,180544.00,A,D*7E
$RDENS,6301,5074294,PC
$GPRMC,180545.00,A,4505.94423,N,06839.66293,W,0.843,353.41,180924,,,D*7D
$GPVTG,353.41,T,,M,0.843,N,1.562,K,D*37
$GPGGA,180545.00,4505.94423,N,06839.66293,W,2,09,0.92,34.1,M,-29.0,M,,0000*52
$GPGSA,A,3,24,12,25,21,23,10,28,32,48,,,,1.63,0.92,1.34*0D
$GPGSV,4,1,13,02,04,334,,10,73,299,40,12,26,111,33,15,09,090,*7D
$GPGSV,4,2,13,18,04,184,22,21,15,320,20,23,62,145,39,24,43,056,38*7F
$GPGSV,4,3,13,25,17,149,25,28,17,218,32,32,48,283,38,46,12,248,*70
$GPGSV,4,4,13,48,15,245,32*41
$GPGLL,4505.94423,N,06839.66293,W,180545.00,A,D*73
$RDENS,6302,5074372,PC
$GPRMC,180546.00,A,4505.94442,N,06839.66297,W,0.706,352.18,180924,,,D*7E
$GPVTG,352.18,T,,M,0.706,N,1.308,K,D*3E
$GPGGA,180546.00,4505.94442,N,06839.66297,W,2,09,0.92,34.2,M,-29.0,M,,0000*51
$GPGSA,A,3,24,12,25,21,23,10,28,32,48,,,,1.63,0.92,1.34*0D
$GPGSV,4,1,13,02,04,334,,10,73,299,40,12,26,111,33,15,09,090,*7D
$GPGSV,4,2,13,18,04,184,22,21,15,320,20,23,62,145,39,24,43,056,38*7F
$GPGSV,4,3,13,25,17,149,26,28,17,218,31,32,48,283,37,46,12,248,*7F
$GPGSV,4,4,13,48,15,245,32*41
$GPGLL,4505.94442,N,06839.66297,W,180546.00,A,D*73
$RDENS,6303,5074451,PC
$GPRMC,180547.00,A,4505.94463,N,06839.66300,W,0.825,349.28,180924,,,D*74
$GPVTG,349.28,T,,M,0.825,N,1.528,K,D*3D
$GPGGA,180547.00,4505.94463,N,06839.66300,W,2,09,0.92,34.3,M,-29.0,M,,0000*5D
$GPGSA,A,3,24,12,25,21,23,10,28,32,48,,,,1.63,0.92,1.34*0D
$GPGSV,4,1,13,02,04,334,,10,73,299,40,12,26,111,33,15,09,090,*7D
$GPGSV,4,2,13,18,04,184,24,21,15,320,20,23,62,145,39,24,43,056,38*79
$GPGSV,4,3,13,25,17,149,26,28,17,218,31,32,48,283,38,46,12,248,*70
$GPGSV,4,4,13,48,15,245,32*41
$GPGLL,4505.94463,N,06839.66300,W,180547.00,A,D*7E
$RDENS,6304,5074530,PC
$RDENS,6305,5074608,PC
$GPRMC,180548.00,A,4505.94481,N,06839.66306,W,0.716,347.77,180924,,,D*7A
$GPVTG,347.77,T,,M,0.716,N,1.327,K,D*3F
$GPGGA,180548.00,4505.94481,N,06839.66306,W,2,09,0.92,34.4,M,-29.0,M,,0000*5F
$GPGSA,A,3,24,12,25,21,23,10,28,32,48,,,,1.63,0.92,1.34*0D
$GPGSV,4,1,13,02,04,334,,10,73,299,40,12,26,111,34,15,09,090,*7A
$GPGSV,4,2,13,18,04,184,24,21,15,320,19,23,62,145,39,24,43,056,38*73
$GPGSV,4,3,13,25,17,149,26,28,17,218,31,32,48,283,38,46,12,248,*70
$GPGSV,4,4,13,48,15,245,32*41
$GPGLL,4505.94481,N,06839.66306,W,180548.00,A,D*7B
$RDENS,6306,5074687,PC
$GPRMC,180549.00,A,4505.94501,N,06839.66311,W,0.771,346.68,180924,,,D*7A
$GPVTG,346.68,T,,M,0.771,N,1.427,K,D*36
$GPGGA,180549.00,4505.94501,N,06839.66311,W,2,09,0.92,34.4,M,-29.0,M,,0000*51
$GPGSA,A,3,24,12,25,21,23,10,28,32,48,,,,1.63,0.92,1.34*0D
$GPGSV,4,1,13,02,04,334,,10,73,299,40,12,26,111,33,15,09,090,*7D
$GPGSV,4,2,13,18,04,184,23,21,15,320,19,23,62,145,39,24,43,056,37*7B
$GPGSV,4,3,13,25,17,149,26,28,17,218,30,32,48,283,38,46,12,248,*71
$GPGSV,4,4,13,48,15,245,32*41
$GPGLL,4505.94501,N,06839.66311,W,180549.00,A,D*75
$RDENS,6307,5074765,PC
$GPRMC,180550.00,A,4505.94519,N,06839.66317,W,0.723,346.75,180924,,,D*76
$GPVTG,346.75,T,,M,0.723,N,1.338,K,D*34
$GPGGA,180550.00,4505.94519,N,06839.66317,W,2,09,0.92,34.5,M,-29.0,M,,0000*57
$GPGSA,A,3,24,12,25,21,23,10,28,32,48,,,,1.63,0.92,1.34*0D
$GPGSV,4,1,13,02,04,334,,10,73,299,40,12,26,111,32,15,09,090,*7C
$GPGSV,4,2,13,18,04,184,22,21,15,320,18,23,62,145,39,24,43,056,37*7B
$GPGSV,4,3,13,25,17,149,25,28,17,218,32,32,48,283,38,46,12,248,*70
$GPGSV,4,4,13,48,15,245,32*41
$GPGLL,4505.94519,N,06839.66317,W,180550.00,A,D*72
$RDENS,6308,5074844,PC
$RDENS,6309,5074923,PC
$GPRMC,180551.00,A,4505.94539,N,06839.66324,W,0.729,349.23,180924,,,D*73
$GPVTG,349.23,T,,M,0.729,N,1.350,K,D*3C
$GPGGA,180551.00,4505.94539,N,06839.66324,W,2,09,0.92,34.6,M,-29.0,M,,0000*57
$GPGSA,A,3,24,12,25,21,23,10,28,32,48,,,,1.63,0.92,1.34*0D
$GPGSV,4,1,13,02,04,334,,10,73,299,40,12,26,111,33,15,09,090,*7D
$GPGSV,4,2,13,18,04,184,22,21,15,320,19,23,62,145,39,24,43,056,38*75
$GPGSV,4,3,13,25,17,149,23,28,17,218,31,32,48,283,38,46,12,248,*75
$GPGSV,4,4,13,48,15,245,32*41
$GPGLL,4505.94539,N,06839.66324,W,180551.00,A,D*71
$RDENS,6310,5075002,PC
$GPRMC,180552.00,A,4505.94557,N,06839.66329,W,0.713,348.12,180924,,,D*7F
$GPVTG,348.12,T,,M,0.713,N,1.321,K,D*30
$GPGGA,180552.00,4505.94557,N,06839.66329,W,2,09,0.92,34.6,M,-29.0,M,,0000*51
$GPGSA,A,3,24,12,25,21,23,10,28,32,48,,,,1.63,0.92,1.34*0D
$GPGSV,4,1,13,02,04,334,,10,73,299,40,12,26,111,33,15,09,090,*7D
$GPGSV,4,2,13,18,04,184,23,21,15,320,20,23,62,145,39,24,43,056,38*7E
$GPGSV,4,3,13,25,17,149,23,28,17,218,30,32,48,283,37,46,12,248,*7B
$GPGSV,4,4,13,48,15,245,32*41
$GPGLL,4505.94557,N,06839.66329,W,180552.00,A,D*77
$RDENS,6311,5075080,PC
$GPRMC,180553.00,A,4505.94575,N,06839.66336,W,0.740,345.95,180924,,,D*74
$GPVTG,345.95,T,,M,0.740,N,1.371,K,D*31
$GPGGA,180553.00,4505.94575,N,06839.66336,W,2,09,0.92,34.7,M,-29.0,M,,0000*5F
$GPGSA,A,3,24,12,25,21,23,10,28,32,48,,,,1.63,0.92,1.34*0D
$GPGSV,4,1,13,02,04,334,,10,73,299,41,12,26,111,33,15,09,090,05*79
$GPGSV,4,2,13,18,04,184,25,21,15,320,21,23,62,145,39,24,43,056,38*79
$GPGSV,4,3,13,25,17,149,25,28,17,218,30,32,48,283,35,46,12,248,*7F
$GPGSV,4,4,13,48,15,245,32*41
$GPGLL,4505.94575,N,06839.66336,W,180553.00,A,D*78
$RDENS,6312,5075159,PC
$GPRMC,180554.00,A,4505.94596,N,06839.66346,W,0.811,342.58,180924,,,D*74
$GPVTG,342.58,T,,M,0.811,N,1.502,K,D*3E
$GPGGA,180554.00,4505.94596,N,06839.66346,W,2,09,0.92,34.8,M,-29.0,M,,0000*5D
$GPGSA,A,3,24,12,25,21,23,10,28,32,48,,,,1.63,0.92,1.34*0D
$GPGSV,4,1,13,02,04,334,,10,73,299,41,12,26,111,33,15,09,090,09*75
$GPGSV,4,2,13,18,04,184,27,21,15,320,21,23,62,145,39,24,43,056,39*7A
$GPGSV,4,3,13,25,17,149,25,28,17,218,29,32,48,283,36,46,12,248,34*73
$GPGSV,4,4,13,48,15,245,32*41
$GPGLL,4505.94596,N,06839.66346,W,180554.00,A,D*75
$RDENS,6313,5075238,PC
$RDENS,6314,5075317,PC
$GPRMC,180555.00,A,4505.94613,N,06839.66356,W,0.687,340.74,180924,,,D*77
$GPVTG,340.74,T,,M,0.687,N,1.272,K,D*33
$GPGGA,180555.00,4505.94613,N,06839.66356,W,2,09,0.92,34.8,M,-29.0,M,,0000*53
$GPGSA,A,3,24,12,25,21,23,10,28,32,48,,,,1.63,0.92,1.34*0D
$GPGSV,4,1,13,02,04,334,,10,73,299,40,12,26,111,33,15,09,090,13*7F
$GPGSV,4,2,13,18,04,184,27,21,15,320,21,23,62,145,39,24,43,056,39*7A
$GPGSV,4,3,13,25,17,149,25,28,17,218,29,32,48,283,36,46,12,248,35*72
$GPGSV,4,4,13,48,15,245,31*42
$GPGLL,4505.94613,N,06839.66356,W,180555.00,A,D*7B
$RDENS,6315,5075396,PC
$GPRMC,180556.00,A,4505.94631,N,06839.66369,W,0.789,339.78,180924,,,D*75
$GPVTG,339.78,T,,M,0.789,N,1.461,K,D*3A
$GPGGA,180556.00,4505.94631,N,06839.66369,W,2,09,0.92,35.0,M,-29.0,M,,0000*55
$GPGSA,A,3,24,12,25,21,23,10,28,32,48,,,,1.63,0.92,1.34*0D
$GPGSV,4,1,13,02,04,334,,10,73,299,40,12,26,111,33,15,09,090,12*7E
$GPGSV,4,2,13,18,04,184,27,21,15,320,21,23,62,145,39,24,43,056,38*7B
$GPGSV,4,3,13,25,17,149,24,28,17,218,29,32,48,283,36,46,12,248,34*72
$GPGSV,4,4,13,48,15,245,31*42
$GPGLL,4505.94631,N,06839.66369,W,180556.00,A,D*74
$RDENS,6316,5075475,PC
$GPRMC,180557.00,A,4505.94650,N,06839.66382,W,0.779,339.28,180924,,,D*7C
$GPVTG,339.28,T,,M,0.779,N,1.443,K,D*30
$GPGGA,180557.00,4505.94650,N,06839.66382,W,2,09,0.92,35.0,M,-29.0,M,,0000*56
$GPGSA,A,3,24,12,25,21,23,10,28,32,48,,,,1.63,0.92,1.34*0D
$GPGSV,4,1,13,02,04,334,,10,73,299,40,12,26,111,33,15,09,090,09*74
$GPGSV,4,2,13,18,04,184,28,21,15,320,22,23,62,145,39,24,43,056,39*76
$GPGSV,4,3,13,25,17,149,22,28,17,218,30,32,48,283,36,46,12,248,34*7C
$GPGSV,4,4,13,48,15,245,32*41
$GPGLL,4505.94650,N,06839.66382,W,180557.00,A,D*77
$RDENS,6317,5075554,PC
$GPRMC,180558.00,A,4505.94669,N,06839.66392,W,0.753,340.07,180924,,,D*73
$GPVTG,340.07,T,,M,0.753,N,1.394,K,D*36
$GPGGA,180558.00,4505.94669,N,06839.66392,W,2,09,0.92,35.1,M,-29.0,M,,0000*53
$GPGSA,A,3,24,12,25,21,23,10,28,32,48,,,,1.63,0.92,1.34*0D
$GPGSV,4,1,13,02,04,334,,10,73,299,40,12,26,111,33,15,09,090,08*75
$GPGSV,4,2,13,18,04,184,30,21,15,320,22,23,62,145,39,24,43,056,38*7E
$GPGSV,4,3,13,25,17,149,22,28,17,218,30,32,48,283,36,46,12,248,34*7C
$GPGSV,4,4,13,48,15,245,32*41
$GPGLL,4505.94669,N,06839.66392,W,180558.00,A,D*73
$RDENS,6318,5075632,PC
$RDENS,6319,5075711,PC
$GPRMC,180559.00,A,4505.94689,N,06839.66406,W,0.745,337.29,180924,,,D*7D
$GPVTG,337.29,T,,M,0.745,N,1.379,K,D*3E
$GPGGA,180559.00,4505.94689,N,06839.66406,W,2,09,0.92,35.2,M,-29.0,M,,0000*55
$GPGSA,A,3,24,12,25,21,23,10,28,32,48,,,,1.63,0.92,1.35*0C
$GPGSV,4,1,13,02,04,334,,10,73,299,40,12,26,111,33,15,09,090,08*75
$GPGSV,4,2,13,18,04,184,29,21,15,320,20,23,61,145,39,24,43,056,39*76
$GPGSV,4,3,13,25,17,149,24,28,17,218,28,32,48,283,36,46,12,248,35*72
$GPGSV,4,4,13,48,15,245,32*41
$GPGLL,4505.94689,N,06839.66406,W,180559.00,A,D*76
$RDENS,6320,5075789,PC
$GPRMC,180600.00,A,4505.94709,N,06839.66420,W,0.718,335.74,180924,,,D*7D
$GPVTG,335.74,T,,M,0.718,N,1.331,K,D*30
$GPGGA,180600.00,4505.94709,N,06839.66420,W,2,09,0.92,35.3,M,-29.0,M,,0000*56
$GPGSA,A,3,24,12,25,21,23,10,28,32,48,,,,1.63,0.92,1.35*0C
$GPGSV,4,1,13,02,04,334,,10,73,299,40,12,26,111,33,15,09,090,08*75
$GPGSV,4,2,13,18,04,184,28,21,15,320,18,23,61,145,39,24,43,056,39*7C
$GPGSV,4,3,13,25,17,149,26,28,17,218,29,32,48,283,37,46,12,248,35*70
$GPGSV,4,4,13,48,15,245,31*42
$GPGLL,4505.94709,N,06839.66420,W,180600.00,A,D*74
$RDENS,6321,5075868,PC
$GPRMC,180601.00,A,4505.94731,N,06839.66433,W,0.892,336.39,180924,,,D*72
$GPVTG,336.39,T,,M,0.892,N,1.652,K,D*37
$GPGGA,180601.00,4505.94731,N,06839.66433,W,2,09,0.92,35.3,M,-29.0,M,,0000*5E
$GPGSA,A,3,24,12,25,21,23,10,28,32,48,,,,1.63,0.92,1.35*0C
$GPGSV,4,1,13,02,04,334,,10,73,299,41,12,26,111,32,15,09,090,08*75
$GPGSV,4,2,13,18,04,184,29,21,15,320,18,23,61,145,39,24,43,056,39*7D
$GPGSV,4,3,13,25,17,149,25,28,17,218,29,32,48,283,36,46,12,248,35*72
$GPGSV,4,4,13,48,15,245,32*41
$GPGLL,4505.94731,N,06839.66433,W,180601.00,A,D*7C
$RDENS,6322,5075946,PC
$GPRMC,180602.00,A,4505.94752,N,06839.66447,W,0.799,335.38,180924,,,D*71
$GPVTG,335.38,T,,M,0.799,N,1.480,K,D*3C
$GPGGA,180602.00,4505.94752,N,06839.66447,W,2,10,0.84,35.4,M,-29.0,M,,0000*53
$GPGSA,A,3,24,12,15,25,21,23,10,28,32,48,,,1.43,0.84,1.16*0C
$GPGSV,4,1,13,02,04,334,,10,73,299,41,12,26,111,31,15,09,090,16*79
$GPGSV,4,2,13,18,04,184,27,21,15,320,19,23,61,145,39,24,43,056,38*73
$GPGSV,4,3,13,25,17,149,25,28,17,218,30,32,48,283,37,46,12,248,36*78
$GPGSV,4,4,13,48,15,245,33*40
$GPGLL,4505.94752,N,06839.66447,W,180602.00,A,D*79
$RDENS,6323,5076025,PC
$RDENS,6324,5076104,PC
$GPRMC,180603.00,A,4505.94772,N,06839.66460,W,0.872,335.84,180924,,,D*7A
$GPVTG,335.84,T,,M,0.872,N,1.615,K,D*3F
$GPGGA,180603.00,4505.94772,N,06839.66460,W,2,10,0.92,35.4,M,-29.0,M,,0000*52
$GPGSA,A,3,24,12,15,25,21,23,10,28,32,48,,,1.63,0.92,1.35*08
$GPGSV,4,1,13,02,04,334,,10,73,299,41,12,26,111,30,15,09,090,16*78
$GPGSV,4,2,13,18,04,184,26,21,15,320,21,23,61,145,39,24,43,056,37*76
$GPGSV,4,3,13,25,17,149,24,28,17,218,30,32,48,283,37,46,12,248,36*79
$GPGSV,4,4,13,48,15,245,32*41
$GPGLL,4505.94772,N,06839.66460,W,180603.00,A,D*7F
$RDENS,6325,5076182,PC
$GPRMC,180604.00,A,4505.94794,N,06839.66474,W,0.899,335.30,180924,,,D*7A
$GPVTG,335.30,T,,M,0.899,N,1.666,K,D*31
$GPGGA,180604.00,4505.94794,N,06839.66474,W,2,10,0.92,35.5,M,-29.0,M,,0000*59
$GPGSA,A,3,24,12,15,25,21,23,10,28,32,48,,,1.63,0.92,1.35*08
$GPGSV,4,1,13,02,04,334,,10,73,299,40,12,26,111,30,15,09,090,16*79
$GPGSV,4,2,13,18,04,184,26,21,15,320,20,23,61,145,39,24,43,056,38*78
$GPGSV,4,3,13,25,17,149,24,28,17,218,30,32,48,283,36,46,12,248,35*7B
$GPGSV,4,4,13,48,15,245,32*41
$GPGLL,4505.94794,N,06839.66474,W,180604.00,A,D*75
$RDENS,6326,5076262,PC
$GPRMC,180605.00,A,4505.94814,N,06839.66484,W,0.814,336.43,180924,,,D*71
$GPVTG,336.43,T,,M,0.814,N,1.508,K,D*38
$GPGGA,180605.00,4505.94814,N,06839.66484,W,2,10,0.92,35.5,M,-29.0,M,,0000*50
$GPGSA,A,3,24,12,15,25,21,23,10,28,32,48,,,1.63,0.92,1.35*08
$GPGSV,4,1,13,02,04,334,,10,73,299,40,12,26,111,32,15,09,090,16*7B
$GPGSV,4,2,13,18,04,184,25,21,15,320,20,23,61,145,39,24,43,056,38*7B
$GPGSV,4,3,13,25,17,149,25,28,17,218,31,32,48,283,37,46,12,248,36*79
$GPGSV,4,4,13,48,15,245,32*41
$GPGLL,4505.94814,N,06839.66484,W,180605.00,A,D*7C
$RDENS,6327,5076341,PC
$RDENS,6328,5076419,PC
$GPRMC,180606.00,A,4505.94835,N,06839.66496,W,0.851,334.65,180924,,,D*75
$GPVTG,334.65,T,,M,0.851,N,1.575,K,D*35
$GPGGA,180606.00,4505.94835,N,06839.66496,W,2,10,0.92,35.4,M,-29.0,M,,0000*52
$GPGSA,A,3,24,12,15,25,21,23,10,28,32,48,,,1.63,0.92,1.35*08
$GPGSV,4,1,13,02,04,334,,10,73,299,41,12,26,111,31,15,09,090,16*79
$GPGSV,4,2,13,18,04,184,25,21,15,320,18,23,61,145,39,24,43,056,38*70
$GPGSV,4,3,13,25,17,149,26,28,17,218,30,32,48,283,37,46,12,248,36*7B
$GPGSV,4,4,13,48,15,245,33*40
$GPGLL,4505.94835,N,06839.66496,W,180606.00,A,D*7F
$RDENS,6329,5076498,PC
$GPRMC,180607.00,A,4505.94857,N,06839.66510,W,0.898,332.70,180924,,,D*78
