$GPRMC,165947.00,A,4506.20477,N,06839.64397,W,0.780,,180924,,,A*69
$GPVTG,,T,,M,0.780,N,1.444,K,A*29
$GPGGA,165947.00,4506.20477,N,06839.64397,W,1,06,1.31,38.6,M,-29.0,M,,*52
$GPGSA,A,3,18,24,15,23,10,32,,,,,,,2.51,1.31,2.13*0D
$GPGSV,3,1,12,08,03,311,,10,44,307,33,12,05,133,20,13,03,064,22*73
$GPGSV,3,2,12,14,00,021,,15,33,072,24,18,33,191,33,22,08,039,15*7C
$GPGSV,3,3,12,23,85,350,36,24,66,094,34,27,04,281,,32,25,259,23*7A
$GPGLL,4506.20477,N,06839.64397,W,165947.00,A,A*79
$GPRMC,165948.00,A,4506.20457,N,06839.64418,W,0.834,,180924,,,A*64
$GPVTG,,T,,M,0.834,N,1.545,K,A*29
$GPGGA,165948.00,4506.20457,N,06839.64418,W,1,06,1.31,38.6,M,-29.0,M,,*5F
$GPGSA,A,3,18,24,15,23,10,32,,,,,,,2.50,1.31,2.13*0C
$GPGSV,3,1,12,08,03,311,,10,44,307,33,12,05,133,18,13,03,064,21*7B
$GPGSV,3,2,12,14,00,021,,15,33,072,34,18,33,191,30,22,08,039,13*78
$GPGSV,3,3,12,23,85,350,36,24,66,094,36,27,04,281,,32,25,259,24*7F
$GPGLL,4506.20457,N,06839.64418,W,165948.00,A,A*74
$RDENS,1275,4678661,PC
$GPRMC,165949.00,A,4506.20435,N,06839.64441,W,0.994,,180924,,,A*66
$GPVTG,,T,,M,0.994,N,1.841,K,A*2B
$GPGGA,165949.00,4506.20435,N,06839.64441,W,1,06,1.31,38.5,M,-29.0,M,,*55
$GPGSA,A,3,18,24,15,23,10,32,,,,,,,2.50,1.31,2.13*0C
$GPGSV,3,1,12,08,03,311,,10,44,307,32,12,05,133,16,13,03,064,21*74
$GPGSV,3,2,12,14,00,021,,15,33,072,32,18,33,191,29,22,08,039,*74
$GPGSV,3,3,12,23,85,350,37,24,66,094,36,27,04,281,,32,25,259,26*7C
$GPGLL,4506.20435,N,06839.64441,W,165949.00,A,A*7D
$RDENS,1276,4678740,PC
$RDENS,1277,4678819,PC
$GPRMC,165950.00,A,4506.20409,N,06839.64468,W,1.070,249.75,180924,,,A*7B
$GPVTG,249.75,T,,M,1.070,N,1.982,K,A*34
$GPGGA,165950.00,4506.20409,N,06839.64468,W,1,06,1.31,38.5,M,-29.0,M,,*59
$GPGSA,A,3,18,24,15,23,10,32,,,,,,,2.50,1.31,2.13*0C
$GPGSV,3,1,12,08,03,311,,10,44,307,33,12,05,133,16,13,03,064,22*76
$GPGSV,3,2,12,14,00,021,,15,33,072,35,18,33,191,32,22,08,039,*79
$GPGSV,3,3,12,23,85,350,37,24,66,094,34,27,04,281,,32,25,259,25*7D
$GPGLL,4506.20409,N,06839.64468,W,165950.00,A,A*71
$RDENS,1278,4678898,PC
$GPRMC,165951.00,A,4506.20387,N,06839.64491,W,1.071,233.68,180924,,,A*7D
$GPVTG,233.68,T,,M,1.071,N,1.983,K,A*35
$GPGGA,165951.00,4506.20387,N,06839.64491,W,1,06,1.31,38.4,M,-29.0,M,,*5E
$GPGSA,A,3,18,24,15,23,10,32,,,,,,,2.50,1.31,2.13*0C
$GPGSV,3,1,12,08,03,311,,10,44,307,36,12,05,133,15,13,03,064,24*76
$GPGSV,3,2,12,14,00,021,,15,33,072,35,18,33,191,33,22,08,039,*78
$GPGSV,3,3,12,23,85,350,34,24,66,094,34,27,04,281,,32,25,259,24*7F
$GPGLL,4506.20387,N,06839.64491,W,165951.00,A,A*77
$RDENS,1279,4678976,PC
$GPRMC,165952.00,A,4506.20359,N,06839.64521,W,1.118,227.88,180924,,,A*72
$GPVTG,227.88,T,,M,1.118,N,2.071,K,A*37
$GPGGA,165952.00,4506.20359,N,06839.64521,W,1,06,1.31,38.4,M,-29.0,M,,*54
$GPGSA,A,3,18,24,15,23,10,32,,,,,,,2.50,1.31,2.13*0C
$GPGSV,3,1,12,08,03,311,,10,44,307,29,12,05,133,16,13,03,064,25*7A
$GPGSV,3,2,12,14,00,021,,15,33,072,32,18,33,191,33,22,08,039,*7F
$GPGSV,3,3,12,23,85,350,37,24,66,094,34,27,04,281,,32,25,259,23*7B
$GPGLL,4506.20359,N,06839.64521,W,165952.00,A,A*7D
$RDENS,1280,4679055,PC
$GPRMC,165953.00,A,4506.20340,N,06839.64552,W,1.170,,180924,,,A*68
$GPVTG,,T,,M,1.170,N,2.166,K,A*27
$GPGGA,165953.00,4506.20340,N,06839.64552,W,1,06,1.31,38.3,M,-29.0,M,,*5E
$GPGSA,A,3,18,24,15,23,10,32,,,,,,,2.50,1.31,2.13*0C
$GPGSV,3,1,12,08,03,311,,10,44,307,28,12,05,133,16,13,03,064,24*7A
$GPGSV,3,2,12,14,00,021,,15,33,072,32,18,33,191,28,22,08,039,*75
$GPGSV,3,3,12,23,85,350,34,24,66,094,35,27,04,281,,32,25,259,30*7B
$GPGLL,4506.20340,N,06839.64552,W,165953.00,A,A*70
$RDENS,1281,4679134,PC
$RDENS,1282,4679213,PC
$GPRMC,165954.00,A,4506.20315,N,06839.64583,W,1.278,221.53,180924,,,A*71
$GPVTG,221.53,T,,M,1.278,N,2.368,K,A*39
$GPGGA,165954.00,4506.20315,N,06839.64583,W,1,06,1.31,38.1,M,-29.0,M,,*57
$GPGSA,A,3,18,24,15,23,10,32,,,,,,,2.50,1.31,2.13*0C
$GPGSV,3,1,12,08,03,311,,10,44,307,27,12,05,132,16,13,03,064,22*72
$GPGSV,3,2,12,14,00,021,,15,33,072,30,18,33,191,29,22,08,039,*76
$GPGSV,3,3,12,23,85,350,36,24,66,094,35,27,04,281,,32,25,259,31*78
$GPGLL,4506.20315,N,06839.64583,W,165954.00,A,A*7B
$RDENS,1283,4679291,PC
$GPRMC,165955.00,A,4506.20278,N,06839.64613,W,1.510,214.36,180924,,,A*7C
$GPVTG,214.36,T,,M,1.510,N,2.797,K,A*31
$GPGGA,165955.00,4506.20278,N,06839.64613,W,1,06,1.31,38.1,M,-29.0,M,,*56
$GPGSA,A,3,18,24,15,23,10,32,,,,,,,2.50,1.31,2.13*0C
$GPGSV,3,1,12,08,03,311,,10,44,307,28,12,05,132,16,13,03,064,20*7F
$GPGSV,3,2,12,14,00,021,,15,33,072,30,18,33,191,30,22,08,039,*7E
$GPGSV,3,3,12,23,85,350,35,24,66,094,36,27,04,281,,32,25,259,25*7D
$GPGLL,4506.20278,N,06839.64613,W,165955.00,A,A*7A
$RDENS,1284,4679370,PC
$GPRMC,165956.00,A,4506.20243,N,06839.64649,W,1.509,215.89,180924,,,A*75
$GPVTG,215.89,T,,M,1.509,N,2.794,K,A*3F
$GPGGA,165956.00,4506.20243,N,06839.64649,W,1,06,1.31,38.2,M,-29.0,M,,*51
$GPGSA,A,3,18,24,15,23,10,32,,,,,,,2.50,1.31,2.13*0C
$GPGSV,3,1,12,08,03,311,,10,44,307,28,12,05,132,16,13,03,064,20*7F
$GPGSV,3,2,12,14,00,021,,15,33,072,30,18,33,191,30,22,08,039,*7E
$GPGSV,3,3,12,23,85,350,36,24,66,094,33,27,04,281,,32,25,259,31*7E
$GPGLL,4506.20243,N,06839.64649,W,165956.00,A,A*7E
$RDENS,1285,4679449,PC
$GPRMC,165957.00,A,4506.20209,N,06839.64684,W,1.321,218.78,180924,,,A*74
$GPVTG,218.78,T,,M,1.321,N,2.446,K,A*3C
$GPGGA,165957.00,4506.20209,N,06839.64684,W,1,06,1.31,38.1,M,-29.0,M,,*5C
$GPGSA,A,3,18,24,15,23,10,32,,,,,,,2.50,1.31,2.13*0C
$GPGSV,3,1,12,08,03,311,,10,44,307,33,12,05,132,15,13,03,064,24*72
$GPGSV,3,2,12,14,00,021,,15,32,073,36,18,33,191,34,22,08,039,*7C
$GPGSV,3,3,12,23,85,350,36,24,66,094,33,27,04,281,,32,25,259,25*7B
$GPGLL,4506.20209,N,06839.64684,W,165957.00,A,A*70
$RDENS,1286,4679528,PC
$RDENS,1287,4679606,PC
$GPRMC,165958.00,A,4506.20187,N,06839.64726,W,1.478,223.89,180924,,,A*7A
$GPVTG,223.89,T,,M,1.478,N,2.737,K,A*34
$GPGGA,165958.00,4506.20187,N,06839.64726,W,1,06,1.31,38.0,M,-29.0,M,,*5E
$GPGSA,A,3,18,24,15,23,10,32,,,,,,,2.50,1.31,2.13*0C
$GPGSV,3,1,12,08,03,311,,10,44,307,33,12,05,132,16,13,03,064,25*70
$GPGSV,3,2,12,14,00,021,,15,32,073,34,18,33,191,35,22,08,039,*7F
$GPGSV,3,3,12,23,85,350,36,24,66,094,32,27,04,281,,32,25,259,26*79
$GPGLL,4506.20187,N,06839.64726,W,165958.00,A,A*73
$RDENS,1288,4679685,PC
$GPRMC,165959.00,A,4506.20160,N,06839.64759,W,1.325,224.12,180924,,,A*70
$GPVTG,224.12,T,,M,1.325,N,2.453,K,A*3F
$GPGGA,165959.00,4506.20160,N,06839.64759,W,1,06,1.31,37.9,M,-29.0,M,,*58
$GPGSA,A,3,18,24,15,23,10,32,,,,,,,2.50,1.31,2.13*0C
$GPGSV,3,1,12,08,03,311,,10,44,307,34,12,05,132,16,13,03,064,26*74
$GPGSV,3,2,12,14,00,021,,15,32,073,34,18,33,191,35,22,08,039,*7F
$GPGSV,3,3,12,23,85,350,38,24,66,094,33,27,04,281,,32,25,259,25*75
$GPGLL,4506.20160,N,06839.64759,W,165959.00,A,A*73
$RDENS,1289,4679764,PC
$GPRMC,170000.00,A,4506.20134,N,06839.64797,W,1.362,226.93,180924,,,A*7A
$GPVTG,226.93,T,,M,1.362,N,2.522,K,A*30
$GPGGA,170000.00,4506.20134,N,06839.64797,W,1,06,1.31,37.9,M,-29.0,M,,*5A
$GPGSA,A,3,18,24,15,23,10,32,,,,,,,2.50,1.31,2.13*0C
$GPGSV,3,1,12,08,03,311,,10,44,307,30,12,05,132,17,13,03,064,27*70
$GPGSV,3,2,12,14,00,021,,15,32,073,35,18,33,191,33,22,08,039,*78
$GPGSV,3,3,12,23,85,350,37,24,66,094,34,27,04,281,,32,25,259,23*7B
$GPGLL,4506.20134,N,06839.64797,W,170000.00,A,A*71
$RDENS,1290,4679843,PC
$RDENS,1291,4679921,PC
$GPRMC,170001.00,A,4506.20112,N,06839.64835,W,1.157,,180924,,,A*6E
$GPVTG,,T,,M,1.157,N,2.142,K,A*24
$GPGGA,170001.00,4506.20112,N,06839.64835,W,1,06,1.31,37.9,M,-29.0,M,,*58
$GPGSA,A,3,18,24,15,23,10,32,,,,,,,2.50,1.31,2.13*0C
$GPGSV,3,1,12,08,03,311,,10,44,307,29,12,05,132,15,13,03,064,27*7A
$GPGSV,3,2,12,14,00,021,,15,32,073,33,18,33,191,33,22,08,039,16*79
$GPGSV,3,3,12,23,85,350,36,24,66,094,33,27,04,281,,32,25,259,20*7E
$GPGLL,4506.20112,N,06839.64835,W,170001.00,A,A*73
$RDENS,1292,4680000,PC
$GPRMC,170002.00,A,4506.20093,N,06839.64872,W,1.151,,180924,,,A*60
$GPVTG,,T,,M,1.151,N,2.131,K,A*26
$GPGGA,170002.00,4506.20093,N,06839.64872,W,1,06,1.31,37.7,M,-29.0,M,,*5E
$GPGSA,A,3,18,24,15,23,10,32,,,,,,,2.50,1.31,2.13*0C
$GPGSV,3,1,12,08,03,311,,10,44,307,29,12,05,132,14,13,03,064,27*7B
$GPGSV,3,2,12,14,00,021,,15,32,073,34,18,33,191,33,22,08,039,15*7D
$GPGSV,3,3,12,23,85,350,36,24,66,094,32,27,04,281,,32,25,259,20*7F
$GPGLL,4506.20093,N,06839.64872,W,170002.00,A,A*7B
$RDENS,1293,4680078,PC
$GPRMC,170003.00,A,4506.20077,N,06839.64904,W,1.018,,180924,,,A*67
$GPVTG,,T,,M,1.018,N,1.885,K,A*2F
$GPGGA,170003.00,4506.20077,N,06839.64904,W,1,06,1.31,37.6,M,-29.0,M,,*54
$GPGSA,A,3,18,24,15,23,10,32,,,,,,,2.50,1.31,2.13*0C
$GPGSV,3,1,12,08,03,311,,10,44,307,28,12,05,132,14,13,03,064,30*7C
$GPGSV,3,2,12,14,00,021,,15,32,073,32,18,33,191,33,22,08,039,13*7D
$GPGSV,3,3,12,23,85,350,38,24,66,094,33,27,04,281,,32,25,259,21*71
$GPGLL,4506.20077,N,06839.64904,W,170003.00,A,A*70
$RDENS,1294,4680157,PC
$GPRMC,170004.00,A,4506.20055,N,06839.64924,W,0.974,,180924,,,A*60
$GPVTG,,T,,M,0.974,N,1.804,K,A*24
$GPGGA,170004.00,4506.20055,N,06839.64924,W,1,06,1.31,37.8,M,-29.0,M,,*5F
$GPGSA,A,3,18,24,15,23,10,32,,,,,,,2.50,1.31,2.13*0C
$GPGSV,3,1,12,08,03,311,,10,44,307,33,12,05,132,16,13,03,064,31*75
$GPGSV,3,2,12,14,00,021,,15,32,073,34,18,33,191,32,22,08,039,13*7A
$GPGSV,3,3,12,23,85,350,36,24,66,094,32,27,04,281,,32,25,259,20*7F
$GPGLL,4506.20055,N,06839.64924,W,170004.00,A,A*75
$RDENS,1295,4680237,PC
$RDENS,1296,4680315,PC
$GPRMC,170005.00,A,4506.20037,N,06839.64950,W,0.978,,180924,,,A*6A
$GPVTG,,T,,M,0.978,N,1.812,K,A*2F
$GPGGA,170005.00,4506.20037,N,06839.64950,W,1,06,1.31,37.8,M,-29.0,M,,*59
$GPGSA,A,3,18,24,15,23,10,32,,,,,,,2.50,1.31,2.13*0C
$GPGSV,3,1,12,08,03,311,,10,44,307,33,12,05,132,17,13,03,064,32*77
$GPGSV,3,2,12,14,00,021,,15,32,073,31,18,33,191,32,22,08,039,11*7D
$GPGSV,3,3,12,23,85,353,35,24,66,094,32,27,04,281,,32,25,259,22*7D
$GPGLL,4506.20037,N,06839.64950,W,170005.00,A,A*73
$RDENS,1297,4680393,PC
$GPRMC,170006.00,A,4506.20019,N,06839.64977,W,0.972,,180924,,,A*6A
$GPVTG,,T,,M,0.972,N,1.799,K,A*29
$GPGGA,170006.00,4506.20019,N,06839.64977,W,1,07,1.14,37.7,M,-29.0,M,,*5A
$GPGSA,A,3,18,24,22,15,23,10,32,,,,,,1.83,1.14,1.43*00
$GPGSV,3,1,12,08,03,311,,10,44,307,33,12,05,132,17,13,03,064,33*76
$GPGSV,3,2,12,14,00,021,,15,32,073,32,18,33,191,33,22,08,039,13*7D
$GPGSV,3,3,12,23,85,353,37,24,65,093,33,27,04,281,,32,25,259,22*7A
$GPGLL,4506.20019,N,06839.64977,W,170006.00,A,A*79
$RDENS,1298,4680472,PC
$GPRMC,170007.00,A,4506.19996,N,06839.64990,W,0.860,,180924,,,A*64
$GPVTG,,T,,M,0.860,N,1.592,K,A*22
$GPGGA,170007.00,4506.19996,N,06839.64990,W,1,07,1.14,37.9,M,-29.0,M,,*58
$GPGSA,A,3,18,24,22,15,23,10,32,,,,,,1.83,1.14,1.43*00
$GPGSV,3,1,12,08,03,311,,10,44,307,30,12,05,132,16,13,03,064,34*73
$GPGSV,3,2,12,14,00,021,,15,32,073,32,18,33,191,33,22,08,039,15*7B
$GPGSV,3,3,12,23,85,353,36,24,65,093,33,27,04,281,,32,25,259,21*78
$GPGLL,4506.19996,N,06839.64990,W,170007.00,A,A*75
$RDENS,1299,4680551,PC
$GPRMC,170008.00,A,4506.19976,N,06839.65005,W,0.854,,180924,,,A*66
$GPVTG,,T,,M,0.854,N,1.582,K,A*24
$GPGGA,170008.00,4506.19976,N,06839.65005,W,1,07,1.14,38.0,M,-29.0,M,,*5B
$GPGSA,A,3,18,24,22,15,23,10,32,,,,,,1.83,1.14,1.43*00
$GPGSV,3,1,12,08,03,311,,10,44,307,29,12,05,132,15,13,03,064,32*7E
$GPGSV,3,2,12,14,00,021,,15,32,073,33,18,33,191,31,22,08,039,13*7E
$GPGSV,3,3,12,23,85,353,34,24,65,093,32,27,04,281,,32,25,259,21*7B
$GPGLL,4506.19976,N,06839.65005,W,170008.00,A,A*70
$RDENS,1300,4680630,PC
$RDENS,1301,4680709,PC
$GPRMC,170009.00,A,4506.19955,N,06839.65022,W,0.953,,180924,,,A*65
$GPVTG,,T,,M,0.953,N,1.764,K,A*28
$GPGGA,170009.00,4506.19955,N,06839.65022,W,1,07,1.14,38.2,M,-29.0,M,,*5C
$GPGSA,A,3,18,24,22,15,23,10,32,,,,,,1.83,1.14,1.43*00
$GPGSV,3,1,12,08,03,311,,10,44,307,28,12,05,132,15,13,03,064,34*79
$GPGSV,3,2,12,14,00,021,,15,32,073,33,18,33,191,31,22,08,039,13*7E
$GPGSV,3,3,12,23,85,353,37,24,65,093,33,27,04,281,,32,25,259,20*78
$GPGLL,4506.19955,N,06839.65022,W,170009.00,A,A*75
$RDENS,1302,4680786,PC
$GPRMC,170010.00,A,4506.19947,N,06839.65050,W,0.866,,180924,,,A*6C
$GPVTG,,T,,M,0.866,N,1.603,K,A*2F
$GPGGA,170010.00,4506.19947,N,06839.65050,W,1,07,1.14,38.1,M,-29.0,M,,*51
$GPGSA,A,3,18,24,22,15,23,10,32,,,,,,1.83,1.14,1.43*00
$GPGSV,3,1,12,08,03,311,,10,44,307,33,12,05,132,16,13,03,064,33*77
$GPGSV,3,2,12,14,00,021,,15,32,073,33,18,33,191,34,22,08,039,12*7A
$GPGSV,3,3,12,23,85,353,37,24,65,093,34,27,04,281,,32,25,259,19*75
$GPGLL,4506.19947,N,06839.65050,W,170010.00,A,A*7B
$RDENS,1303,4680866,PC
$GPRMC,170011.00,A,4506.19932,N,06839.65080,W,1.024,,180924,,,A*6D
$GPVTG,,T,,M,1.024,N,1.896,K,A*22
$GPGGA,170011.00,4506.19932,N,06839.65080,W,1,07,1.14,38.0,M,-29.0,M,,*5E
$GPGSA,A,3,18,24,22,15,23,10,32,,,,,,1.83,1.14,1.43*00
$GPGSV,3,1,12,08,03,311,,10,44,307,32,12,05,132,15,13,03,064,33*75
$GPGSV,3,2,12,14,00,021,,15,32,073,32,18,33,191,31,22,08,039,11*7D
$GPGSV,3,3,12,23,85,353,37,24,65,093,33,27,04,281,,32,25,259,27*7F
$GPGLL,4506.19932,N,06839.65080,W,170011.00,A,A*75
$RDENS,1304,4680944,PC
$GPRMC,170012.00,A,4506.19913,N,06839.65104,W,0.997,,180924,,,A*60
$GPVTG,,T,,M,0.997,N,1.847,K,A*2E
$GPGGA,170012.00,4506.19913,N,06839.65104,W,1,06,1.31,38.1,M,-29.0,M,,*54
$GPGSA,A,3,18,24,15,23,10,32,,,,,,,2.50,1.31,2.13*0C
$GPGSV,3,1,12,08,03,311,,10,44,307,29,12,05,132,14,13,03,064,30*7D
$GPGSV,3,2,12,14,00,021,,15,32,073,35,18,33,191,35,22,08,039,09*77
$GPGSV,3,3,12,23,85,353,37,24,65,093,32,27,04,281,,32,25,259,27*7E
$GPGLL,4506.19913,N,06839.65104,W,170012.00,A,A*78
$RDENS,1305,4681023,PC
$RDENS,1306,4681102,PC
$GPRMC,170013.00,A,4506.19895,N,06839.65129,W,1.101,,180924,,,A*67
$GPVTG,,T,,M,1.101,N,2.039,K,A*2A
$GPGGA,170013.00,4506.19895,N,06839.65129,W,1,06,1.31,38.2,M,-29.0,M,,*56
$GPGSA,A,3,18,24,15,23,10,32,,,,,,,2.50,1.31,2.13*0C
$GPGSV,3,1,12,08,03,311,,10,44,307,30,12,05,132,13,13,03,064,30*72
$GPGSV,3,2,12,14,00,021,,15,32,073,35,18,33,191,35,22,08,039,08*76
$GPGSV,3,3,12,23,85,353,36,24,65,093,34,27,04,281,,32,25,259,26*78
$GPGLL,4506.19895,N,06839.65129,W,170013.00,A,A*79
$RDENS,1307,4681180,PC
$GPRMC,170014.00,A,4506.19869,N,06839.65154,W,1.130,228.15,180924,,,A*79
$GPVTG,228.15,T,,M,1.130,N,2.092,K,A*3B
$GPGGA,170014.00,4506.19869,N,06839.65154,W,1,06,1.31,38.5,M,-29.0,M,,*5F
$GPGSA,A,3,18,24,15,23,10,32,,,,,,,2.50,1.31,2.13*0C
$GPGSV,3,1,12,08,03,311,,10,44,307,34,12,05,132,11,13,03,064,33*77
$GPGSV,3,2,12,14,00,021,,15,32,073,35,18,33,191,35,22,08,039,08*76
$GPGSV,3,3,12,23,85,353,36,24,65,093,36,27,04,281,,32,25,260,25*73
$GPGLL,4506.19869,N,06839.65154,W,170014.00,A,A*77
$RDENS,1308,4681259,PC
$GPRMC,170015.00,A,4506.19843,N,06839.65176,W,1.063,,180924,,,A*65
$GPVTG,,T,,M,1.063,N,1.968,K,A*21
$GPGGA,170015.00,4506.19843,N,06839.65176,W,1,06,1.31,38.6,M,-29.0,M,,*55
$GPGSA,A,3,18,24,15,23,10,32,,,,,,,2.50,1.31,2.13*0C
$GPGSV,3,1,12,08,03,311,,10,44,307,21,12,05,132,12,13,03,064,32*71
$GPGSV,3,2,12,14,00,021,,15,32,073,35,18,33,191,35,22,08,039,08*76
$GPGSV,3,3,12,23,85,353,36,24,65,093,34,27,04,281,,32,25,260,24*70
$GPGLL,4506.19843,N,06839.65176,W,170015.00,A,A*7E
$RDENS,1309,4681338,PC
$RDENS,1310,4681417,PC
$GPRMC,170016.00,A,4506.19822,N,06839.65204,W,1.146,,180924,,,A*61
$GPVTG,,T,,M,1.146,N,2.122,K,A*22
$GPGGA,170016.00,4506.19822,N,06839.65204,W,1,06,1.31,38.8,M,-29.0,M,,*59
$GPGSA,A,3,18,24,15,23,10,32,,,,,,,2.50,1.31,2.13*0C
$GPGSV,3,1,12,08,03,311,,10,44,307,30,12,05,132,12,13,03,064,31*72
$GPGSV,3,2,12,14,00,021,,15,32,073,35,18,33,191,35,22,08,039,08*76
$GPGSV,3,3,12,23,85,353,36,24,65,093,35,27,04,281,,32,25,260,22*77
$GPGLL,4506.19822,N,06839.65204,W,170016.00,A,A*7C
$RDENS,1311,4681495,PC
$GPRMC,170017.00,A,4506.19801,N,06839.65237,W,1.211,228.53,180924,,,A*70
$GPVTG,228.53,T,,M,1.211,N,2.244,K,A*30
$GPGGA,170017.00,4506.19801,N,06839.65237,W,1,06,1.31,38.8,M,-29.0,M,,*59
$GPGSA,A,3,18,24,15,23,10,32,,,,,,,2.50,1.31,2.13*0C
$GPGSV,3,1,12,08,03,311,,10,44,307,36,12,05,132,11,13,03,064,31*77
$GPGSV,3,2,12,14,00,021,,15,32,073,35,18,33,191,37,22,08,039,08*74
$GPGSV,3,3,12,23,85,353,36,24,65,093,35,27,04,281,,32,25,260,28*7D
$GPGLL,4506.19801,N,06839.65237,W,170017.00,A,A*7C
$RDENS,1312,4681574,PC
$GPRMC,170018.00,A,4506.19795,N,06839.65289,W,1.224,229.89,180924,,,A*78
$GPVTG,229.89,T,,M,1.224,N,2.266,K,A*30
$GPGGA,170018.00,4506.19795,N,06839.65289,W,1,06,1.31,38.7,M,-29.0,M,,*5E
$GPGSA,A,3,18,24,15,23,10,32,,,,,,,2.50,1.31,2.13*0C
$GPGSV,3,1,12,08,03,311,,10,44,307,38,12,05,132,12,13,03,064,21*7B
$GPGSV,3,2,12,14,00,021,,15,32,073,36,18,33,191,39,22,08,039,08*79
$GPGSV,3,3,12,23,85,353,37,24,65,093,34,27,04,281,,32,25,260,26*73
$GPGLL,4506.19795,N,06839.65289,W,170018.00,A,A*74
$RDENS,1313,4681652,PC
$GPRMC,170019.00,A,4506.19773,N,06839.65327,W,1.321,228.00,180924,,,A*70
$GPVTG,228.00,T,,M,1.321,N,2.446,K,A*30
$GPGGA,170019.00,4506.19773,N,06839.65327,W,1,06,1.31,38.9,M,-29.0,M,,*5C
$GPGSA,A,3,18,24,15,23,10,32,,,,,,,2.50,1.31,2.13*0C
$GPGSV,3,1,12,08,03,311,,10,44,307,34,12,05,132,13,13,03,064,24*73
$GPGSV,3,2,12,14,00,021,,15,32,073,36,18,33,191,39,22,08,039,*71
$GPGSV,3,3,12,23,85,353,37,24,65,093,34,27,04,281,,32,25,260,25*70
$GPGLL,4506.19773,N,06839.65327,W,170019.00,A,A*78
$RDENS,1314,4681731,PC
$RDENS,1315,4681810,PC
$GPRMC,170020.00,A,4506.19750,N,06839.65372,W,1.453,228.96,180924,,,A*76
$GPVTG,228.96,T,,M,1.453,N,2.691,K,A*35
$GPGGA,170020.00,4506.19750,N,06839.65372,W,1,06,1.31,39.0,M,-29.0,M,,*5F
$GPGSA,A,3,18,24,15,23,10,32,,,,,,,2.50,1.31,2.13*0C
$GPGSV,3,1,12,08,03,311,,10,44,307,34,12,05,132,13,13,03,064,24*73
$GPGSV,3,2,12,14,00,021,,15,32,073,36,18,33,191,38,22,08,039,*70
$GPGSV,3,3,12,23,85,353,37,24,65,093,34,27,04,281,,32,25,260,24*71
$GPGLL,4506.19750,N,06839.65372,W,170020.00,A,A*73
$RDENS,1316,4681888,PC
$GPRMC,170021.00,A,4506.19725,N,06839.65419,W,1.552,227.14,180924,,,A*7A
$GPVTG,227.14,T,,M,1.552,N,2.875,K,A*34
$GPGGA,170021.00,4506.19725,N,06839.65419,W,1,06,1.31,39.0,M,-29.0,M,,*56
$GPGSA,A,3,18,24,15,23,10,32,,,,,,,2.50,1.31,2.13*0C
$GPGSV,3,1,12,08,03,311,,10,44,307,25,12,05,132,13,13,03,064,24*73
$GPGSV,3,2,12,14,00,021,,15,32,073,36,18,33,191,38,22,08,039,*70
$GPGSV,3,3,12,23,85,353,38,24,65,093,34,27,04,281,,32,25,260,24*7E
$GPGLL,4506.19725,N,06839.65419,W,170021.00,A,A*7A
$RDENS,1317,4681967,PC
$GPRMC,170022.00,A,4506.19700,N,06839.65475,W,1.705,230.97,180924,,,A*79
$GPVTG,230.97,T,,M,1.705,N,3.158,K,A*3E
$GPGGA,170022.00,4506.19700,N,06839.65475,W,1,06,1.31,39.0,M,-29.0,M,,*58
$GPGSA,A,3,18,24,15,23,10,32,,,,,,,2.50,1.31,2.13*0C
$GPGSV,3,1,12,08,03,311,,10,44,307,30,12,05,132,12,13,03,064,23*71
$GPGSV,3,2,12,14,00,021,,15,32,073,36,18,33,191,38,22,08,039,14*75
$GPGSV,3,3,12,23,85,353,37,24,65,093,34,27,04,281,,32,25,260,26*73
$GPGLL,4506.19700,N,06839.65475,W,170022.00,A,A*74
$RDENS,1318,4682045,PC
$GPRMC,170023.00,A,4506.19671,N,06839.65528,W,1.681,230.66,180924,,,A*75
$GPVTG,230.66,T,,M,1.681,N,3.113,K,A*32
$GPGGA,170023.00,4506.19671,N,06839.65528,W,1,06,1.31,39.1,M,-29.0,M,,*56
$GPGSA,A,3,18,24,15,23,10,32,,,,,,,2.50,1.31,2.13*0C
$GPGSV,3,1,12,08,03,311,,10,44,307,30,12,05,132,12,13,03,064,22*70
$GPGSV,3,2,12,14,00,021,,15,32,073,37,18,33,191,38,22,08,039,12*72
$GPGSV,3,3,12,23,85,353,37,24,65,093,34,27,04,281,,32,25,260,25*70
$GPGLL,4506.19671,N,06839.65528,W,170023.00,A,A*7B
$RDENS,1319,4682124,PC
$RDENS,1320,4682204,PC
$GPRMC,170024.00,A,4506.19643,N,06839.65584,W,1.761,232.69,180924,,,A*77
$GPVTG,232.69,T,,M,1.761,N,3.262,K,A*35
$GPGGA,170024.00,4506.19643,N,06839.65584,W,1,06,1.31,39.1,M,-29.0,M,,*56
$GPGSA,A,3,18,24,15,23,10,32,,,,,,,2.50,1.31,2.13*0C
$GPGSV,3,1,12,08,03,311,,10,44,307,28,12,05,132,13,13,03,064,21*7B
$GPGSV,3,2,12,14,00,021,,15,32,073,36,18,33,191,38,22,08,039,11*70
$GPGSV,3,3,12,23,85,353,37,24,65,093,34,27,04,281,,32,25,260,25*70
$GPGLL,4506.19643,N,06839.65584,W,170024.00,A,A*7B
$RDENS,1321,4682282,PC
$GPRMC,170025.00,A,4506.19617,N,06839.65645,W,1.806,233.98,180924,,,A*78
$GPVTG,233.98,T,,M,1.806,N,3.344,K,A*31
$GPGGA,170025.00,4506.19617,N,06839.65645,W,1,06,1.31,39.1,M,-29.0,M,,*58
$GPGSA,A,3,18,24,15,23,10,32,,,,,,,2.50,1.31,2.13*0C
$GPGSV,3,1,12,08,03,311,,10,44,307,28,12,05,132,14,13,03,064,19*77
$GPGSV,3,2,12,14,00,021,,15,32,073,36,18,33,191,38,22,08,039,11*70
$GPGSV,3,3,12,23,85,353,37,24,65,093,34,27,04,281,,32,25,260,25*70
$GPGLL,4506.19617,N,06839.65645,W,170025.00,A,A*75
$RDENS,1322,4682361,PC
$GPRMC,170026.00,A,4506.19584,N,06839.65697,W,1.768,229.71,180924,,,A*76
$GPVTG,229.71,T,,M,1.768,N,3.274,K,A*38
$GPGGA,170026.00,4506.19584,N,06839.65697,W,1,06,1.31,39.2,M,-29.0,M,,*5E
$GPGSA,A,3,18,24,15,23,10,32,,,,,,,2.50,1.31,2.13*0C
$GPGSV,3,1,12,08,03,311,,10,44,307,26,12,05,132,14,13,03,064,17*77
$GPGSV,3,2,12,14,00,021,,15,32,073,36,18,33,191,38,22,08,039,10*71
$GPGSV,3,3,12,23,85,353,37,24,65,093,34,27,04,281,,32,25,260,24*71
$GPGLL,4506.19584,N,06839.65697,W,170026.00,A,A*70
$RDENS,1323,4682440,PC
$RDENS,1324,4682519,PC
$GPRMC,170027.00,A,4506.19552,N,06839.65755,W,1.859,231.61,180924,,,A*76
$GPVTG,231.61,T,,M,1.859,N,3.443,K,A*3F
$GPGGA,170027.00,4506.19552,N,06839.65755,W,1,07,1.14,39.3,M,-29.0,M,,*5C
$GPGSA,A,3,18,24,22,15,23,10,32,,,,,,1.83,1.14,1.43*00
$GPGSV,3,1,12,08,03,311,,10,44,307,27,12,05,132,15,13,03,064,15*75
$GPGSV,3,2,12,14,00,021,,15,32,073,35,18,33,191,38,22,08,039,10*72
$GPGSV,3,3,12,23,85,353,37,24,65,093,33,27,04,281,,32,25,260,22*70
$GPGLL,4506.19552,N,06839.65755,W,170027.00,A,A*75
$RDENS,1325,4682597,PC
$GPRMC,170028.00,A,4506.19527,N,06839.65825,W,1.949,236.35,180924,,,A*75
$GPVTG,236.35,T,,M,1.949,N,3.609,K,A*35
$GPGGA,170028.00,4506.19527,N,06839.65825,W,1,07,1.14,39.1,M,-29.0,M,,*5B
$GPGSA,A,3,18,24,22,15,23,10,32,,,,,,1.83,1.14,1.43*00
$GPGSV,3,1,12,08,03,311,,10,44,307,31,12,05,132,14,13,03,064,12*74
$GPGSV,3,2,12,14,00,021,,15,32,073,35,18,33,191,38,22,08,039,10*72
$GPGSV,3,3,12,23,85,353,37,24,65,093,33,27,04,281,,32,25,260,22*70
$GPGLL,4506.19527,N,06839.65825,W,170028.00,A,A*70
$RDENS,1326,4682675,PC
$GPRMC,170029.00,A,4506.19505,N,06839.65900,W,1.896,234.94,180924,,,A*78
$GPVTG,234.94,T,,M,1.896,N,3.512,K,A*36
$GPGGA,170029.00,4506.19505,N,06839.65900,W,1,07,1.14,38.9,M,-29.0,M,,*55
$GPGSA,A,3,18,24,22,15,23,10,32,,,,,,1.83,1.14,1.43*00
$GPGSV,3,1,12,08,03,311,,10,44,307,37,12,05,132,14,13,03,064,11*71
$GPGSV,3,2,12,14,00,021,,15,32,073,36,18,33,191,38,22,08,039,10*71
$GPGSV,3,3,12,23,85,353,37,24,65,093,33,27,04,281,,32,25,260,22*70
$GPGLL,4506.19505,N,06839.65900,W,170029.00,A,A*77
$RDENS,1327,4682754,PC
$GPRMC,170030.00,A,4506.19468,N,06839.65956,W,1.909,233.03,180924,,,A*77
$GPVTG,233.03,T,,M,1.909,N,3.536,K,A*3E
$GPGGA,170030.00,4506.19468,N,06839.65956,W,1,07,1.14,39.0,M,-29.0,M,,*5C
$GPGSA,A,3,18,24,22,15,23,10,32,,,,,,1.83,1.14,1.43*00
$GPGSV,3,1,12,08,03,311,,10,44,307,33,12,05,132,14,13,03,064,11*75
$GPGSV,3,2,12,14,00,021,,15,32,073,35,18,33,191,38,22,08,039,10*72
$GPGSV,3,3,12,23,85,353,37,24,65,093,33,27,04,281,,32,25,260,23*71
$GPGLL,4506.19468,N,06839.65956,W,170030.00,A,A*76
$RDENS,1328,4682833,PC
$RDENS,1329,4682911,PC
$GPRMC,170031.00,A,4506.19435,N,06839.66016,W,1.842,231.14,180924,,,A*7A
$GPVTG,231.14,T,,M,1.842,N,3.412,K,A*33
$GPGGA,170031.00,4506.19435,N,06839.66016,W,1,07,1.14,39.0,M,-29.0,M,,*5B
$GPGSA,A,3,18,24,22,15,23,10,32,,,,,,1.83,1.14,1.43*00
$GPGSV,3,1,12,08,03,311,,10,44,307,34,12,05,132,14,13,03,064,11*72
$GPGSV,3,2,12,14,00,021,,15,32,073,36,18,33,191,38,22,08,039,10*71
$GPGSV,3,3,12,23,85,353,37,24,65,093,33,27,04,281,,32,25,260,24*76
$GPGLL,4506.19435,N,06839.66016,W,170031.00,A,A*71
$RDENS,1330,4682990,PC
$GPRMC,170032.00,A,4506.19393,N,06839.66066,W,1.914,231.67,180924,,,A*73
$GPVTG,231.67,T,,M,1.914,N,3.545,K,A*36
$GPGGA,170032.00,4506.19393,N,06839.66066,W,1,07,1.14,39.3,M,-29.0,M,,*57
$GPGSA,A,3,18,24,22,15,23,10,32,,,,,,1.83,1.14,1.43*00
$GPGSV,3,1,12,08,03,311,,10,44,307,39,12,05,132,16,13,03,064,*7D
$GPGSV,3,2,12,14,00,021,,15,32,073,36,18,33,191,38,22,08,039,08*78
$GPGSV,3,3,12,23,85,353,37,24,65,093,34,27,04,281,,32,25,260,23*76
$GPGLL,4506.19393,N,06839.66066,W,170032.00,A,A*7E
$RDENS,1331,4683069,PC
$GPRMC,170033.00,A,4506.19361,N,06839.66129,W,1.925,232.07,180924,,,A*72
$GPVTG,232.07,T,,M,1.925,N,3.565,K,A*33
$GPGGA,170033.00,4506.19361,N,06839.66129,W,1,07,1.14,39.4,M,-29.0,M,,*56
$GPGSA,A,3,18,24,22,15,23,10,32,,,,,,1.83,1.14,1.43*00
$GPGSV,3,1,12,08,03,311,,10,44,307,37,12,05,132,16,13,03,064,*73
$GPGSV,3,2,12,14,00,021,,15,32,073,35,18,33,191,38,22,08,039,08*7B
$GPGSV,3,3,12,23,85,353,37,24,65,093,33,27,04,281,,32,25,260,21*73
$GPGLL,4506.19361,N,06839.66129,W,170033.00,A,A*78
$RDENS,1332,4683147,PC
$GPRMC,170034.00,A,4506.19329,N,06839.66192,W,2.013,230.99,180924,,,A*73
$GPVTG,230.99,T,,M,2.013,N,3.727,K,A*3D
$GPGGA,170034.00,4506.19329,N,06839.66192,W,1,06,1.31,39.4,M,-29.0,M,,*5B
$GPGSA,A,3,18,24,15,23,10,32,,,,,,,2.50,1.31,2.13*0C
$GPGSV,3,1,12,08,03,311,,10,44,307,39,12,05,132,16,13,03,064,*7D
$GPGSV,3,2,12,14,00,021,,15,32,073,35,18,33,191,38,22,08,039,08*7B
$GPGSV,3,3,12,23,85,353,36,24,65,093,34,27,04,281,,32,25,260,23*77
$GPGLL,4506.19329,N,06839.66192,W,170034.00,A,A*73
$RDENS,1333,4683226,PC
$RDENS,1334,4683305,PC
$GPRMC,170035.00,A,4506.19299,N,06839.66260,W,2.013,231.42,180924,,,A*71
$GPVTG,231.42,T,,M,2.013,N,3.728,K,A*35
$GPGGA,170035.00,4506.19299,N,06839.66260,W,1,06,1.31,39.3,M,-29.0,M,,*59
$GPGSA,A,3,18,24,15,23,10,32,,,,,,,2.50,1.31,2.13*0C
$GPGSV,3,1,12,08,03,311,,10,45,307,37,12,05,132,14,13,03,064,*70
$GPGSV,3,2,12,14,00,021,,15,32,073,36,18,33,191,38,22,08,039,08*78
$GPGSV,3,3,12,23,85,353,37,24,65,093,34,27,04,281,,32,25,260,22*77
$GPGLL,4506.19299,N,06839.66260,W,170035.00,A,A*76
$RDENS,1335,4683384,PC
$GPRMC,170036.00,A,4506.19267,N,06839.66320,W,1.965,234.08,180924,,,A*76
$GPVTG,234.08,T,,M,1.965,N,3.639,K,A*34
$GPGGA,170036.00,4506.19267,N,06839.66320,W,1,06,1.31,39.2,M,-29.0,M,,*5F
$GPGSA,A,3,18,24,15,23,10,32,,,,,,,2.50,1.31,2.13*0C
$GPGSV,3,1,12,08,03,311,,10,45,307,39,12,05,132,14,13,03,064,21*7D
$GPGSV,3,2,12,14,00,021,,15,32,073,37,18,33,191,38,22,08,039,08*79
$GPGSV,3,3,12,23,85,353,38,24,65,093,34,27,04,281,,32,25,260,20*7A
$GPGLL,4506.19267,N,06839.66320,W,170036.00,A,A*71
$RDENS,1336,4683462,PC
$GPRMC,170037.00,A,4506.19237,N,06839.66382,W,1.953,234.62,180924,,,A*73
$GPVTG,234.62,T,,M,1.953,N,3.618,K,A*3E
$GPGGA,170037.00,4506.19237,N,06839.66382,W,1,06,1.31,39.3,M,-29.0,M,,*52
$GPGSA,A,3,18,24,15,23,10,32,,,,,,,2.50,1.31,2.13*0C
$GPGSV,3,1,12,08,03,311,,10,45,307,38,12,05,132,13,13,03,064,22*78
$GPGSV,3,2,12,14,00,021,,15,32,073,37,18,33,191,38,22,08,039,*71
$GPGSV,3,3,12,23,85,353,37,24,65,093,35,27,04,281,,32,25,260,20*74
$GPGLL,4506.19237,N,06839.66382,W,170037.00,A,A*7D
$RDENS,1337,4683541,PC
$RDENS,1338,4683620,PC
$GPRMC,170038.00,A,4506.19207,N,06839.66446,W,1.953,234.65,180924,,,A*77
$GPVTG,234.65,T,,M,1.953,N,3.617,K,A*36
$GPGGA,170038.00,4506.19207,N,06839.66446,W,1,06,1.31,39.2,M,-29.0,M,,*50
$GPGSA,A,3,18,24,15,23,10,32,,,,,,,2.50,1.31,2.13*0C
$GPGSV,3,1,12,08,03,311,,10,45,307,38,12,05,132,15,13,02,064,23*7E
$GPGSV,3,2,12,14,00,021,,15,32,073,38,18,33,191,38,22,08,039,*7E
$GPGSV,3,3,12,23,85,353,38,24,65,093,34,27,04,281,,32,25,260,19*70
$GPGLL,4506.19207,N,06839.66446,W,170038.00,A,A*7E
$RDENS,1339,4683699,PC
$GPRMC,170039.00,A,4506.19175,N,06839.66509,W,1.967,233.47,180924,,,A*7A
$GPVTG,233.47,T,,M,1.967,N,3.642,K,A*36
$GPGGA,170039.00,4506.19175,N,06839.66509,W,1,06,1.31,39.3,M,-29.0,M,,*5C
$GPGSA,A,3,18,24,15,23,10,32,,,,,,,2.50,1.31,2.13*0C
$GPGSV,3,1,12,08,03,311,,10,45,307,38,12,05,132,16,13,02,064,22*7C
$GPGSV,3,2,12,14,00,021,,15,32,073,38,18,33,191,38,22,08,039,*7E
$GPGSV,3,3,12,23,85,353,35,24,65,093,34,27,04,281,,32,25,260,19*7D
$GPGLL,4506.19175,N,06839.66509,W,170039.00,A,A*73
$RDENS,1340,4683777,PC
$GPRMC,170040.00,A,4506.19143,N,06839.66569,W,1.916,233.54,180924,,,A*73
$GPVTG,233.54,T,,M,1.916,N,3.549,K,A*3A
$GPGGA,170040.00,4506.19143,N,06839.66569,W,1,06,1.31,39.4,M,-29.0,M,,*56
$GPGSA,A,3,18,24,15,23,10,32,,,,,,,2.50,1.31,2.13*0C
$GPGSV,3,1,12,08,03,311,,10,45,307,38,12,05,132,18,13,02,064,22*72
$GPGSV,3,2,12,14,00,021,,15,32,073,35,18,33,191,39,22,08,039,*72
$GPGSV,3,3,12,23,85,353,38,24,65,093,34,27,04,281,,32,25,260,19*70
$GPGLL,4506.19143,N,06839.66569,W,170040.00,A,A*7E
$RDENS,1341,4683856,PC
$GPRMC,170041.00,A,4506.19110,N,06839.66632,W,1.961,233.78,180924,,,A*77
$GPVTG,233.78,T,,M,1.961,N,3.633,K,A*3A
$GPGGA,170041.00,4506.19110,N,06839.66632,W,1,06,1.31,39.5,M,-29.0,M,,*5D
$GPGSA,A,3,18,24,15,23,10,32,,,,,,,2.50,1.31,2.12*0D
$GPGSV,3,1,12,08,03,311,,10,45,307,40,12,05,132,17,13,02,064,21*71
$GPGSV,3,2,12,14,00,021,,15,32,073,37,18,33,191,40,22,08,039,*7E
$GPGSV,3,3,12,23,85,353,37,24,65,093,34,27,04,281,,32,25,260,19*7F
$GPGLL,4506.19110,N,06839.66632,W,170041.00,A,A*74
$RDENS,1342,4683935,PC
$RDENS,1343,4684014,PC
$GPRMC,170042.00,A,4506.19079,N,06839.66693,W,1.912,233.73,180924,,,A*7E
$GPVTG,233.73,T,,M,1.912,N,3.541,K,A*33
$GPGGA,170042.00,4506.19079,N,06839.66693,W,1,06,1.31,39.5,M,-29.0,M,,*5B
$GPGSA,A,3,18,24,15,23,10,32,,,,,,,2.50,1.31,2.12*0D
$GPGSV,3,1,12,08,03,311,,10,45,307,39,12,05,132,15,13,02,064,20*7C
$GPGSV,3,2,12,14,00,021,,15,32,073,37,18,33,191,39,22,08,039,*70
$GPGSV,3,3,12,23,85,353,37,24,65,093,34,27,04,281,,32,25,260,20*75
$GPGLL,4506.19079,N,06839.66693,W,170042.00,A,A*72
$RDENS,1344,4684092,PC
$GPRMC,170043.00,A,4506.19048,N,06839.66755,W,1.952,233.47,180924,,,A*75
$GPVTG,233.47,T,,M,1.952,N,3.615,K,A*32
$GPGGA,170043.00,4506.19048,N,06839.66755,W,1,06,1.31,39.5,M,-29.0,M,,*53
$GPGSA,A,3,18,24,15,23,10,32,,,,,,,2.50,1.31,2.12*0D
$GPGSV,3,1,12,08,03,311,,10,45,307,39,12,05,132,16,13,02,064,20*7F
$GPGSV,3,2,12,14,00,021,,15,32,073,37,18,32,191,38,22,08,039,*70
$GPGSV,3,3,12,23,85,353,37,24,65,093,34,27,04,281,,32,25,260,20*75
$GPGLL,4506.19048,N,06839.66755,W,170043.00,A,A*7A
$RDENS,1345,4684171,PC
$GPRMC,170044.00,A,4506.19019,N,06839.66816,W,1.901,233.54,180924,,,A*7A
$GPVTG,233.54,T,,M,1.901,N,3.521,K,A*32
$GPGGA,170044.00,4506.19019,N,06839.66816,W,1,06,1.31,39.4,M,-29.0,M,,*59
$GPGSA,A,3,18,24,15,23,10,32,,,,,,,2.50,1.31,2.12*0D
$GPGSV,3,1,12,08,03,311,,10,45,307,36,12,05,132,16,13,02,064,21*71
$GPGSV,3,2,12,14,00,021,,15,32,073,37,18,32,191,38,22,08,039,*70
$GPGSV,3,3,12,23,85,353,37,24,65,093,34,27,04,281,,32,25,260,20*75
$GPGLL,4506.19019,N,06839.66816,W,170044.00,A,A*71
$RDENS,1346,4684249,PC
$GPRMC,170045.00,A,4506.18989,N,06839.66877,W,1.931,233.68,180924,,,A*71
$GPVTG,233.68,T,,M,1.931,N,3.577,K,A*3D
$GPGGA,170045.00,4506.18989,N,06839.66877,W,1,06,1.31,39.4,M,-29.0,M,,*5E
$GPGSA,A,3,18,24,15,23,10,32,,,,,,,2.50,1.31,2.12*0D
$GPGSV,3,1,12,08,03,311,,10,45,307,38,12,05,132,16,13,02,064,22*7C
$GPGSV,3,2,12,14,00,021,,15,32,073,37,18,32,191,38,22,08,039,*70
$GPGSV,3,3,12,23,85,353,38,24,65,093,35,27,04,281,,32,25,260,19*71
$GPGLL,4506.18989,N,06839.66877,W,170045.00,A,A*76
$RDENS,1347,4684328,PC
$RDENS,1348,4684407,PC
$GPRMC,170046.00,A,4506.18958,N,06839.66937,W,1.883,233.61,180924,,,A*7A
$GPVTG,233.61,T,,M,1.883,N,3.488,K,A*3D
$GPGGA,170046.00,4506.18958,N,06839.66937,W,1,06,1.31,39.5,M,-29.0,M,,*55
$GPGSA,A,3,18,24,15,23,10,32,,,,,,,2.50,1.31,2.12*0D
$GPGSV,3,1,12,08,03,311,,10,45,307,38,12,05,132,17,13,02,064,23*7C
$GPGSV,3,2,12,14,00,021,,15,32,073,37,18,32,191,38,22,08,039,*70
$GPGSV,3,3,12,23,85,353,37,24,65,093,34,27,04,281,,32,25,260,20*75
$GPGLL,4506.18958,N,06839.66937,W,170046.00,A,A*7C
$RDENS,1349,4684485,PC
$GPRMC,170047.00,A,4506.18927,N,06839.66997,W,1.901,232.32,180924,,,A*75
$GPVTG,232.32,T,,M,1.901,N,3.520,K,A*32
$GPGGA,170047.00,4506.18927,N,06839.66997,W,1,06,1.31,39.4,M,-29.0,M,,*57
$GPGSA,A,3,18,24,15,23,10,32,,,,,,,2.50,1.31,2.12*0D
$GPGSV,3,1,12,08,03,311,,10,45,307,37,12,05,132,16,13,02,064,23*72
$GPGSV,3,2,12,14,00,021,,15,32,073,37,18,32,191,38,22,08,038,*71
$GPGSV,3,3,12,23,85,353,37,24,65,093,34,27,04,281,,32,25,260,21*74
$GPGLL,4506.18927,N,06839.66997,W,170047.00,A,A*7F
$RDENS,1350,4684565,PC
$GPRMC,170048.00,A,4506.18895,N,06839.67057,W,1.934,231.49,180924,,,A*7F
$GPVTG,231.49,T,,M,1.934,N,3.583,K,A*32
$GPGGA,170048.00,4506.18895,N,06839.67057,W,1,06,1.31,39.4,M,-29.0,M,,*54
$GPGSA,A,3,18,24,15,23,10,32,,,,,,,2.50,1.31,2.12*0D
$GPGSV,3,1,12,08,03,311,,10,45,307,37,12,05,132,14,13,02,064,21*72
$GPGSV,3,2,12,14,00,021,,15,32,073,36,18,32,191,38,22,08,038,*70
$GPGSV,3,3,12,23,85,355,37,24,65,093,34,27,04,281,,32,25,260,20*73
$GPGLL,4506.18895,N,06839.67057,W,170048.00,A,A*7C
$RDENS,1351,4684642,PC
$RDENS,1352,4684722,PC
$GPRMC,170049.00,A,4506.18864,N,06839.67117,W,1.915,231.57,180924,,,A*79
$GPVTG,231.57,T,,M,1.915,N,3.547,K,A*36
$GPGGA,170049.00,4506.18864,N,06839.67117,W,1,06,1.31,39.4,M,-29.0,M,,*5E
$GPGSA,A,3,18,24,15,23,10,32,,,,,,,2.50,1.31,2.12*0D
$GPGSV,3,1,12,08,03,311,,10,45,307,37,12,05,132,15,13,02,064,21*73
$GPGSV,3,2,12,14,00,021,,15,32,073,36,18,32,191,38,22,08,038,*70
$GPGSV,3,3,12,23,85,355,37,24,65,093,35,27,04,281,,32,25,260,20*72
$GPGLL,4506.18864,N,06839.67117,W,170049.00,A,A*76
$RDENS,1353,4684800,PC
$GPRMC,170050.00,A,4506.18833,N,06839.67175,W,1.873,231.37,180924,,,A*70
$GPVTG,231.37,T,,M,1.873,N,3.469,K,A*3C
$GPGGA,170050.00,4506.18833,N,06839.67175,W,1,06,1.31,39.5,M,-29.0,M,,*51
$GPGSA,A,3,18,24,15,23,10,32,,,,,,,2.50,1.31,2.12*0D
$GPGSV,3,1,12,08,03,311,,10,45,307,35,12,05,132,15,13,02,064,21*71
$GPGSV,3,2,12,14,00,021,,15,32,073,36,18,32,191,38,22,08,038,*70
$GPGSV,3,3,12,23,85,355,37,24,65,093,35,27,04,281,,32,25,260,22*70
$GPGLL,4506.18833,N,06839.67175,W,170050.00,A,A*78
$RDENS,1354,4684879,PC
$GPRMC,170051.00,A,4506.18801,N,06839.67236,W,1.944,232.95,180924,,,A*7A
$GPVTG,232.95,T,,M,1.944,N,3.601,K,A*3E
$GPGGA,170051.00,4506.18801,N,06839.67236,W,1,06,1.31,39.4,M,-29.0,M,,*54
$GPGSA,A,3,18,24,15,23,10,32,,,,,,,2.50,1.31,2.12*0D
$GPGSV,3,1,12,08,03,311,,10,45,307,26,12,05,132,15,13,02,064,22*70
$GPGSV,3,2,12,14,00,021,,15,32,073,37,18,32,191,38,22,08,038,*71
$GPGSV,3,3,12,23,85,355,38,24,65,093,35,27,04,281,,32,25,260,22*7F
$GPGLL,4506.18801,N,06839.67236,W,170051.00,A,A*7C
$RDENS,1355,4684958,PC
$GPRMC,170052.00,A,4506.18770,N,06839.67296,W,1.868,230.33,180924,,,A*7B
$GPVTG,230.33,T,,M,1.868,N,3.459,K,A*30
$GPGGA,170052.00,4506.18770,N,06839.67296,W,1,06,1.31,39.4,M,-29.0,M,,*54
$GPGSA,A,3,18,24,15,23,10,32,,,,,,,2.50,1.31,2.12*0D
$GPGSV,3,1,12,08,03,311,,10,45,307,32,12,05,132,15,13,02,064,23*74
$GPGSV,3,2,12,14,00,021,,15,32,073,37,18,32,191,38,22,08,038,*71
$GPGSV,3,3,12,23,85,355,37,24,65,093,34,27,04,281,,32,25,260,21*72
$GPGLL,4506.18770,N,06839.67296,W,170052.00,A,A*7C
$RDENS,1356,4685036,PC
$RDENS,1357,4685115,PC
$GPRMC,170053.00,A,4506.18739,N,06839.67354,W,1.869,230.16,180924,,,A*7E
$GPVTG,230.16,T,,M,1.869,N,3.462,K,A*3E
$GPGGA,170053.00,4506.18739,N,06839.67354,W,1,06,1.31,39.4,M,-29.0,M,,*57
$GPGSA,A,3,18,24,15,23,10,32,,,,,,,2.50,1.31,2.12*0D
$GPGSV,3,1,12,08,03,311,,10,45,307,35,12,05,132,15,13,02,064,25*75
$GPGSV,3,2,12,14,00,021,,15,32,073,37,18,32,191,38,22,08,038,*71
$GPGSV,3,3,12,23,85,355,37,24,65,093,35,27,04,281,,32,25,260,20*72
$GPGLL,4506.18739,N,06839.67354,W,170053.00,A,A*7F
$RDENS,1358,4685194,PC
$GPRMC,170054.00,A,4506.18713,N,06839.67415,W,1.822,231.09,180924,,,A*73
$GPVTG,231.09,T,,M,1.822,N,3.374,K,A*3E
$GPGGA,170054.00,4506.18713,N,06839.67415,W,1,06,1.31,39.3,M,-29.0,M,,*5D
$GPGSA,A,3,18,24,15,23,10,32,,,,,,,2.50,1.31,2.12*0D
$GPGSV,3,1,12,08,03,311,,10,45,307,37,12,05,132,15,13,02,064,26*74
$GPGSV,3,2,12,14,00,021,,15,32,073,37,18,32,191,38,22,08,038,*71
$GPGSV,3,3,12,23,85,355,38,24,65,093,35,27,04,281,,32,25,260,19*77
$GPGLL,4506.18713,N,06839.67415,W,170054.00,A,A*72
$RDENS,1359,4685273,PC
$GPRMC,170055.00,A,4506.18681,N,06839.67468,W,1.805,231.07,180924,,,A*79
$GPVTG,231.07,T,,M,1.805,N,3.343,K,A*31
$GPGGA,170055.00,4506.18681,N,06839.67468,W,1,06,1.31,39.4,M,-29.0,M,,*5B
$GPGSA,A,3,18,24,15,23,10,32,,,,,,,2.50,1.31,2.12*0D
$GPGSV,3,1,12,08,03,311,,10,45,307,28,12,05,132,15,13,02,064,27*7B
$GPGSV,3,2,12,14,00,021,,15,32,073,38,18,32,191,38,22,08,038,*7E
$GPGSV,3,3,12,23,85,355,37,24,65,093,35,27,04,281,,32,25,260,18*79
$GPGLL,4506.18681,N,06839.67468,W,170055.00,A,A*73
$RDENS,1360,4685351,PC
$GPRMC,170056.00,A,4506.18647,N,06839.67519,W,1.798,229.49,180924,,,A*7F
$GPVTG,229.49,T,,M,1.798,N,3.330,K,A*3D
$GPGGA,170056.00,4506.18647,N,06839.67519,W,1,06,1.31,39.5,M,-29.0,M,,*54
$GPGSA,A,3,18,24,15,23,10,32,,,,,,,2.50,1.31,2.12*0D
$GPGSV,3,1,12,08,03,311,,10,45,307,27,12,05,132,15,13,02,064,28*7B
$GPGSV,3,2,12,14,00,021,,15,32,073,38,18,32,191,38,22,08,038,*7E
$GPGSV,3,3,12,23,85,355,37,24,65,093,34,27,04,281,,32,25,260,18*78
$GPGLL,4506.18647,N,06839.67519,W,170056.00,A,A*7D
$RDENS,1361,4685431,PC
$RDENS,1362,4685509,PC
$GPRMC,170057.00,A,4506.18613,N,06839.67572,W,1.780,227.44,180924,,,A*78
$GPVTG,227.44,T,,M,1.780,N,3.297,K,A*3B
$GPGGA,170057.00,4506.18613,N,06839.67572,W,1,06,1.31,39.5,M,-29.0,M,,*59
$GPGSA,A,3,18,24,15,23,10,32,,,,,,,2.50,1.31,2.12*0D
$GPGSV,3,1,12,08,03,311,,10,45,307,29,12,05,132,16,13,02,064,28*76
$GPGSV,3,2,12,14,00,021,,15,32,073,37,18,32,191,38,22,08,038,*71
$GPGSV,3,3,12,23,85,355,38,24,65,093,34,27,04,281,,32,25,260,19*76
$GPGLL,4506.18613,N,06839.67572,W,170057.00,A,A*70
$RDENS,1363,4685588,PC
$GPRMC,170058.00,A,4506.18588,N,06839.67636,W,1.834,233.48,180924,,,A*7C
$GPVTG,233.48,T,,M,1.834,N,3.397,K,A*33
$GPGGA,170058.00,4506.18588,N,06839.67636,W,1,06,1.31,39.4,M,-29.0,M,,*55
$GPGSA,A,3,18,24,15,23,10,32,,,,,,,2.50,1.31,2.12*0D
$GPGSV,3,1,12,08,03,311,,10,45,307,34,12,05,132,17,13,02,064,29*7A
$GPGSV,3,2,12,14,00,021,,15,32,073,37,18,32,191,38,22,08,038,*71
$GPGSV,3,3,12,23,85,355,38,24,65,093,35,27,04,281,,32,25,260,18*76
$GPGLL,4506.18588,N,06839.67636,W,170058.00,A,A*7D
$RDENS,1364,4685666,PC
$GPRMC,170059.00,A,4506.18559,N,06839.67695,W,1.841,235.63,180924,,,A*75
$GPVTG,235.63,T,,M,1.841,N,3.410,K,A*36
$GPGGA,170059.00,4506.18559,N,06839.67695,W,1,06,1.31,39.4,M,-29.0,M,,*51
$GPGSA,A,3,18,24,15,23,10,32,,,,,,,2.50,1.31,2.12*0D
$GPGSV,3,1,12,08,03,311,,10,45,307,34,12,05,132,16,13,02,064,29*7B
$GPGSV,3,2,12,14,00,021,,15,32,073,37,18,32,191,38,22,08,038,*71
$GPGSV,3,3,12,23,85,355,38,24,65,093,35,27,04,281,,32,25,260,17*79
$GPGLL,4506.18559,N,06839.67695,W,170059.00,A,A*79
$RDENS,1365,4685745,PC
$GPRMC,170100.00,A,4506.18535,N,06839.67759,W,1.828,237.52,180924,,,A*7C
$GPVTG,237.52,T,,M,1.828,N,3.386,K,A*31
$RDENS,1366,4685824,PC
$GPGGA,170100.00,4506.18535,N,06839.67759,W,1,06,1.31,39.4,M,-29.0,M,,*57
$GPGSA,A,3,18,24,15,23,10,32,,,,,,,2.50,1.31,2.12*0D
$GPGSV,3,1,12,08,03,311,,10,45,307,33,12,05,132,17,13,02,064,29*7D
$GPGSV,3,2,12,14,00,021,,15,32,073,38,18,32,191,38,22,08,038,*7E
$GPGSV,3,3,12,23,85,355,37,24,65,093,34,27,04,281,,32,25,260,17*77
$GPGLL,4506.18535,N,06839.67759,W,170100.00,A,A*7F
$RDENS,1367,4685903,PC
$GPRMC,170101.00,A,4506.18511,N,06839.67824,W,1.813,238.08,180924,,,A*76
$GPVTG,238.08,T,,M,1.813,N,3.357,K,A*35
$GPGGA,170101.00,4506.18511,N,06839.67824,W,1,06,1.31,39.4,M,-29.0,M,,*55
$GPGSA,A,3,18,24,15,23,10,32,,,,,,,2.50,1.31,2.12*0D
$GPGSV,3,1,12,08,03,311,,10,45,307,36,12,05,132,17,13,02,064,29*78
$GPGSV,3,2,12,14,00,021,,15,32,073,38,18,32,191,38,22,08,038,*7E
$GPGSV,3,3,12,23,85,355,37,24,65,093,35,27,04,281,,32,25,260,17*76
$GPGLL,4506.18511,N,06839.67824,W,170101.00,A,A*7D
$RDENS,1368,4685981,PC
$GPRMC,170102.00,A,4506.18482,N,06839.67881,W,1.786,237.86,180924,,,A*7B
$GPVTG,237.86,T,,M,1.786,N,3.309,K,A*34
$GPGGA,170102.00,4506.18482,N,06839.67881,W,1,06,1.31,39.6,M,-29.0,M,,*50
$GPGSA,A,3,18,24,15,23,10,32,,,,,,,2.50,1.31,2.12*0D
$GPGSV,3,1,12,08,03,311,,10,45,307,32,12,05,132,16,13,02,064,28*7C
$GPGSV,3,2,12,14,00,021,,15,32,073,38,18,32,191,38,22,08,038,*7E
$GPGSV,3,3,12,23,85,355,37,24,65,093,34,27,04,281,,32,25,260,17*77
$GPGLL,4506.18482,N,06839.67881,W,170102.00,A,A*7A
$RDENS,1369,4686060,PC
$GPRMC,170103.00,A,4506.18456,N,06839.67939,W,1.756,239.57,180924,,,A*7E
$GPVTG,239.57,T,,M,1.756,N,3.252,K,A*34
$GPGGA,170103.00,4506.18456,N,06839.67939,W,1,06,1.31,39.8,M,-29.0,M,,*54
$GPGSA,A,3,18,24,15,23,10,32,,,,,,,2.50,1.31,2.12*0D
$GPGSV,3,1,12,08,03,311,,10,45,307,22,12,05,132,16,13,02,064,27*72
$GPGSV,3,2,12,14,00,021,,15,32,073,38,18,32,191,39,22,08,038,*7F
$GPGSV,3,3,12,23,85,355,37,24,65,093,35,27,04,281,,32,25,260,18*79
$GPGLL,4506.18456,N,06839.67939,W,170103.00,A,A*70
$RDENS,1370,4686138,PC
$RDENS,1371,4686218,PC
$GPRMC,170104.00,A,4506.18434,N,06839.68003,W,1.886,244.36,180924,,,A*7D
$GPVTG,244.36,T,,M,1.886,N,3.493,K,A*30
$GPGGA,170104.00,4506.18434,N,06839.68003,W,1,06,1.31,39.9,M,-29.0,M,,*59
$GPGSA,A,3,18,24,15,23,10,32,,,,,,,2.50,1.31,2.12*0D
$GPGSV,3,1,12,08,03,311,,10,45,307,30,12,05,132,16,13,02,064,26*70
$GPGSV,3,2,12,14,00,021,,15,32,073,38,18,32,191,38,22,08,038,*7E
$GPGSV,3,3,12,23,85,355,37,24,65,093,34,27,04,281,,32,25,260,19*79
$GPGLL,4506.18434,N,06839.68003,W,170104.00,A,A*7C
$RDENS,1372,4686296,PC
$GPRMC,170105.00,A,4506.18408,N,06839.68065,W,1.832,241.75,180924,,,A*7E
$GPVTG,241.75,T,,M,1.832,N,3.393,K,A*3A
$GPGGA,170105.00,4506.18408,N,06839.68065,W,1,06,1.31,40.1,M,-29.0,M,,*51
$GPGSA,A,3,18,24,15,23,10,32,,,,,,,2.50,1.31,2.12*0D
$GPGSV,3,1,12,08,03,311,,10,45,307,34,12,05,132,14,13,02,064,24*74
$GPGSV,3,2,12,14,00,021,,15,32,073,37,18,32,191,37,22,08,038,*7E
$GPGSV,3,3,12,23,85,355,37,24,65,093,34,27,04,281,,32,25,260,19*79
$GPGLL,4506.18408,N,06839.68065,W,170105.00,A,A*72
$RDENS,1373,4686375,PC
$GPRMC,170106.00,A,4506.18383,N,06839.68127,W,1.765,240.71,180924,,,A*76
$GPVTG,240.71,T,,M,1.765,N,3.268,K,A*37
$GPGGA,170106.00,4506.18383,N,06839.68127,W,1,06,1.31,40.2,M,-29.0,M,,*52
$GPGSA,A,3,18,24,15,23,10,32,,,,,,,2.50,1.31,2.12*0D
$GPGSV,3,1,12,08,03,311,,10,45,307,36,12,05,132,14,13,02,064,22*70
$GPGSV,3,2,12,14,00,021,,15,32,073,38,18,32,191,37,22,08,038,*71
$GPGSV,3,3,12,23,85,355,37,24,65,093,33,27,04,281,,32,25,260,18*7F
$GPGLL,4506.18383,N,06839.68127,W,170106.00,A,A*72
$RDENS,1374,4686454,PC
$GPRMC,170107.00,A,4506.18363,N,06839.68194,W,1.842,242.60,180924,,,A*79
$GPVTG,242.60,T,,M,1.842,N,3.411,K,A*37
$GPGGA,170107.00,4506.18363,N,06839.68194,W,1,06,1.31,40.2,M,-29.0,M,,*55
$GPGSA,A,3,18,24,15,23,10,32,,,,,,,2.50,1.31,2.12*0D
$GPGSV,3,1,12,08,03,311,,10,45,307,33,12,05,132,14,13,02,064,20*77
$GPGSV,3,2,12,14,00,021,,15,32,073,38,18,32,191,37,22,08,038,*71
$GPGSV,3,3,12,23,85,355,36,24,65,093,33,27,04,281,,32,25,260,17*71
$GPGLL,4506.18363,N,06839.68194,W,170107.00,A,A*75
$RDENS,1375,4686532,PC
$RDENS,1376,4686611,PC
$GPRMC,170108.00,A,4506.18334,N,06839.68252,W,1.845,241.38,180924,,,A*74
$GPVTG,241.38,T,,M,1.845,N,3.417,K,A*38
$GPGGA,170108.00,4506.18334,N,06839.68252,W,1,06,1.31,40.3,M,-29.0,M,,*50
$GPGSA,A,3,18,24,15,23,10,32,,,,,,,2.50,1.31,2.12*0D
$GPGSV,3,1,12,08,03,311,,10,45,307,33,12,05,132,14,13,02,064,21*76
$GPGSV,3,2,12,14,00,021,,15,32,073,38,18,32,191,37,22,08,038,*71
$GPGSV,3,3,12,23,85,355,37,24,65,093,33,27,04,281,,32,25,260,17*70
$GPGLL,4506.18334,N,06839.68252,W,170108.00,A,A*71
$RDENS,1377,4686689,PC
$GPRMC,170109.00,A,4506.18308,N,06839.68314,W,1.795,241.51,180924,,,A*74
$GPVTG,241.51,T,,M,1.795,N,3.324,K,A*32
$GPGGA,170109.00,4506.18308,N,06839.68314,W,1,06,1.31,40.2,M,-29.0,M,,*5C
$GPGSA,A,3,18,24,15,23,10,32,,,,,,,2.50,1.31,2.12*0D
$GPGSV,3,1,12,08,03,311,,10,45,307,35,12,05,132,16,13,02,064,21*72
$GPGSV,3,2,12,14,00,021,,15,32,073,37,18,32,191,38,22,08,038,*71
$GPGSV,3,3,12,23,85,355,37,24,65,093,33,27,04,281,,32,25,260,17*70
$GPGLL,4506.18308,N,06839.68314,W,170109.00,A,A*7C
$RDENS,1378,4686769,PC
$GPRMC,170110.00,A,4506.18286,N,06839.68383,W,1.809,240.20,180924,,,A*78
$GPVTG,240.20,T,,M,1.809,N,3.350,K,A*3C
$GPGGA,170110.00,4506.18286,N,06839.68383,W,1,06,1.31,40.2,M,-29.0,M,,*5D
$GPGSA,A,3,18,24,15,23,10,32,,,,,,,2.50,1.31,2.12*0D
$GPGSV,3,1,12,08,03,311,,10,45,307,36,12,05,132,16,13,02,064,22*72
$GPGSV,3,2,12,14,00,021,,15,32,073,35,18,32,191,37,22,08,038,*7C
$GPGSV,3,3,12,23,85,355,37,24,65,093,33,27,04,281,,32,25,260,16*71
$GPGLL,4506.18286,N,06839.68383,W,170110.00,A,A*7D
$RDENS,1379,4686847,PC
$GPRMC,170111.00,A,4506.18260,N,06839.68446,W,1.800,237.77,180924,,,A*74
$GPVTG,237.77,T,,M,1.800,N,3.333,K,A*32
$GPGGA,170111.00,4506.18260,N,06839.68446,W,1,06,1.31,40.1,M,-29.0,M,,*59
$GPGSA,A,3,18,24,15,23,10,32,,,,,,,2.50,1.31,2.12*0D
$GPGSV,3,1,12,08,03,311,,10,45,307,36,12,05,132,15,13,02,064,22*71
$GPGSV,3,2,12,14,00,021,,15,32,073,36,18,32,191,37,22,08,038,*7F
$GPGSV,3,3,12,23,85,355,37,24,65,093,33,27,04,281,,32,25,260,17*70
$GPGLL,4506.18260,N,06839.68446,W,170111.00,A,A*7A
$RDENS,1380,4686925,PC
$RDENS,1381,4687005,PC
$GPRMC,170112.00,A,4506.18230,N,06839.68505,W,1.817,238.54,180924,,,A*7C
$GPVTG,238.54,T,,M,1.817,N,3.365,K,A*39
$GPGGA,170112.00,4506.18230,N,06839.68505,W,1,06,1.31,40.2,M,-29.0,M,,*5A
$GPGSA,A,3,18,24,15,23,10,32,,,,,,,2.50,1.31,2.12*0D
$GPGSV,3,1,12,08,03,311,,10,45,307,31,12,05,132,16,13,02,064,23*74
$GPGSV,3,2,12,14,00,021,,15,32,073,38,18,32,191,37,22,08,038,*71
$GPGSV,3,3,12,23,85,355,37,24,65,093,33,27,04,281,,32,25,260,17*70
$GPGLL,4506.18230,N,06839.68505,W,170112.00,A,A*7A
$RDENS,1382,4687083,PC
$GPRMC,170113.00,A,4506.18204,N,06839.68569,W,1.905,239.77,180924,,,A*72
$GPVTG,239.77,T,,M,1.905,N,3.528,K,A*34
$GPGGA,170113.00,4506.18204,N,06839.68569,W,1,06,1.31,40.2,M,-29.0,M,,*56
$GPGSA,A,3,18,24,15,23,10,32,,,,,,,2.50,1.31,2.12*0D
$GPGSV,3,1,12,08,03,311,,10,45,307,25,12,05,132,16,13,02,064,25*77
$GPGSV,3,2,12,14,00,021,,15,32,073,38,18,32,191,37,22,08,038,*71
$GPGSV,3,3,12,23,85,355,37,24,65,093,33,27,04,281,,32,25,260,18*7F
$GPGLL,4506.18204,N,06839.68569,W,170113.00,A,A*76
$RDENS,1383,4687162,PC
$GPRMC,170114.00,A,4506.18168,N,06839.68615,W,1.665,233.97,180924,,,A*79
$GPVTG,233.97,T,,M,1.665,N,3.084,K,A*3A
$GPGGA,170114.00,4506.18168,N,06839.68615,W,1,06,1.31,40.5,M,-29.0,M,,*57
$GPGSA,A,3,18,24,15,23,10,32,,,,,,,2.50,1.31,2.12*0D
$GPGSV,3,1,12,08,03,311,,10,45,307,31,12,05,132,16,13,02,064,26*71
$GPGSV,3,2,12,14,00,021,,15,32,073,38,18,32,191,37,22,08,038,*71
$GPGSV,3,3,12,23,85,355,37,24,65,093,33,27,04,281,,32,25,260,19*7E
$GPGLL,4506.18168,N,06839.68615,W,170114.00,A,A*70
$RDENS,1384,4687241,PC
$RDENS,1385,4687319,PC
$GPRMC,170115.00,A,4506.18136,N,06839.68663,W,1.676,229.80,180924,,,A*7D
$GPVTG,229.80,T,,M,1.676,N,3.103,K,A*3B
$GPGGA,170115.00,4506.18136,N,06839.68663,W,1,06,1.31,40.7,M,-29.0,M,,*5E
$GPGSA,A,3,18,24,15,23,10,32,,,,,,,2.50,1.31,2.12*0D
$GPGSV,3,1,12,08,03,311,,10,45,307,31,12,05,132,17,13,02,064,27*71
$GPGSV,3,2,12,14,00,021,,15,32,073,37,18,32,191,37,22,08,038,*7E
$GPGSV,3,3,12,23,85,355,37,24,65,093,34,27,04,281,,32,25,260,19*79
$GPGLL,4506.18136,N,06839.68663,W,170115.00,A,A*7B
$RDENS,1386,4687398,PC
$GPRMC,170116.00,A,4506.18112,N,06839.68724,W,1.792,234.65,180924,,,A*76
$GPVTG,234.65,T,,M,1.792,N,3.319,K,A*3E
$GPGGA,170116.00,4506.18112,N,06839.68724,W,1,06,1.31,40.6,M,-29.0,M,,*58
$GPGSA,A,3,18,24,15,23,10,32,,,,,,,2.49,1.31,2.12*05
$GPGSV,3,1,12,08,03,311,,10,45,307,32,12,05,132,16,13,02,064,26*72
$GPGSV,3,2,12,14,00,021,,15,32,073,37,18,32,191,37,22,08,038,*7E
$GPGSV,3,3,12,23,85,355,37,24,65,093,36,27,04,281,,32,25,260,19*7B
$GPGLL,4506.18112,N,06839.68724,W,170116.00,A,A*7C
$RDENS,1387,4687477,PC
$GPRMC,170117.00,A,4506.18081,N,06839.68781,W,1.809,234.93,180924,,,A*77
$GPVTG,234.93,T,,M,1.809,N,3.350,K,A*37
$GPGGA,170117.00,4506.18081,N,06839.68781,W,1,06,1.31,40.7,M,-29.0,M,,*5C
$GPGSA,A,3,18,24,15,23,10,32,,,,,,,2.49,1.31,2.12*05
$GPGSV,3,1,12,08,03,311,,10,45,307,29,12,05,132,18,13,02,064,25*75
$GPGSV,3,2,12,14,00,021,,15,32,073,37,18,32,191,37,22,08,038,*7E
$GPGSV,3,3,12,23,85,355,37,24,65,093,34,27,04,281,,32,25,260,18*78
$GPGLL,4506.18081,N,06839.68781,W,170117.00,A,A*79
$RDENS,1388,4687556,PC
$GPRMC,170118.00,A,4506.18050,N,06839.68835,W,1.756,235.41,180924,,,A*7F
$GPVTG,235.41,T,,M,1.756,N,3.253,K,A*3E
$GPGGA,170118.00,4506.18050,N,06839.68835,W,1,06,1.31,40.9,M,-29.0,M,,*51
$GPGSA,A,3,18,24,15,23,10,32,,,,,,,2.49,1.31,2.12*05
$GPGSV,3,1,12,08,03,311,,10,45,307,30,12,05,132,16,13,02,064,24*72
$GPGSV,3,2,12,14,00,021,,15,32,073,37,18,32,191,37,22,08,038,*7E
$GPGSV,3,3,12,23,85,355,37,24,65,093,34,27,04,281,,32,25,260,18*78
$GPGLL,4506.18050,N,06839.68835,W,170118.00,A,A*7A
$RDENS,1389,4687634,PC
$RDENS,1390,4687713,PC
$GPRMC,170119.00,A,4506.18022,N,06839.68890,W,1.716,233.59,180924,,,A*7F
$GPVTG,233.59,T,,M,1.716,N,3.178,K,A*3F
$GPGGA,170119.00,4506.18022,N,06839.68890,W,1,06,1.31,40.9,M,-29.0,M,,*5A
$GPGSA,A,3,18,24,15,23,10,32,,,,,,,2.49,1.31,2.12*05
$GPGSV,3,1,12,08,03,311,,10,45,307,30,12,05,132,16,13,02,064,24*72
$GPGSV,3,2,12,14,00,021,,15,32,073,37,18,32,191,38,22,08,038,*71
$GPGSV,3,3,12,23,85,355,36,24,65,093,34,27,04,281,,32,25,260,18*79
$GPGLL,4506.18022,N,06839.68890,W,170119.00,A,A*71
$RDENS,1391,4687792,PC
$GPRMC,170120.00,A,4506.17993,N,06839.68946,W,1.775,231.84,180924,,,A*74
$GPVTG,231.84,T,,M,1.775,N,3.286,K,A*3A
$GPGGA,170120.00,4506.17993,N,06839.68946,W,1,06,1.31,41.0,M,-29.0,M,,*5E
$GPGSA,A,3,18,24,15,23,10,32,,,,,,,2.49,1.31,2.12*05
$GPGSV,3,1,12,08,03,311,,10,45,307,31,12,06,132,16,13,02,064,22*76
$GPGSV,3,2,12,14,00,021,,15,32,073,37,18,32,191,37,22,08,038,*7E
$GPGSV,3,3,12,23,85,355,36,24,65,093,34,27,04,281,,32,25,260,19*78
$GPGLL,4506.17993,N,06839.68946,W,170120.00,A,A*7D
$RDENS,1392,4687871,PC
$GPRMC,170121.00,A,4506.17962,N,06839.68997,W,1.702,232.18,180924,,,A*71
$GPVTG,232.18,T,,M,1.702,N,3.151,K,A*35
$GPGGA,170121.00,4506.17962,N,06839.68997,W,1,06,1.31,41.1,M,-29.0,M,,*5C
$GPGSA,A,3,18,24,15,23,10,32,,,,,,,2.49,1.31,2.12*05
$GPGSV,3,1,12,08,03,311,,10,45,307,26,12,06,132,17,13,02,065,21*73
$GPGSV,3,2,12,14,00,021,,15,32,073,37,18,32,191,37,22,08,038,*7E
$GPGSV,3,3,12,23,85,355,37,24,65,093,34,27,04,281,,32,25,260,18*78
$GPGLL,4506.17962,N,06839.68997,W,170121.00,A,A*7E
$RDENS,1393,4687949,PC
$GPRMC,170122.00,A,4506.17931,N,06839.69050,W,1.767,235.24,180924,,,A*7C
$GPVTG,235.24,T,,M,1.767,N,3.272,K,A*3C
$GPGGA,170122.00,4506.17931,N,06839.69050,W,1,06,1.31,41.1,M,-29.0,M,,*5A
$GPGSA,A,3,18,24,15,23,10,32,,,,,,,2.49,1.31,2.12*05
$GPGSV,3,1,12,08,03,311,,10,45,307,30,12,06,132,17,13,02,065,23*76
$GPGSV,3,2,12,14,00,021,,15,32,073,36,18,32,191,37,22,08,038,*7F
$GPGSV,3,3,12,23,85,355,36,24,65,093,36,27,04,281,,32,25,260,18*7B
$GPGLL,4506.17931,N,06839.69050,W,170122.00,A,A*78
$RDENS,1394,4688028,PC
$RDENS,1395,4688107,PC
$GPRMC,170123.00,A,4506.17900,N,06839.69102,W,1.758,235.58,180924,,,A*7E
$GPVTG,235.58,T,,M,1.758,N,3.255,K,A*3E
$GPGGA,170123.00,4506.17900,N,06839.69102,W,1,06,1.31,41.1,M,-29.0,M,,*5F
$GPGSA,A,3,18,24,15,23,10,32,,,,,,,2.49,1.31,2.12*05
$GPGSV,3,1,12,08,03,311,,10,45,307,34,12,06,132,18,13,02,065,26*78
$GPGSV,3,2,12,14,00,021,,15,32,073,35,18,32,191,35,22,08,038,*7E
$GPGSV,3,3,12,23,85,355,36,24,65,093,33,27,04,281,,32,25,260,17*71
$GPGLL,4506.17900,N,06839.69102,W,170123.00,A,A*7D
$RDENS,1396,4688185,PC
$GPRMC,170124.00,A,4506.17874,N,06839.69164,W,1.795,235.03,180924,,,A*74
$GPVTG,235.03,T,,M,1.795,N,3.324,K,A*36
$GPGGA,170124.00,4506.17874,N,06839.69164,W,1,06,1.31,41.0,M,-29.0,M,,*5B
$GPGSA,A,3,18,24,15,23,10,32,,,,,,,2.49,1.31,2.12*05
$GPGSV,3,1,12,08,03,311,,10,45,307,35,12,06,132,18,13,02,065,25*7A
$GPGSV,3,2,12,14,00,021,,15,32,073,35,18,32,191,36,22,08,038,*7D
$GPGSV,3,3,12,23,85,355,34,24,65,093,34,27,04,281,,32,25,260,19*7A
$GPGLL,4506.17874,N,06839.69164,W,170124.00,A,A*78
$RDENS,1397,4688264,PC
$GPRMC,170125.00,A,4506.17844,N,06839.69220,W,1.752,233.84,180924,,,A*77
$GPVTG,233.84,T,,M,1.752,N,3.244,K,A*33
$GPGGA,170125.00,4506.17844,N,06839.69220,W,1,06,1.31,41.1,M,-29.0,M,,*5B
$GPGSA,A,3,18,24,15,23,10,32,,,,,,,2.49,1.31,2.12*05
$GPGSV,3,1,12,08,03,311,,10,45,307,30,12,06,132,17,13,02,065,26*73
$GPGSV,3,2,12,14,00,021,,15,32,073,35,18,32,191,35,22,08,038,*7E
$GPGSV,3,3,12,23,85,355,35,24,65,093,35,27,04,281,,32,25,260,20*70
$GPGLL,4506.17844,N,06839.69220,W,170125.00,A,A*79
$RDENS,1398,4688342,PC
$RDENS,1399,4688421,PC
$GPRMC,170126.00,A,4506.17815,N,06839.69280,W,1.916,236.64,180924,,,A*7F
$GPVTG,236.64,T,,M,1.916,N,3.549,K,A*3C
$GPGGA,170126.00,4506.17815,N,06839.69280,W,1,06,1.31,41.0,M,-29.0,M,,*57
$GPGSA,A,3,18,24,15,23,10,32,,,,,,,2.49,1.31,2.12*05
$GPGSV,3,1,12,08,03,311,,10,45,307,28,12,06,132,16,13,02,065,26*7B
$GPGSV,3,2,12,14,00,021,,15,32,073,35,18,32,191,35,22,08,038,*7E
$GPGSV,3,3,12,23,85,355,37,24,65,093,35,27,04,281,,32,25,260,20*72
$GPGLL,4506.17815,N,06839.69280,W,170126.00,A,A*74
$RDENS,1400,4688500,PC
$GPRMC,170127.00,A,4506.17781,N,06839.69337,W,1.956,238.97,180924,,,A*77
$GPVTG,238.97,T,,M,1.956,N,3.623,K,A*35
$GPGGA,170127.00,4506.17781,N,06839.69337,W,1,06,1.31,41.0,M,-29.0,M,,*59
$GPGSA,A,3,18,24,15,23,10,32,,,,,,,2.49,1.31,2.12*05
$GPGSV,3,1,12,08,03,311,,10,45,307,29,12,06,132,18,13,02,065,26*74
$GPGSV,3,2,12,14,00,021,,15,32,073,35,18,32,191,35,22,08,038,16*79
$GPGSV,3,3,12,23,85,355,36,24,65,093,35,27,04,281,,32,25,260,19*79
$GPGLL,4506.17781,N,06839.69337,W,170127.00,A,A*7A
$RDENS,1401,4688578,PC
$GPRMC,170128.00,A,4506.17750,N,06839.69395,W,1.823,238.17,180924,,,A*77
$GPVTG,238.17,T,,M,1.823,N,3.377,K,A*3A
$GPGGA,170128.00,4506.17750,N,06839.69395,W,1,06,1.31,41.0,M,-29.0,M,,*52
$GPGSA,A,3,18,24,15,23,10,32,,,,,,,2.49,1.31,2.12*05
$GPGSV,3,1,12,08,03,311,,10,45,307,27,12,06,132,17,13,02,065,26*75
$GPGSV,3,2,12,14,00,021,,15,32,073,35,18,32,191,35,22,08,038,13*7C
$GPGSV,3,3,12,23,85,355,36,24,65,093,34,27,04,281,,32,25,260,19*78
$GPGLL,4506.17750,N,06839.69395,W,170128.00,A,A*71
$RDENS,1402,4688657,PC
$GPRMC,170129.00,A,4506.17723,N,06839.69459,W,1.915,238.08,180924,,,A*7F
$GPVTG,238.08,T,,M,1.915,N,3.547,K,A*35
$GPGGA,170129.00,4506.17723,N,06839.69459,W,1,06,1.31,40.9,M,-29.0,M,,*58
$GPGSA,A,3,18,24,15,23,10,32,,,,,,,2.49,1.31,2.12*05
$GPGSV,3,1,12,08,03,311,,10,45,307,26,12,06,132,18,13,02,065,24*79
$GPGSV,3,2,12,14,00,021,,15,32,073,36,18,32,191,35,22,08,038,*7D
$GPGSV,3,3,12,23,85,355,36,24,65,093,33,27,04,281,,32,25,260,19*7F
$GPGLL,4506.17723,N,06839.69459,W,170129.00,A,A*73
$RDENS,1403,4688735,PC
$RDENS,1404,4688815,PC
$GPRMC,170130.00,A,4506.17696,N,06839.69524,W,1.969,241.08,180924,,,A*76
$GPVTG,241.08,T,,M,1.969,N,3.646,K,A*32
$GPGGA,170130.00,4506.17696,N,06839.69524,W,1,06,1.31,40.8,M,-29.0,M,,*55
$GPGSA,A,3,18,24,15,23,10,32,,,,,,,2.49,1.31,2.12*05
$GPGSV,3,1,12,08,03,311,,10,45,307,26,12,06,132,16,13,02,065,23*70
$GPGSV,3,2,12,14,00,021,,15,32,073,35,18,32,191,34,22,08,038,*7F
$GPGSV,3,3,12,23,85,355,36,24,65,093,34,27,04,281,,32,25,260,19*78
$GPGLL,4506.17696,N,06839.69524,W,170130.00,A,A*7F
$RDENS,1405,4688893,PC
$GPRMC,170131.00,A,4506.17664,N,06839.69576,W,1.905,241.93,180924,,,A*75
$GPVTG,241.93,T,,M,1.905,N,3.529,K,A*30
$GPGGA,170131.00,4506.17664,N,06839.69576,W,1,06,1.31,40.7,M,-29.0,M,,*51
$GPGSA,A,3,18,24,15,23,10,32,,,,,,,2.49,1.31,2.12*05
$GPGSV,3,1,12,08,03,311,,10,45,307,24,12,06,132,17,13,02,065,24*74
$GPGSV,3,2,12,14,00,021,,15,32,073,35,18,32,191,35,22,08,038,*7E
$GPGSV,3,3,12,23,86,358,36,24,65,093,34,27,04,281,,32,25,260,19*76
$GPGLL,4506.17664,N,06839.69576,W,170131.00,A,A*74
$RDENS,1406,4688972,PC
$GPRMC,170132.00,A,4506.17627,N,06839.69628,W,2.033,243.92,180924,,,A*75
$GPVTG,243.92,T,,M,2.033,N,3.765,K,A*36
$GPGGA,170132.00,4506.17627,N,06839.69628,W,1,06,1.31,40.9,M,-29.0,M,,*53
$GPGSA,A,3,18,24,15,23,10,32,,,,,,,2.49,1.31,2.12*05
$GPGSV,3,1,12,08,03,311,,10,45,307,25,12,06,132,19,13,02,065,24*7B
$GPGSV,3,2,12,14,00,021,,15,32,073,37,18,32,191,35,22,08,038,*7C
$GPGSV,3,3,12,23,86,358,36,24,65,092,36,27,04,281,,32,25,260,20*7F
$GPGLL,4506.17627,N,06839.69628,W,170132.00,A,A*78
$RDENS,1407,4689051,PC
$GPRMC,170133.00,A,4506.17594,N,06839.69687,W,1.942,240.45,180924,,,A*7F
$GPVTG,240.45,T,,M,1.942,N,3.596,K,A*3D
$GPGGA,170133.00,4506.17594,N,06839.69687,W,1,06,1.31,40.9,M,-29.0,M,,*5C
$GPGSA,A,3,18,24,15,23,10,32,,,,,,,2.49,1.31,2.12*05
$GPGSV,3,1,12,08,03,311,,10,45,307,24,12,06,132,18,13,02,065,24*7B
$GPGSV,3,2,12,14,00,021,,15,32,073,36,18,32,191,37,22,08,038,*7F
$GPGSV,3,3,12,23,86,358,35,24,65,092,34,27,04,281,,32,25,260,21*7F
$GPGLL,4506.17594,N,06839.69687,W,170133.00,A,A*77
$RDENS,1408,4689130,PC
$RDENS,1409,4689209,PC
$GPRMC,170134.00,A,4506.17565,N,06839.69750,W,1.901,,180924,,,A*63
$GPVTG,,T,,M,1.901,N,3.521,K,A*2F
$GPGGA,170134.00,4506.17565,N,06839.69750,W,1,06,1.31,40.9,M,-29.0,M,,*5E
$GPGSA,A,3,18,24,15,23,10,32,,,,,,,2.49,1.31,2.12*05
$GPGSV,3,1,12,08,03,311,,10,45,307,24,12,06,132,18,13,02,065,25*7A
$GPGSV,3,2,12,14,00,021,,15,32,073,36,18,32,191,37,22,08,038,*7F
$GPGSV,3,3,12,23,86,358,36,24,65,092,35,27,04,281,,32,25,260,21*7D
$GPGLL,4506.17565,N,06839.69750,W,170134.00,A,A*75
$RDENS,1410,4689287,PC
$GPRMC,170135.00,A,4506.17532,N,06839.69804,W,1.943,241.37,180924,,,A*75
$GPVTG,241.37,T,,M,1.943,N,3.599,K,A*37
$GPGGA,170135.00,4506.17532,N,06839.69804,W,1,06,1.31,41.0,M,-29.0,M,,*5B
$GPGSA,A,3,18,24,15,23,10,32,,,,,,,2.49,1.31,2.12*05
$GPGSV,3,1,12,08,03,311,,10,45,307,24,12,06,132,17,13,02,065,25*75
$GPGSV,3,2,12,14,00,021,,15,32,073,37,18,32,191,37,22,08,038,*7E
$GPGSV,3,3,12,23,86,358,36,24,65,092,35,27,04,280,,32,25,260,22*7F
$GPGLL,4506.17532,N,06839.69804,W,170135.00,A,A*78
$RDENS,1411,4689365,PC
$GPRMC,170136.00,A,4506.17506,N,06839.69871,W,2.105,247.84,180924,,,A*74
$GPVTG,247.84,T,,M,2.105,N,3.898,K,A*3C
$GPGGA,170136.00,4506.17506,N,06839.69871,W,1,06,1.31,40.9,M,-29.0,M,,*55
$GPGSA,A,3,18,24,15,23,10,32,,,,,,,2.49,1.31,2.12*05
$GPGSV,3,1,12,08,03,311,,10,45,307,25,12,06,132,17,13,02,065,25*74
$GPGSV,3,2,12,14,00,021,,15,32,073,37,18,32,191,37,22,08,038,*7E
$GPGSV,3,3,12,23,86,358,36,24,65,092,35,27,04,280,,32,25,260,22*7F
$GPGLL,4506.17506,N,06839.69871,W,170136.00,A,A*7E
$RDENS,1412,4689444,PC
$RDENS,1413,4689523,PC
$GPRMC,170137.00,A,4506.17475,N,06839.69931,W,1.892,238.75,180924,,,A*77
$GPVTG,238.75,T,,M,1.892,N,3.505,K,A*37
$GPGGA,170137.00,4506.17475,N,06839.69931,W,1,06,1.31,40.9,M,-29.0,M,,*54
$GPGSA,A,3,18,24,15,23,10,32,,,,,,,2.49,1.31,2.12*05
$GPGSV,3,1,12,08,03,311,,10,45,307,34,12,06,132,17,13,02,065,25*74
$GPGSV,3,2,12,14,00,021,,15,32,073,37,18,32,191,37,22,08,038,*7E
$GPGSV,3,3,12,23,86,358,36,24,65,092,35,27,04,280,,32,25,260,21*7C
$GPGLL,4506.17475,N,06839.69931,W,170137.00,A,A*7F
$RDENS,1414,4689601,PC
$GPRMC,170138.00,A,4506.17442,N,06839.69986,W,1.807,237.85,180924,,,A*7C
$GPVTG,237.85,T,,M,1.807,N,3.347,K,A*3B
$GPGGA,170138.00,4506.17442,N,06839.69986,W,1,06,1.31,40.9,M,-29.0,M,,*53
$GPGSA,A,3,18,24,15,23,10,32,,,,,,,2.49,1.31,2.12*05
$GPGSV,3,1,12,08,03,311,,10,45,307,29,12,06,132,16,13,02,065,26*7A
$GPGSV,3,2,12,14,00,021,,15,32,073,37,18,32,191,37,22,08,038,*7E
$GPGSV,3,3,12,23,86,358,36,24,65,092,34,27,04,280,,32,25,260,22*7E
$GPGLL,4506.17442,N,06839.69986,W,170138.00,A,A*78
$RDENS,1415,4689680,PC
$GPRMC,170139.00,A,4506.17426,N,06839.70068,W,2.155,246.25,180924,,,A*7F
$GPVTG,246.25,T,,M,2.155,N,3.991,K,A*3B
$GPGGA,170139.00,4506.17426,N,06839.70068,W,1,06,1.31,40.5,M,-29.0,M,,*5D
$GPGSA,A,3,18,24,15,23,10,32,,,,,,,2.49,1.31,2.12*05
$GPGSV,3,1,12,08,03,311,,10,45,307,33,12,06,132,15,13,02,065,25*71
$GPGSV,3,2,12,14,00,021,,15,32,073,37,18,32,191,37,22,08,038,*7E
$GPGSV,3,3,12,23,86,358,35,24,65,092,34,27,04,280,,32,25,260,21*7E
$GPGLL,4506.17426,N,06839.70068,W,170139.00,A,A*7A
$RDENS,1416,4689758,PC
$GPRMC,170140.00,A,4506.17391,N,06839.70122,W,1.959,246.05,180924,,,A*70
$GPVTG,246.05,T,,M,1.959,N,3.629,K,A*32
$GPGGA,170140.00,4506.17391,N,06839.70122,W,1,06,1.31,40.6,M,-29.0,M,,*54
$GPGSA,A,3,18,24,15,23,10,32,,,,,,,2.49,1.31,2.12*05
$GPGSV,3,1,12,08,03,311,,10,45,307,33,12,06,132,16,13,02,065,26*71
$GPGSV,3,2,12,14,00,021,,15,32,073,37,18,32,191,38,22,08,038,*71
$GPGSV,3,3,12,23,86,358,35,24,65,092,35,27,04,280,,32,25,260,22*7C
