$GPRMC,175812.00,A,4506.15064,N,06839.57200,W,1.302,183.28,180924,,,D*72
$GPVTG,183.28,T,,M,1.302,N,2.411,K,D*3E
$GPGGA,175812.00,4506.15064,N,06839.57200,W,2,08,0.97,35.8,M,-29.0,M,,0000*5E
$GPGSA,A,3,24,12,15,21,23,10,28,32,,,,,1.55,0.97,1.22*05
$GPGSV,4,1,14,02,02,335,,10,70,304,32,12,24,114,33,15,12,088,16*7D
$GPGSV,4,2,14,18,07,185,07,21,13,323,32,22,00,020,,23,65,143,36*7E
$GPGSV,4,3,14,24,46,057,36,25,14,151,,28,14,217,23,32,45,280,36*7A
$GPGSV,4,4,14,46,12,248,,48,15,245,*78
$GPGLL,4506.15064,N,06839.57200,W,175812.00,A,D*73
$GPRMC,175813.00,A,4506.15026,N,06839.57213,W,1.383,190.77,180924,,,D*76
$GPVTG,190.77,T,,M,1.383,N,2.561,K,D*39
$GPGGA,175813.00,4506.15026,N,06839.57213,W,2,08,0.97,35.7,M,-29.0,M,,0000*54
$GPGSA,A,3,24,12,15,21,23,10,28,32,,,,,1.55,0.97,1.22*05
$GPGSV,4,1,14,02,02,335,,10,70,304,31,12,24,114,35,15,12,088,18*76
$GPGSV,4,2,14,18,07,185,07,21,13,323,31,22,00,020,,23,65,143,35*7E
$GPGSV,4,3,14,24,46,057,34,25,14,151,,28,14,217,22,32,45,280,35*7A
$GPGSV,4,4,14,46,12,248,,48,15,245,*78
$GPGLL,4506.15026,N,06839.57213,W,175813.00,A,D*76
$RDENS,5728,5029196,PC
$GPRMC,175814.00,A,4506.14982,N,06839.57231,W,1.658,190.49,180924,,,A*7C
$GPVTG,190.49,T,,M,1.658,N,3.071,K,A*37
$GPGGA,175814.00,4506.14982,N,06839.57231,W,1,08,0.97,35.5,M,-29.0,M,,*54
$GPGSA,A,3,24,12,15,21,23,10,28,32,,,,,1.55,0.97,1.22*05
$GPGSV,4,1,14,02,02,335,,10,70,304,32,12,24,114,35,15,12,088,19*74
$GPGSV,4,2,14,18,07,185,07,21,13,323,30,22,00,020,,23,65,143,35*7F
$GPGSV,4,3,14,24,46,057,33,25,14,151,,28,14,217,21,32,45,280,36*7D
$GPGSV,4,4,14,46,12,248,,48,15,245,*78
$GPGLL,4506.14982,N,06839.57231,W,175814.00,A,A*72
$RDENS,5729,5029275,PC
$GPRMC,175815.00,A,4506.14940,N,06839.57250,W,1.582,195.19,180924,,,A*70
$GPVTG,195.19,T,,M,1.582,N,2.930,K,A*3E
$GPGGA,175815.00,4506.14940,N,06839.57250,W,1,08,0.97,35.5,M,-29.0,M,,*5C
$GPGSA,A,3,24,12,15,21,23,10,28,32,,,,,1.55,0.97,1.22*05
$GPGSV,4,1,14,02,02,335,,10,70,304,33,12,24,114,35,15,12,088,18*74
$GPGSV,4,2,14,18,07,185,07,21,13,323,30,22,00,020,,23,65,143,35*7F
$GPGSV,4,3,14,24,46,057,32,25,14,151,,28,14,217,20,32,45,280,36*7D
$GPGSV,4,4,14,46,12,248,,48,15,245,*78
$GPGLL,4506.14940,N,06839.57250,W,175815.00,A,A*7A
$RDENS,5730,5029354,PC
$GPRMC,175816.00,A,4506.14898,N,06839.57273,W,1.601,199.23,180924,,,A*7B
$GPVTG,199.23,T,,M,1.601,N,2.966,K,A*30
$GPGGA,175816.00,4506.14898,N,06839.57273,W,1,08,0.97,35.5,M,-29.0,M,,*5A
$GPGSA,A,3,24,12,15,21,23,10,28,32,,,,,1.55,0.97,1.22*05
$GPGSV,4,1,14,02,02,335,,10,70,304,33,12,24,114,35,15,12,088,17*7B
$GPGSV,4,2,14,18,07,185,07,21,13,323,30,22,00,020,,23,65,143,35*7F
$GPGSV,4,3,14,24,46,057,32,25,14,151,,28,14,217,19,32,45,280,36*77
$GPGSV,4,4,14,46,12,248,,48,15,245,*78
$GPGLL,4506.14898,N,06839.57273,W,175816.00,A,A*7C
$RDENS,5731,5029432,PC
$RDENS,5732,5029511,PC
$GPRMC,175817.00,A,4506.14855,N,06839.57298,W,1.569,201.70,180924,,,A*77
$GPVTG,201.70,T,,M,1.569,N,2.906,K,A*3F
$GPGGA,175817.00,4506.14855,N,06839.57298,W,1,08,0.97,35.5,M,-29.0,M,,*5F
$GPGSA,A,3,24,12,15,21,23,10,28,32,,,,,1.55,0.97,1.22*05
$GPGSV,4,1,14,02,02,335,,10,70,304,35,12,24,114,35,15,12,088,16*7C
$GPGSV,4,2,14,18,07,185,07,21,13,323,30,22,00,020,,23,65,143,35*7F
$GPGSV,4,3,14,24,46,057,32,25,14,151,,28,14,217,19,32,45,280,36*77
$GPGSV,4,4,14,46,12,248,,48,15,245,*78
$GPGLL,4506.14855,N,06839.57298,W,175817.00,A,A*79
$RDENS,5733,5029589,PC
$GPRMC,175818.00,A,4506.14805,N,06839.57325,W,1.573,203.17,180924,,,A*72
$GPVTG,203.17,T,,M,1.573,N,2.913,K,A*33
$GPGGA,175818.00,4506.14805,N,06839.57325,W,1,08,0.97,35.6,M,-29.0,M,,*51
$GPGSA,A,3,24,12,15,21,23,10,28,32,,,,,1.55,0.97,1.22*05
$GPGSV,4,1,14,02,02,335,,10,70,304,34,12,24,114,35,15,12,088,15*7E
$GPGSV,4,2,14,18,07,185,07,21,13,323,30,22,00,020,,23,65,143,35*7F
$GPGSV,4,3,14,24,46,057,32,25,14,151,,28,14,217,19,32,45,280,36*77
$GPGSV,4,4,14,46,12,248,,48,15,245,*78
$GPGLL,4506.14805,N,06839.57325,W,175818.00,A,A*74
$RDENS,5734,5029668,PC
$GPRMC,175819.00,A,4506.14763,N,06839.57349,W,1.482,204.09,180924,,,A*71
$GPVTG,204.09,T,,M,1.482,N,2.745,K,A*39
$GPGGA,175819.00,4506.14763,N,06839.57349,W,1,08,0.97,35.8,M,-29.0,M,,*5B
$GPGSA,A,3,24,12,15,21,23,10,28,32,,,,,1.55,0.97,1.22*05
$GPGSV,4,1,14,02,02,335,,10,70,304,34,12,24,114,34,15,12,088,18*72
$GPGSV,4,2,14,18,07,185,07,21,13,323,30,22,00,020,,23,65,143,35*7F
$GPGSV,4,3,14,24,46,057,33,25,14,151,,28,14,217,20,32,45,280,36*7C
$GPGSV,4,4,14,46,12,248,,48,15,245,*78
$GPGLL,4506.14763,N,06839.57349,W,175819.00,A,A*70
$RDENS,5735,5029747,PC
$GPRMC,175820.00,A,4506.14725,N,06839.57375,W,1.442,205.59,180924,,,A*7E
$GPVTG,205.59,T,,M,1.442,N,2.670,K,A*36
$GPGGA,175820.00,4506.14725,N,06839.57375,W,1,08,0.97,35.8,M,-29.0,M,,*5C
$GPGSA,A,3,24,12,15,21,23,10,28,32,,,,,1.55,0.97,1.22*05
$GPGSV,4,1,14,02,02,335,,10,70,304,34,12,24,114,34,15,12,088,21*78
$GPGSV,4,2,14,18,07,185,06,21,13,323,30,22,00,020,,23,65,143,35*7E
$GPGSV,4,3,14,24,46,057,32,25,14,151,,28,14,217,20,32,45,280,36*7D
$GPGSV,4,4,14,46,12,248,,48,15,245,*78
$GPGLL,4506.14725,N,06839.57375,W,175820.00,A,A*77
$RDENS,5736,5029826,PC
$RDENS,5737,5029904,PC
$GPRMC,175821.00,A,4506.14686,N,06839.57403,W,1.499,206.13,180924,,,A*7A
$GPVTG,206.13,T,,M,1.499,N,2.776,K,A*3A
$GPGGA,175821.00,4506.14686,N,06839.57403,W,1,08,0.97,35.8,M,-29.0,M,,*53
$GPGSA,A,3,24,12,15,21,23,10,28,32,,,,,1.55,0.97,1.22*05
$GPGSV,4,1,14,02,02,335,,10,70,304,35,12,24,114,34,15,12,088,21*79
$GPGSV,4,2,14,18,07,185,06,21,13,323,29,22,00,020,,23,65,143,35*76
$GPGSV,4,3,14,24,46,057,32,25,14,151,,28,14,217,21,32,45,280,36*7C
$GPGSV,4,4,14,46,12,248,,48,15,245,*78
$GPGLL,4506.14686,N,06839.57403,W,175821.00,A,A*78
$RDENS,5738,5029983,PC
$GPRMC,175822.00,A,4506.14641,N,06839.57433,W,1.650,207.11,180924,,,A*75
$GPVTG,207.11,T,,M,1.650,N,3.055,K,A*39
$GPGGA,175822.00,4506.14641,N,06839.57433,W,1,08,0.97,35.8,M,-29.0,M,,*58
$GPGSA,A,3,24,12,15,21,23,10,28,32,,,,,1.55,0.97,1.22*05
$GPGSV,4,1,14,02,02,335,,10,70,304,35,12,24,114,35,15,12,088,20*79
$GPGSV,4,2,14,18,07,185,,21,13,323,31,22,00,020,,23,65,143,34*78
$GPGSV,4,3,14,24,46,057,32,25,14,151,,28,14,217,22,32,45,280,35*7C
$GPGSV,4,4,14,46,12,248,,48,15,245,*78
$GPGLL,4506.14641,N,06839.57433,W,175822.00,A,A*73
$RDENS,5739,5030062,PC
$GPRMC,175823.00,A,4506.14598,N,06839.57465,W,1.671,208.12,180924,,,A*7F
$GPVTG,208.12,T,,M,1.671,N,3.094,K,A*3B
$GPGGA,175823.00,4506.14598,N,06839.57465,W,1,08,0.97,35.7,M,-29.0,M,,*52
$GPGSA,A,3,24,12,15,21,23,10,28,32,,,,,1.55,0.97,1.22*05
$GPGSV,4,1,14,02,02,335,,10,70,304,35,12,24,114,34,15,12,088,19*72
$GPGSV,4,2,14,18,07,185,,21,13,323,30,22,00,020,,23,65,143,34*79
$GPGSV,4,3,14,24,46,057,32,25,14,151,,28,14,217,21,32,45,280,34*7E
$GPGSV,4,4,14,46,12,248,,48,15,245,*78
$GPGLL,4506.14598,N,06839.57465,W,175823.00,A,A*76
$RDENS,5740,5030140,PC
$RDENS,5741,5030219,PC
$GPRMC,175824.00,A,4506.14558,N,06839.57499,W,1.547,210.13,180924,,,A*79
$GPVTG,210.13,T,,M,1.547,N,2.865,K,A*32
$GPGGA,175824.00,4506.14558,N,06839.57499,W,1,08,0.97,35.6,M,-29.0,M,,*5B
$GPGSA,A,3,24,12,15,21,23,10,28,32,,,,,1.55,0.97,1.22*05
$GPGSV,4,1,14,02,02,335,,10,70,304,34,12,24,114,34,15,12,088,16*7C
$GPGSV,4,2,14,18,07,185,,21,13,323,30,22,00,020,,23,65,143,34*79
$GPGSV,4,3,14,24,46,057,32,25,14,151,,28,14,217,21,32,45,280,33*79
$GPGSV,4,4,14,46,12,248,,48,15,245,*78
$GPGLL,4506.14558,N,06839.57499,W,175824.00,A,A*7E
$RDENS,5742,5030298,PC
$GPRMC,175825.00,A,4506.14518,N,06839.57535,W,1.636,211.87,180924,,,A*72
$GPVTG,211.87,T,,M,1.636,N,3.029,K,A*3A
$GPGGA,175825.00,4506.14518,N,06839.57535,W,1,08,0.97,35.5,M,-29.0,M,,*5A
$GPGSA,A,3,24,12,15,21,23,10,28,32,,,,,1.55,0.97,1.22*05
$GPGSV,4,1,14,02,02,335,,10,70,304,34,12,24,114,34,15,12,088,13*79
$GPGSV,4,2,14,18,07,185,,21,13,323,29,22,00,020,,23,65,143,33*76
$GPGSV,4,3,14,24,46,057,31,25,14,151,,28,14,217,21,32,45,280,31*78
$GPGSV,4,4,14,46,12,248,,48,15,245,*78
$GPGLL,4506.14518,N,06839.57535,W,175825.00,A,A*7C
$RDENS,5743,5030376,PC
$GPRMC,175826.00,A,4506.14481,N,06839.57572,W,1.629,213.76,180924,,,A*71
$GPVTG,213.76,T,,M,1.629,N,3.018,K,A*3A
$GPGGA,175826.00,4506.14481,N,06839.57572,W,1,08,0.97,35.5,M,-29.0,M,,*5B
$GPGSA,A,3,24,12,15,21,23,10,28,32,,,,,1.55,0.97,1.22*05
$GPGSV,4,1,14,02,02,335,,10,70,303,33,12,24,114,33,15,12,088,14*79
$GPGSV,4,2,14,18,07,185,,21,13,323,28,22,00,020,,23,65,143,34*70
$GPGSV,4,3,14,24,46,057,31,25,14,151,,28,14,217,20,32,45,280,32*7A
$GPGSV,4,4,14,46,12,248,,48,15,245,*78
$GPGLL,4506.14481,N,06839.57572,W,175826.00,A,A*7D
$RDENS,5744,5030455,PC
$GPRMC,175827.00,A,4506.14435,N,06839.57617,W,1.866,214.09,180924,,,A*75
$GPVTG,214.09,T,,M,1.866,N,3.455,K,A*3D
$GPGGA,175827.00,4506.14435,N,06839.57617,W,1,08,0.97,35.5,M,-29.0,M,,*55
$GPGSA,A,3,24,12,15,21,23,10,28,32,,,,,1.55,0.97,1.22*05
$GPGSV,4,1,14,02,02,335,,10,70,303,34,12,24,114,33,15,12,088,16*7C
$GPGSV,4,2,14,18,07,185,,21,13,323,30,22,00,020,,23,65,143,34*79
$GPGSV,4,3,14,24,46,057,34,25,14,151,,28,14,217,21,32,45,280,34*78
$GPGSV,4,4,14,46,12,248,,48,15,245,*78
$GPGLL,4506.14435,N,06839.57617,W,175827.00,A,A*73
$RDENS,5745,5030534,PC
$RDENS,5746,5030612,PC
$GPRMC,175828.00,A,4506.14391,N,06839.57660,W,1.796,214.56,180924,,,A*79
$GPVTG,214.56,T,,M,1.796,N,3.326,K,A*34
$GPGGA,175828.00,4506.14391,N,06839.57660,W,1,08,0.97,35.6,M,-29.0,M,,*50
$GPGSA,A,3,24,12,15,21,23,10,28,32,,,,,1.55,0.97,1.22*05
$GPGSV,4,1,14,02,02,335,,10,70,303,34,12,24,114,34,15,12,088,18*75
$GPGSV,4,2,14,18,07,185,,21,13,323,30,22,00,020,,23,65,143,35*78
$GPGSV,4,3,14,24,46,057,33,25,14,151,,28,14,217,21,32,45,280,36*7D
$GPGSV,4,4,14,46,12,248,,48,15,245,*78
$GPGLL,4506.14391,N,06839.57660,W,175828.00,A,A*75
$RDENS,5747,5030691,PC
$GPRMC,175829.00,A,4506.14345,N,06839.57711,W,1.962,215.67,180924,,,A*70
$GPVTG,215.67,T,,M,1.962,N,3.633,K,A*33
$GPGGA,175829.00,4506.14345,N,06839.57711,W,1,08,0.97,35.6,M,-29.0,M,,*5F
$GPGSA,A,3,24,12,15,21,23,10,28,32,,,,,1.55,0.97,1.22*05
$GPGSV,4,1,14,02,02,335,,10,70,303,34,12,24,114,33,15,12,088,19*73
$GPGSV,4,2,14,18,07,185,,21,13,323,30,22,00,020,,23,65,143,35*78
$GPGSV,4,3,14,24,46,057,35,25,14,151,,28,14,217,23,32,45,280,36*79
$GPGSV,4,4,14,46,12,248,,48,15,245,*78
$GPGLL,4506.14345,N,06839.57711,W,175829.00,A,A*7A
$RDENS,5748,5030770,PC
$GPRMC,175830.00,A,4506.14295,N,06839.57761,W,2.245,215.34,180924,,,A*78
$GPVTG,215.34,T,,M,2.245,N,4.157,K,A*3A
$GPGGA,175830.00,4506.14295,N,06839.57761,W,1,08,0.97,35.8,M,-29.0,M,,*52
$GPGSA,A,3,24,12,15,21,23,10,28,32,,,,,1.55,0.97,1.22*05
$GPGSV,4,1,14,02,02,335,,10,70,303,40,12,24,114,34,15,12,088,18*76
$GPGSV,4,2,14,18,07,185,,21,13,323,31,22,00,020,,23,65,143,38*74
$GPGSV,4,3,14,24,46,057,37,25,14,151,,28,14,217,23,32,45,280,36*7B
$GPGSV,4,4,14,46,12,248,,48,15,245,*78
$GPGLL,4506.14295,N,06839.57761,W,175830.00,A,A*79
$RDENS,5749,5030849,PC
$GPRMC,175831.00,A,4506.14243,N,06839.57814,W,2.258,215.90,180924,,,A*7D
$GPVTG,215.90,T,,M,2.258,N,4.182,K,A*30
$GPGGA,175831.00,4506.14243,N,06839.57814,W,1,08,0.97,35.8,M,-29.0,M,,*55
$GPGSA,A,3,24,12,15,21,23,10,28,32,,,,,1.56,0.97,1.22*06
$GPGSV,4,1,14,02,02,335,,10,70,303,36,12,24,114,37,15,11,088,17*78
$GPGSV,4,2,14,18,07,185,,21,13,323,32,22,00,020,,23,65,143,34*7B
$GPGSV,4,3,14,24,46,057,34,25,14,151,,28,14,217,22,32,45,280,35*7A
$GPGSV,4,4,14,46,12,248,,48,15,245,*78
$GPGLL,4506.14243,N,06839.57814,W,175831.00,A,A*7E
$RDENS,5750,5030927,PC
$RDENS,5751,5031006,PC
$GPRMC,175832.00,A,4506.14185,N,06839.57871,W,2.407,215.89,180924,,,A*70
$GPVTG,215.89,T,,M,2.407,N,4.458,K,A*36
$GPGGA,175832.00,4506.14185,N,06839.57871,W,1,08,0.97,35.8,M,-29.0,M,,*5C
$GPGSA,A,3,24,12,15,21,23,10,28,32,,,,,1.56,0.97,1.22*06
$GPGSV,4,1,14,02,02,335,,10,70,303,37,12,24,114,37,15,11,088,15*7B
$GPGSV,4,2,14,18,07,185,,21,13,323,33,22,00,020,,23,65,143,39*77
$GPGSV,4,3,14,24,46,057,35,25,14,151,,28,14,217,22,32,45,280,36*78
$GPGSV,4,4,14,46,12,248,,48,15,245,*78
$GPGLL,4506.14185,N,06839.57871,W,175832.00,A,A*77
$RDENS,5752,5031084,PC
$GPRMC,175833.00,A,4506.14131,N,06839.57929,W,2.402,216.18,180924,,,A*7C
$GPVTG,216.18,T,,M,2.402,N,4.449,K,A*38
$GPGGA,175833.00,4506.14131,N,06839.57929,W,1,08,0.97,36.0,M,-29.0,M,,*55
$GPGSA,A,3,24,12,15,21,23,10,28,32,,,,,1.56,0.97,1.22*06
$GPGSV,4,1,14,02,02,335,,10,70,303,39,12,24,114,36,15,11,088,16*77
$GPGSV,4,2,14,18,07,185,,21,13,323,33,22,00,020,,23,65,143,39*77
$GPGSV,4,3,14,24,46,057,34,25,14,151,,28,14,217,23,32,45,280,36*78
$GPGSV,4,4,14,46,12,248,,48,15,245,26*7C
$GPGLL,4506.14131,N,06839.57929,W,175833.00,A,A*75
$RDENS,5753,5031163,PC
$GPRMC,175834.00,A,4506.14065,N,06839.57994,W,2.877,215.12,180924,,,A*7A
$GPVTG,215.12,T,,M,2.877,N,5.328,K,A*3E
$GPGGA,175834.00,4506.14065,N,06839.57994,W,1,09,0.91,35.9,M,-29.0,M,,*59
$GPGSA,A,3,24,12,15,21,23,10,28,32,48,,,,1.48,0.91,1.17*05
$GPGSV,4,1,14,02,02,335,,10,70,303,37,12,24,114,35,15,11,088,18*74
$GPGSV,4,2,14,18,07,185,,21,13,323,33,22,00,020,,23,65,143,39*77
$GPGSV,4,3,14,24,46,057,36,25,14,151,,28,14,217,23,32,45,280,37*7B
$GPGSV,4,4,14,46,12,248,,48,15,245,28*72
$GPGLL,4506.14065,N,06839.57994,W,175834.00,A,A*74
$RDENS,5754,5031241,PC
$RDENS,5755,5031321,PC
$GPRMC,175835.00,A,4506.14000,N,06839.58053,W,2.638,214.00,180924,,,A*72
$GPVTG,214.00,T,,M,2.638,N,4.885,K,A*34
$GPGGA,175835.00,4506.14000,N,06839.58053,W,1,09,0.97,36.0,M,-29.0,M,,*5A
$GPGSA,A,3,24,12,15,21,23,10,28,32,48,,,,1.56,0.97,1.22*0A
$GPGSV,4,1,14,02,02,335,,10,70,303,38,12,24,114,35,15,11,088,17*74
$GPGSV,4,2,14,18,07,185,,21,13,323,32,22,00,020,,23,65,143,39*76
$GPGSV,4,3,14,24,46,057,36,25,14,151,,28,14,217,23,32,45,280,36*7A
$GPGSV,4,4,14,46,12,248,,48,15,245,28*72
$GPGLL,4506.14000,N,06839.58053,W,175835.00,A,A*7B
$RDENS,5756,5031400,PC
$GPRMC,175836.00,A,4506.13934,N,06839.58111,W,2.733,213.21,180924,,,A*71
$GPVTG,213.21,T,,M,2.733,N,5.062,K,A*3A
$GPGGA,175836.00,4506.13934,N,06839.58111,W,1,08,0.97,36.1,M,-29.0,M,,*57
$GPGSA,A,3,24,12,15,21,23,10,28,32,,,,,1.56,0.97,1.22*06
$GPGSV,4,1,14,02,02,335,,10,70,303,38,12,24,114,35,15,11,088,14*77
$GPGSV,4,2,14,18,07,185,,21,13,323,33,22,00,020,,23,65,143,38*76
$GPGSV,4,3,14,24,46,057,34,25,14,151,,28,14,217,21,32,45,280,36*7A
$GPGSV,4,4,14,46,12,248,,48,15,245,*78
$GPGLL,4506.13934,N,06839.58111,W,175836.00,A,A*76
$RDENS,5757,5031479,PC
$GPRMC,175837.00,A,4506.13870,N,06839.58170,W,2.648,213.87,180924,,,A*77
$GPVTG,213.87,T,,M,2.648,N,4.905,K,A*32
$GPGGA,175837.00,4506.13870,N,06839.58170,W,1,08,0.97,36.2,M,-29.0,M,,*53
$GPGSA,A,3,24,12,15,21,23,10,28,32,,,,,1.56,0.97,1.22*06
$GPGSV,4,1,14,02,02,335,,10,70,303,36,12,24,114,34,15,11,088,13*7F
$GPGSV,4,2,14,18,07,185,,21,13,322,32,22,00,020,,23,65,143,38*76
$GPGSV,4,3,14,24,46,057,35,25,14,151,,28,14,217,19,32,45,280,36*70
$GPGSV,4,4,14,46,12,248,,48,15,245,*78
$GPGLL,4506.13870,N,06839.58170,W,175837.00,A,A*71
$RDENS,5758,5031558,PC
$GPRMC,175838.00,A,4506.13810,N,06839.58234,W,2.671,215.29,180924,,,A*75
$GPVTG,215.29,T,,M,2.671,N,4.947,K,A*3C
$GPGGA,175838.00,4506.13810,N,06839.58234,W,1,08,0.97,36.3,M,-29.0,M,,*58
$GPGSA,A,3,24,12,15,21,23,10,28,32,,,,,1.56,0.97,1.22*06
$GPGSV,4,1,14,02,02,335,,10,70,303,37,12,24,114,31,15,11,088,13*7B
$GPGSV,4,2,14,18,07,185,,21,13,322,31,22,00,019,,23,65,143,38*7F
$GPGSV,4,3,14,24,46,057,35,25,14,151,,28,14,217,16,32,45,280,39*70
$GPGSV,4,4,14,46,12,248,,48,15,245,*78
$GPGLL,4506.13810,N,06839.58234,W,175838.00,A,A*7B
$RDENS,5759,5031636,PC
$RDENS,5760,5031714,PC
$GPRMC,175839.00,A,4506.13754,N,06839.58301,W,2.666,217.79,180924,,,A*7D
$GPVTG,217.79,T,,M,2.666,N,4.937,K,A*3A
$GPGGA,175839.00,4506.13754,N,06839.58301,W,1,08,0.97,36.5,M,-29.0,M,,*57
$GPGSA,A,3,24,12,15,21,23,10,28,32,,,,,1.56,0.97,1.22*06
$GPGSV,4,1,14,02,02,335,,10,70,303,36,12,24,114,31,15,11,088,13*7A
$GPGSV,4,2,14,18,07,185,,21,13,322,30,22,00,019,,23,65,143,38*7E
$GPGSV,4,3,14,24,46,057,35,25,14,151,06,28,14,217,14,32,45,280,39*74
$GPGSV,4,4,14,46,12,248,,48,15,245,*78
$GPGLL,4506.13754,N,06839.58301,W,175839.00,A,A*72
$RDENS,5761,5031793,PC
$GPRMC,175840.00,A,4506.13700,N,06839.58371,W,2.665,220.06,180924,,,A*7A
$GPVTG,220.06,T,,M,2.665,N,4.936,K,A*34
$GPGGA,175840.00,4506.13700,N,06839.58371,W,1,07,1.05,36.7,M,-29.0,M,,*58
$GPGSA,A,3,24,12,21,23,10,28,32,,,,,,1.76,1.05,1.41*0F
$GPGSV,4,1,14,02,02,335,,10,70,303,37,12,24,114,30,15,11,088,13*7A
$GPGSV,4,2,14,18,07,185,,21,13,322,31,22,00,019,,23,65,143,39*7E
$GPGSV,4,3,14,24,46,057,35,25,14,151,07,28,14,217,14,32,45,280,39*75
$GPGSV,4,4,14,46,12,248,,48,15,245,*78
$GPGLL,4506.13700,N,06839.58371,W,175840.00,A,A*7A
$RDENS,5762,5031872,PC
$GPRMC,175841.00,A,4506.13642,N,06839.58443,W,2.780,220.30,180924,,,A*75
$GPVTG,220.30,T,,M,2.780,N,5.149,K,A*3A
$GPGGA,175841.00,4506.13642,N,06839.58443,W,1,07,1.05,36.9,M,-29.0,M,,*56
$GPGSA,A,3,24,12,21,23,10,28,32,,,,,,1.76,1.05,1.41*0F
$GPGSV,4,1,14,02,02,335,,10,70,303,37,12,24,114,30,15,11,088,13*7A
$GPGSV,4,2,14,18,07,185,,21,13,322,32,22,00,019,,23,65,143,39*7D
$GPGSV,4,3,14,24,46,057,36,25,15,151,08,28,14,217,14,32,45,280,39*78
$GPGSV,4,4,14,46,12,248,,48,15,245,*78
$GPGLL,4506.13642,N,06839.58443,W,175841.00,A,A*7A
$RDENS,5763,5031950,PC
$GPRMC,175842.00,A,4506.13584,N,06839.58511,W,2.712,220.10,180924,,,A*70
$GPVTG,220.10,T,,M,2.712,N,5.023,K,A*3E
$GPGGA,175842.00,4506.13584,N,06839.58511,W,1,07,1.05,37.2,M,-29.0,M,,*50
$GPGSA,A,3,24,12,21,23,10,28,32,,,,,,1.76,1.05,1.41*0F
$GPGSV,4,1,14,02,02,335,,10,70,303,38,12,24,114,30,15,11,088,13*75
$GPGSV,4,2,14,18,07,185,,21,13,322,32,22,00,019,,23,65,143,38*7C
$GPGSV,4,3,14,24,46,057,36,25,15,151,08,28,14,217,13,32,45,280,39*7F
$GPGSV,4,4,14,46,12,248,,48,15,245,*78
$GPGLL,4506.13584,N,06839.58511,W,175842.00,A,A*76
$RDENS,5764,5032029,PC
$RDENS,5765,5032109,PC
$GPRMC,175843.00,A,4506.13526,N,06839.58582,W,2.765,220.55,180924,,,A*72
$GPVTG,220.55,T,,M,2.765,N,5.121,K,A*3C
$GPGGA,175843.00,4506.13526,N,06839.58582,W,1,07,1.05,37.4,M,-29.0,M,,*55
$GPGSA,A,3,24,12,21,23,10,28,32,,,,,,1.76,1.05,1.41*0F
$GPGSV,4,1,14,02,02,335,,10,70,303,38,12,24,114,30,15,11,088,13*75
$GPGSV,4,2,14,18,07,185,,21,13,322,31,22,00,019,,23,65,143,38*7F
$GPGSV,4,3,14,24,46,057,36,25,15,151,08,28,14,217,14,32,45,280,39*78
$GPGSV,4,4,14,46,12,248,,48,15,245,*78
$GPGLL,4506.13526,N,06839.58582,W,175843.00,A,A*75
$RDENS,5766,5032187,PC
$GPRMC,175844.00,A,4506.13466,N,06839.58656,W,2.794,220.74,180924,,,A*77
$GPVTG,220.74,T,,M,2.794,N,5.175,K,A*30
$GPGGA,175844.00,4506.13466,N,06839.58656,W,1,07,1.05,37.6,M,-29.0,M,,*5F
$GPGSA,A,3,24,12,21,23,10,28,32,,,,,,1.76,1.05,1.41*0F
$GPGSV,4,1,14,02,02,335,,10,70,303,38,12,24,114,30,15,11,088,10*76
$GPGSV,4,2,14,18,07,185,,21,13,322,30,22,00,019,,23,65,143,38*7E
$GPGSV,4,3,14,24,46,057,35,25,15,151,,28,14,217,15,32,45,280,39*72
$GPGSV,4,4,14,46,12,248,,48,15,245,*78
$GPGLL,4506.13466,N,06839.58656,W,175844.00,A,A*7D
$RDENS,5767,5032266,PC
$GPRMC,175845.00,A,4506.13405,N,06839.58730,W,2.872,220.65,180924,,,A*75
$GPVTG,220.65,T,,M,2.872,N,5.319,K,A*3F
$GPGGA,175845.00,4506.13405,N,06839.58730,W,1,07,1.05,37.6,M,-29.0,M,,*5A
$GPGSA,A,3,24,12,21,23,10,28,32,,,,,,1.76,1.05,1.41*0F
$GPGSV,4,1,14,02,02,335,,10,70,303,37,12,24,114,31,15,11,088,10*78
$GPGSV,4,2,14,18,07,185,,21,13,322,30,22,00,019,,23,65,143,38*7E
$GPGSV,4,3,14,24,46,057,33,25,15,151,05,28,14,217,17,32,45,280,39*73
$GPGSV,4,4,14,46,12,248,,48,15,245,*78
$GPGLL,4506.13405,N,06839.58730,W,175845.00,A,A*78
$RDENS,5768,5032345,PC
$GPRMC,175846.00,A,4506.13348,N,06839.58805,W,2.716,222.21,180924,,,A*7E
$GPVTG,222.21,T,,M,2.716,N,5.030,K,A*38
$GPGGA,175846.00,4506.13348,N,06839.58805,W,1,07,1.05,37.8,M,-29.0,M,,*50
$GPGSA,A,3,24,12,21,23,10,28,32,,,,,,1.76,1.05,1.41*0F
$GPGSV,4,1,14,02,02,335,,10,70,303,37,12,24,114,31,15,11,088,*79
$GPGSV,4,2,14,18,07,185,,21,13,322,31,22,00,019,,23,65,143,38*7F
$GPGSV,4,3,14,24,46,057,34,25,15,151,08,28,14,217,18,32,45,280,39*76
$GPGSV,4,4,14,46,12,248,,48,15,245,*78
$GPGLL,4506.13348,N,06839.58805,W,175846.00,A,A*7C
$RDENS,5769,5032423,PC
$RDENS,5770,5032502,PC
$GPRMC,175847.00,A,4506.13291,N,06839.58882,W,2.849,222.43,180924,,,A*74
$GPVTG,222.43,T,,M,2.849,N,5.276,K,A*39
$GPGGA,175847.00,4506.13291,N,06839.58882,W,1,07,1.05,37.9,M,-29.0,M,,*5A
$GPGSA,A,3,24,12,21,23,10,28,32,,,,,,1.76,1.05,1.41*0F
$GPGSV,4,1,14,02,02,335,,10,70,303,38,12,24,114,31,15,11,088,*76
$GPGSV,4,2,14,18,07,185,,21,13,322,31,22,00,019,,23,65,143,38*7F
$GPGSV,4,3,14,24,46,057,34,25,15,151,13,28,14,217,19,32,45,280,40*73
$GPGSV,4,4,14,46,12,248,,48,15,245,*78
$GPGLL,4506.13291,N,06839.58882,W,175847.00,A,A*77
$RDENS,5771,5032581,PC
$GPRMC,175848.00,A,4506.13234,N,06839.58957,W,2.737,223.13,180924,,,A*7F
$GPVTG,223.13,T,,M,2.737,N,5.069,K,A*37
$GPGGA,175848.00,4506.13234,N,06839.58957,W,1,07,1.05,38.1,M,-29.0,M,,*54
$GPGSA,A,3,24,12,21,23,10,28,32,,,,,,1.76,1.05,1.41*0F
$GPGSV,4,1,14,02,02,335,,10,70,303,37,12,24,114,31,15,11,088,*79
$GPGSV,4,2,14,18,07,185,,21,13,322,32,22,00,019,,23,65,143,38*7C
$GPGSV,4,3,14,24,46,057,34,25,15,151,15,28,14,217,19,32,45,280,39*7B
$GPGSV,4,4,14,46,12,248,,48,15,245,*78
$GPGLL,4506.13234,N,06839.58957,W,175848.00,A,A*7E
$RDENS,5772,5032660,PC
$GPRMC,175849.00,A,4506.13175,N,06839.59035,W,2.851,222.76,180924,,,A*79
$GPVTG,222.76,T,,M,2.851,N,5.280,K,A*3F
$GPGGA,175849.00,4506.13175,N,06839.59035,W,1,07,1.05,38.3,M,-29.0,M,,*5D
$GPGSA,A,3,24,12,21,23,10,28,32,,,,,,1.76,1.05,1.41*0F
$GPGSV,4,1,14,02,02,335,,10,70,303,37,12,24,114,31,15,11,088,*79
$GPGSV,4,2,14,18,07,185,,21,13,322,32,22,00,019,,23,65,143,38*7C
$GPGSV,4,3,14,24,46,057,34,25,15,151,13,28,14,217,19,32,45,280,39*7D
$GPGSV,4,4,14,46,12,248,,48,15,245,*78
$GPGLL,4506.13175,N,06839.59035,W,175849.00,A,A*75
$RDENS,5773,5032738,PC
$RDENS,5774,5032816,PC
$GPRMC,175850.00,A,4506.13114,N,06839.59111,W,2.883,221.76,180924,,,A*7D
$GPVTG,221.76,T,,M,2.883,N,5.340,K,A*3E
$GPGGA,175850.00,4506.13114,N,06839.59111,W,1,08,0.99,38.4,M,-29.0,M,,*59
$GPGSA,A,3,24,12,25,21,23,10,28,32,,,,,1.64,0.99,1.32*0B
$GPGSV,4,1,14,02,02,335,,10,70,303,37,12,24,114,32,15,11,088,*7A
$GPGSV,4,2,14,18,07,185,,21,13,322,32,22,00,019,,23,65,143,38*7C
$GPGSV,4,3,14,24,46,057,34,25,15,151,12,28,14,217,19,32,45,280,39*7C
$GPGSV,4,4,14,46,12,248,,48,15,245,*78
$GPGLL,4506.13114,N,06839.59111,W,175850.00,A,A*7D
$RDENS,5775,5032895,PC
$GPRMC,175851.00,A,4506.13053,N,06839.59188,W,2.863,221.65,180924,,,A*72
$GPVTG,221.65,T,,M,2.863,N,5.302,K,A*34
$GPGGA,175851.00,4506.13053,N,06839.59188,W,1,08,0.99,38.4,M,-29.0,M,,*5A
$GPGSA,A,3,24,12,25,21,23,10,28,32,,,,,1.64,0.99,1.32*0B
$GPGSV,4,1,14,02,02,335,,10,70,303,37,12,24,114,33,15,11,088,*7B
$GPGSV,4,2,14,18,07,185,,21,13,322,31,22,00,019,,23,65,143,38*7F
$GPGSV,4,3,14,24,46,057,34,25,15,151,11,28,14,217,20,32,45,280,39*75
$GPGSV,4,4,14,46,12,248,,48,15,245,*78
$GPGLL,4506.13053,N,06839.59188,W,175851.00,A,A*7E
$RDENS,5776,5032974,PC
$GPRMC,175852.00,A,4506.12996,N,06839.59264,W,2.732,222.40,180924,,,A*7E
$GPVTG,222.40,T,,M,2.732,N,5.060,K,A*3C
$GPGGA,175852.00,4506.12996,N,06839.59264,W,1,07,1.05,38.5,M,-29.0,M,,*53
$GPGSA,A,3,24,12,21,23,10,28,32,,,,,,1.76,1.05,1.41*0F
$GPGSV,4,1,14,02,02,335,,10,70,303,38,12,24,114,33,15,11,088,*74
$GPGSV,4,2,14,18,07,185,,21,13,322,31,22,00,019,,23,65,143,38*7F
$GPGSV,4,3,14,24,46,057,34,25,15,151,09,28,14,217,19,32,45,280,39*76
$GPGSV,4,4,14,46,12,248,,48,15,245,*78
$GPGLL,4506.12996,N,06839.59264,W,175852.00,A,A*7D
$RDENS,5777,5033053,PC
$GPRMC,175853.00,A,4506.12942,N,06839.59337,W,2.667,222.69,180924,,,A*7B
$GPVTG,222.69,T,,M,2.667,N,4.939,K,A*32
$GPGGA,175853.00,4506.12942,N,06839.59337,W,1,07,1.05,38.7,M,-29.0,M,,*5E
$GPGSA,A,3,24,12,21,23,10,28,32,,,,,,1.76,1.05,1.41*0F
$GPGSV,4,1,14,02,02,335,,10,70,303,38,12,24,114,33,15,11,088,*74
$GPGSV,4,2,14,18,07,185,,21,13,322,31,22,00,019,,23,65,143,38*7F
$GPGSV,4,3,14,24,46,057,34,25,15,151,08,28,14,217,19,32,45,280,39*77
$GPGSV,4,4,14,46,12,248,,48,15,245,*78
$GPGLL,4506.12942,N,06839.59337,W,175853.00,A,A*72
$RDENS,5778,5033132,PC
$RDENS,5779,5033210,PC
$GPRMC,175854.00,A,4506.12884,N,06839.59408,W,2.730,221.87,180924,,,A*7C
$GPVTG,221.87,T,,M,2.730,N,5.055,K,A*30
$GPGGA,175854.00,4506.12884,N,06839.59408,W,1,07,1.05,38.7,M,-29.0,M,,*59
$GPGSA,A,3,24,12,21,23,10,28,32,,,,,,1.76,1.05,1.41*0F
$GPGSV,4,1,14,02,02,335,,10,70,303,38,12,24,114,33,15,11,088,*74
$GPGSV,4,2,14,18,07,185,,21,13,322,32,22,00,019,,23,65,143,38*7C
$GPGSV,4,3,14,24,46,057,34,25,15,151,08,28,14,217,20,32,45,280,39*7D
$GPGSV,4,4,14,46,12,248,,48,15,245,*78
$GPGLL,4506.12884,N,06839.59408,W,175854.00,A,A*75
$RDENS,5780,5033289,PC
$GPRMC,175855.00,A,4506.12828,N,06839.59478,W,2.511,222.14,180924,,,A*74
$GPVTG,222.14,T,,M,2.511,N,4.651,K,A*3B
$GPGGA,175855.00,4506.12828,N,06839.59478,W,1,07,1.05,38.7,M,-29.0,M,,*59
$GPGSA,A,3,24,12,21,23,10,28,32,,,,,,1.76,1.05,1.41*0F
$GPGSV,4,1,14,02,02,335,,10,70,303,37,12,24,114,33,15,11,088,*7B
$GPGSV,4,2,14,18,07,185,,21,13,322,31,22,00,019,,23,65,143,38*7F
$GPGSV,4,3,14,24,46,057,34,25,15,151,08,28,14,217,20,32,45,280,39*7D
$GPGSV,4,4,14,46,12,248,,48,15,245,*78
$GPGLL,4506.12828,N,06839.59478,W,175855.00,A,A*75
$RDENS,5781,5033367,PC
$GPRMC,175856.00,A,4506.12776,N,06839.59548,W,2.555,222.15,180924,,,A*70
$GPVTG,222.15,T,,M,2.555,N,4.732,K,A*3E
$GPGGA,175856.00,4506.12776,N,06839.59548,W,1,08,1.05,38.8,M,-29.0,M,,*5C
$GPGSA,A,3,24,12,25,21,23,10,28,32,,,,,1.76,1.05,1.41*08
$GPGSV,4,1,14,02,02,335,,10,70,303,37,12,24,114,34,15,11,088,*7C
$GPGSV,4,2,14,18,07,185,,21,13,322,31,22,00,019,,23,65,143,38*7F
$GPGSV,4,3,14,24,46,057,34,25,15,151,08,28,14,217,22,32,45,280,39*7F
$GPGSV,4,4,14,46,12,248,,48,15,245,*78
$GPGLL,4506.12776,N,06839.59548,W,175856.00,A,A*70
$RDENS,5782,5033446,PC
$GPRMC,175857.00,A,4506.12724,N,06839.59613,W,2.395,222.19,180924,,,A*7D
$GPVTG,222.19,T,,M,2.395,N,4.435,K,A*3C
$GPGGA,175857.00,4506.12724,N,06839.59613,W,1,08,1.05,38.9,M,-29.0,M,,*56
$GPGSA,A,3,24,12,25,21,23,10,28,32,,,,,1.76,1.05,1.41*08
$GPGSV,4,1,14,02,02,335,,10,70,303,36,12,24,114,34,15,11,088,*7D
$GPGSV,4,2,14,18,07,185,,21,13,322,30,22,00,019,,23,65,143,38*7E
$GPGSV,4,3,14,24,46,057,34,25,15,151,08,28,14,217,22,32,45,280,39*7F
$GPGSV,4,4,14,46,12,248,,48,15,245,*78
$GPGLL,4506.12724,N,06839.59613,W,175857.00,A,A*7B
$RDENS,5783,5033525,PC
$RDENS,5784,5033604,PC
$GPRMC,175858.00,A,4506.12674,N,06839.59676,W,2.380,221.40,180924,,,A*7E
$GPVTG,221.40,T,,M,2.380,N,4.408,K,A*39
$GPGGA,175858.00,4506.12674,N,06839.59676,W,1,07,1.05,39.0,M,-29.0,M,,*59
$GPGSA,A,3,24,12,21,23,10,28,32,,,,,,1.76,1.05,1.41*0F
$GPGSV,4,1,14,02,02,335,,10,70,303,38,12,24,114,34,15,11,088,*73
$GPGSV,4,2,14,18,07,185,,21,13,322,30,22,00,019,,23,65,143,38*7E
$GPGSV,4,3,14,24,46,057,35,25,15,151,08,28,14,217,21,32,45,280,39*7D
$GPGSV,4,4,14,46,12,248,,48,15,245,*78
$GPGLL,4506.12674,N,06839.59676,W,175858.00,A,A*73
$RDENS,5785,5033683,PC
$GPRMC,175859.00,A,4506.12623,N,06839.59739,W,2.419,220.99,180924,,,A*75
$GPVTG,220.99,T,,M,2.419,N,4.479,K,A*3D
$GPGGA,175859.00,4506.12623,N,06839.59739,W,1,07,1.05,39.1,M,-29.0,M,,*51
$GPGSA,A,3,24,12,21,23,10,28,32,,,,,,1.76,1.05,1.41*0F
$GPGSV,4,1,14,02,02,335,,10,70,303,37,12,24,114,34,15,11,088,*7C
$GPGSV,4,2,14,18,07,185,,21,13,322,30,22,00,019,,23,65,143,38*7E
$GPGSV,4,3,14,24,46,057,35,25,15,151,,28,14,217,21,32,45,280,40*7B
$GPGSV,4,4,14,46,12,248,,48,15,245,*78
$GPGLL,4506.12623,N,06839.59739,W,175859.00,A,A*7A
$RDENS,5786,5033762,PC
$GPRMC,175900.00,A,4506.12574,N,06839.59799,W,2.371,220.62,180924,,,A*7E
$GPVTG,220.62,T,,M,2.371,N,4.390,K,A*30
$GPGGA,175900.00,4506.12574,N,06839.59799,W,1,07,1.05,39.2,M,-29.0,M,,*54
$GPGSA,A,3,24,12,21,23,10,28,32,,,,,,1.76,1.05,1.41*0F
$GPGSV,4,1,14,02,02,335,,10,70,303,37,12,24,114,34,15,11,088,*7C
$GPGSV,4,2,14,18,07,185,,21,13,322,30,22,00,019,,23,65,143,39*7F
$GPGSV,4,3,14,24,46,057,35,25,15,151,,28,14,217,21,32,45,280,40*7B
$GPGSV,4,4,14,46,12,248,,48,15,245,*78
$GPGLL,4506.12574,N,06839.59799,W,175900.00,A,A*7C
$RDENS,5787,5033840,PC
$RDENS,5788,5033919,PC
$GPRMC,175901.00,A,4506.12525,N,06839.59860,W,2.344,220.68,180924,,,A*7E
$GPVTG,220.68,T,,M,2.344,N,4.340,K,A*31
$GPGGA,175901.00,4506.12525,N,06839.59860,W,1,07,1.05,39.3,M,-29.0,M,,*59
$GPGSA,A,3,24,12,21,23,10,28,32,,,,,,1.76,1.05,1.41*0F
$GPGSV,4,1,14,02,02,335,,10,70,303,37,12,24,114,33,15,11,088,*7B
$GPGSV,4,2,14,18,07,185,,21,13,322,31,22,00,019,,23,65,143,39*7E
$GPGSV,4,3,14,24,46,057,33,25,15,151,,28,14,217,24,32,45,280,40*78
$GPGSV,4,4,14,46,12,248,,48,15,245,*78
$GPGLL,4506.12525,N,06839.59860,W,175901.00,A,A*70
$RDENS,5789,5033997,PC
$GPRMC,175902.00,A,4506.12476,N,06839.59921,W,2.298,220.64,180924,,,A*72
$GPVTG,220.64,T,,M,2.298,N,4.256,K,A*3B
$GPGGA,175902.00,4506.12476,N,06839.59921,W,1,07,1.05,39.4,M,-29.0,M,,*5E
$GPGSA,A,3,24,12,21,23,10,28,32,,,,,,1.76,1.05,1.41*0F
$GPGSV,4,1,14,02,02,335,,10,70,303,37,12,24,114,33,15,11,088,*7B
$GPGSV,4,2,14,18,07,185,,21,13,322,32,22,00,019,,23,65,143,39*7D
$GPGSV,4,3,14,24,46,057,33,25,15,151,18,28,14,217,24,32,45,280,40*71
$GPGSV,4,4,14,46,12,248,,48,15,245,*78
$GPGLL,4506.12476,N,06839.59921,W,175902.00,A,A*70
$RDENS,5790,5034076,PC
$GPRMC,175903.00,A,4506.12429,N,06839.59982,W,2.247,221.55,180924,,,A*71
$GPVTG,221.55,T,,M,2.247,N,4.161,K,A*3D
$GPGGA,175903.00,4506.12429,N,06839.59982,W,1,07,1.05,39.4,M,-29.0,M,,*5C
$GPGSA,A,3,24,12,21,23,10,28,32,,,,,,1.76,1.05,1.41*0F
$GPGSV,4,1,14,02,02,335,,10,70,303,38,12,24,114,33,15,11,088,*74
$GPGSV,4,2,14,18,07,185,,21,13,322,31,22,00,019,,23,65,143,39*7E
$GPGSV,4,3,14,24,46,057,33,25,15,151,16,28,14,217,25,32,45,280,39*70
$GPGSV,4,4,14,46,12,248,,48,15,245,*78
$GPGLL,4506.12429,N,06839.59982,W,175903.00,A,A*72
$RDENS,5791,5034155,PC
$GPRMC,175904.00,A,4506.12383,N,06839.60045,W,2.274,221.83,180924,,,A*72
$GPVTG,221.83,T,,M,2.274,N,4.211,K,A*32
$GPGGA,175904.00,4506.12383,N,06839.60045,W,1,07,1.05,39.4,M,-29.0,M,,*54
$GPGSA,A,3,24,12,21,23,10,28,32,,,,,,1.76,1.05,1.41*0F
$GPGSV,4,1,14,02,02,335,,10,70,303,37,12,24,114,34,15,11,088,*7C
$GPGSV,4,2,14,18,07,185,,21,13,322,31,22,00,019,,23,65,143,39*7E
$GPGSV,4,3,14,24,46,057,33,25,15,151,14,28,14,217,26,32,45,280,39*71
$GPGSV,4,4,14,46,12,248,,48,15,245,27*7D
$GPGLL,4506.12383,N,06839.60045,W,175904.00,A,A*7A
$RDENS,5792,5034234,PC
$RDENS,5793,5034312,PC
$GPRMC,175905.00,A,4506.12335,N,06839.60106,W,2.221,221.96,180924,,,A*7C
$GPVTG,221.96,T,,M,2.221,N,4.114,K,A*30
$GPGGA,175905.00,4506.12335,N,06839.60106,W,1,07,1.05,39.4,M,-29.0,M,,*5E
$GPGSA,A,3,24,12,21,23,10,28,32,,,,,,1.76,1.05,1.41*0F
$GPGSV,4,1,14,02,02,335,,10,70,303,37,12,24,114,33,15,11,088,*7B
$GPGSV,4,2,14,18,07,185,,21,13,322,30,22,00,019,,23,65,143,39*7F
$GPGSV,4,3,14,24,46,057,33,25,15,151,10,28,14,217,26,32,45,280,39*75
$GPGSV,4,4,14,46,12,248,,48,15,245,27*7D
$GPGLL,4506.12335,N,06839.60106,W,175905.00,A,A*70
$RDENS,5794,5034391,PC
$GPRMC,175906.00,A,4506.12288,N,06839.60169,W,2.231,222.45,180924,,,A*7D
$GPVTG,222.45,T,,M,2.231,N,4.132,K,A*38
$GPGGA,175906.00,4506.12288,N,06839.60169,W,1,07,1.05,39.5,M,-29.0,M,,*52
$GPGSA,A,3,24,12,21,23,10,28,32,,,,,,1.76,1.05,1.41*0F
$GPGSV,4,1,14,02,02,335,,10,70,303,37,12,24,114,33,15,11,088,*7B
$GPGSV,4,2,14,18,07,185,,21,13,322,30,22,00,019,,23,65,143,39*7F
$GPGSV,4,3,14,24,46,057,32,25,15,151,09,28,14,217,26,32,45,280,39*7C
$GPGSV,4,4,14,46,12,248,,48,15,245,*78
$GPGLL,4506.12288,N,06839.60169,W,175906.00,A,A*7D
$RDENS,5795,5034469,PC
$GPRMC,175907.00,A,4506.12241,N,06839.60234,W,2.279,222.53,180924,,,A*79
$GPVTG,222.53,T,,M,2.279,N,4.220,K,A*33
$GPGGA,175907.00,4506.12241,N,06839.60234,W,1,07,1.05,39.4,M,-29.0,M,,*5C
$GPGSA,A,3,24,12,21,23,10,28,32,,,,,,1.76,1.05,1.41*0F
$GPGSV,4,1,14,02,02,335,,10,70,303,37,12,24,114,32,15,11,088,*7A
$GPGSV,4,2,14,18,07,185,,21,13,322,30,22,00,019,,23,65,143,39*7F
$GPGSV,4,3,14,24,46,057,32,25,15,151,08,28,14,217,26,32,45,280,40*73
$GPGSV,4,4,14,46,12,248,,48,15,245,27*7D
$GPGLL,4506.12241,N,06839.60234,W,175907.00,A,A*72
$RDENS,5796,5034548,PC
$GPRMC,175908.00,A,4506.12195,N,06839.60298,W,2.286,222.86,180924,,,A*72
$GPVTG,222.86,T,,M,2.286,N,4.233,K,A*39
$GPGGA,175908.00,4506.12195,N,06839.60298,W,1,07,1.05,39.5,M,-29.0,M,,*5E
$GPGSA,A,3,24,12,21,23,10,28,32,,,,,,1.76,1.05,1.41*0F
$GPGSV,4,1,14,02,02,335,,10,70,303,38,12,24,114,33,15,11,088,*74
$GPGSV,4,2,14,18,07,185,,21,13,322,30,22,00,019,,23,65,143,39*7F
$GPGSV,4,3,14,24,46,057,32,25,15,151,08,28,14,217,26,32,45,280,40*73
$GPGSV,4,4,14,46,12,248,,48,15,245,*78
$GPGLL,4506.12195,N,06839.60298,W,175908.00,A,A*71
$RDENS,5797,5034627,PC
$RDENS,5798,5034705,PC
$GPRMC,175909.00,A,4506.12154,N,06839.60359,W,2.262,223.20,180924,,,A*75
$GPVTG,223.20,T,,M,2.262,N,4.189,K,A*3C
$GPGGA,175909.00,4506.12154,N,06839.60359,W,1,07,1.05,39.6,M,-29.0,M,,*5D
$GPGSA,A,3,24,12,21,23,10,28,32,,,,,,1.76,1.05,1.41*0F
$GPGSV,4,1,14,02,02,335,,10,70,303,38,12,24,114,34,15,11,088,*73
$GPGSV,4,2,14,18,07,185,,21,13,322,30,22,00,019,,23,65,143,39*7F
$GPGSV,4,3,14,24,46,057,32,25,15,151,08,28,14,217,25,32,45,280,40*70
$GPGSV,4,4,14,46,12,248,,48,15,245,*78
$GPGLL,4506.12154,N,06839.60359,W,175909.00,A,A*71
$RDENS,5799,5034785,PC
$GPRMC,175910.00,A,4506.12111,N,06839.60421,W,2.260,222.84,180924,,,A*79
$GPVTG,222.84,T,,M,2.260,N,4.185,K,A*3D
$GPGGA,175910.00,4506.12111,N,06839.60421,W,1,07,1.05,39.6,M,-29.0,M,,*5C
$GPGSA,A,3,24,12,21,23,10,28,32,,,,,,1.76,1.05,1.41*0F
$GPGSV,4,1,14,02,02,335,,10,71,303,39,12,24,114,34,15,11,088,*73
$GPGSV,4,2,14,18,07,185,,21,13,322,32,22,00,019,,23,65,143,39*7D
$GPGSV,4,3,14,24,46,057,32,25,15,151,08,28,14,217,25,32,45,280,39*7E
$GPGSV,4,4,14,46,12,248,,48,15,245,*78
$GPGLL,4506.12111,N,06839.60421,W,175910.00,A,A*70
$RDENS,5800,5034863,PC
$GPRMC,175911.00,A,4506.12066,N,06839.60483,W,2.251,223.36,180924,,,A*7B
$GPVTG,223.36,T,,M,2.251,N,4.169,K,A*35
$GPGGA,175911.00,4506.12066,N,06839.60483,W,1,07,1.05,39.7,M,-29.0,M,,*55
$GPGSA,A,3,24,12,21,23,10,28,32,,,,,,1.76,1.05,1.41*0F
$GPGSV,4,1,14,02,02,335,,10,71,303,38,12,24,114,34,15,11,088,*72
$GPGSV,4,2,14,18,07,185,,21,13,322,32,22,00,019,,23,65,143,39*7D
$GPGSV,4,3,14,24,46,057,32,25,15,151,08,28,14,217,25,32,45,280,39*7E
$GPGSV,4,4,14,46,12,248,,48,15,245,*78
$GPGLL,4506.12066,N,06839.60483,W,175911.00,A,A*78
$RDENS,5801,5034942,PC
$RDENS,5802,5035021,PC
$GPRMC,175912.00,A,4506.12023,N,06839.60545,W,2.337,223.41,180924,,,A*73
$GPVTG,223.41,T,,M,2.337,N,4.328,K,A*33
$GPGGA,175912.00,4506.12023,N,06839.60545,W,1,07,1.05,39.8,M,-29.0,M,,*53
$GPGSA,A,3,24,12,21,23,10,28,32,,,,,,1.76,1.05,1.41*0F
$GPGSV,4,1,14,02,02,335,,10,71,303,38,12,24,114,33,15,11,088,17*73
$GPGSV,4,2,14,18,07,185,,21,13,322,31,22,00,019,,23,65,143,39*7E
$GPGSV,4,3,14,24,46,057,32,25,15,151,08,28,14,217,24,32,45,280,40*71
$GPGSV,4,4,14,46,12,248,,48,15,245,*78
$GPGLL,4506.12023,N,06839.60545,W,175912.00,A,A*71
$RDENS,5803,5035099,PC
$GPRMC,175913.00,A,4506.11979,N,06839.60607,W,2.349,223.42,180924,,,A*78
$GPVTG,223.42,T,,M,2.349,N,4.350,K,A*36
$GPGGA,175913.00,4506.11979,N,06839.60607,W,1,07,1.05,39.8,M,-29.0,M,,*52
$GPGSA,A,3,24,12,21,23,10,28,32,,,,,,1.76,1.05,1.41*0F
$GPGSV,4,1,14,02,02,335,,10,71,303,38,12,24,114,32,15,11,088,16*73
$GPGSV,4,2,14,18,07,185,,21,13,322,31,22,00,019,,23,65,143,39*7E
$GPGSV,4,3,14,24,46,057,32,25,15,151,08,28,14,217,23,32,45,280,40*76
$GPGSV,4,4,14,46,12,248,,48,15,245,*78
$GPGLL,4506.11979,N,06839.60607,W,175913.00,A,A*70
$RDENS,5804,5035178,PC
$GPRMC,175914.00,A,4506.11940,N,06839.60666,W,2.246,224.32,180924,,,A*7C
$GPVTG,224.32,T,,M,2.246,N,4.160,K,A*39
$GPGGA,175914.00,4506.11940,N,06839.60666,W,1,07,1.05,39.9,M,-29.0,M,,*59
$GPGSA,A,3,24,12,21,23,10,28,32,,,,,,1.76,1.05,1.41*0F
$GPGSV,4,1,14,02,02,335,,10,71,303,38,12,24,114,33,15,11,088,14*70
$GPGSV,4,2,14,18,07,185,,21,13,322,31,22,00,019,,23,65,143,39*7E
$GPGSV,4,3,14,24,46,057,33,25,15,151,,28,14,217,22,32,45,280,39*70
$GPGSV,4,4,14,46,12,248,,48,15,245,27*7D
$GPGLL,4506.11940,N,06839.60666,W,175914.00,A,A*7A
$RDENS,5805,5035256,PC
$GPRMC,175915.00,A,4506.11903,N,06839.60725,W,2.176,225.67,180924,,,A*7D
$GPVTG,225.67,T,,M,2.176,N,4.029,K,A*34
$GPGGA,175915.00,4506.11903,N,06839.60725,W,1,08,0.99,40.0,M,-29.0,M,,*55
$GPGSA,A,3,24,12,21,23,10,28,32,48,,,,,1.69,0.99,1.37*08
$GPGSV,4,1,14,02,02,335,,10,71,303,38,12,24,114,34,15,11,088,12*71
$GPGSV,4,2,14,18,07,185,,21,13,322,31,22,00,019,,23,65,143,39*7E
$GPGSV,4,3,14,24,46,057,33,25,15,151,,28,14,217,21,32,45,280,39*73
$GPGSV,4,4,14,46,12,248,,48,15,245,27*7D
$GPGLL,4506.11903,N,06839.60725,W,175915.00,A,A*7A
$RDENS,5806,5035336,PC
$RDENS,5807,5035414,PC
$GPRMC,175916.00,A,4506.11862,N,06839.60787,W,2.324,225.03,180924,,,A*77
$GPVTG,225.03,T,,M,2.324,N,4.305,K,A*3E
$GPGGA,175916.00,4506.11862,N,06839.60787,W,1,08,1.05,40.1,M,-29.0,M,,*5D
$GPGSA,A,3,24,12,21,23,10,28,32,48,,,,,1.76,1.05,1.41*03
$GPGSV,4,1,14,02,02,335,,10,71,303,38,12,24,114,33,15,11,088,09*7C
$GPGSV,4,2,14,18,07,185,,21,13,322,30,22,00,019,,23,65,143,39*7F
$GPGSV,4,3,14,24,46,057,33,25,15,151,,28,14,217,21,32,45,280,39*73
$GPGSV,4,4,14,46,12,248,,48,15,245,27*7D
$GPGLL,4506.11862,N,06839.60787,W,175916.00,A,A*77
$RDENS,5808,5035493,PC
$GPRMC,175917.00,A,4506.11820,N,06839.60851,W,2.295,225.64,180924,,,A*7E
$GPVTG,225.64,T,,M,2.295,N,4.250,K,A*35
$GPGGA,175917.00,4506.11820,N,06839.60851,W,1,07,1.05,40.0,M,-29.0,M,,*50
$GPGSA,A,3,24,12,21,23,10,28,32,,,,,,1.76,1.05,1.41*0F
$GPGSV,4,1,14,02,02,335,,10,71,303,38,12,24,114,33,15,11,088,*75
$GPGSV,4,2,14,18,07,185,,21,13,322,30,22,00,019,,23,65,143,39*7F
$GPGSV,4,3,14,24,46,057,33,25,15,151,,28,14,217,21,32,45,280,39*73
$GPGSV,4,4,14,46,12,248,,48,15,245,*78
$GPGLL,4506.11820,N,06839.60851,W,175917.00,A,A*74
$RDENS,5809,5035571,PC
$GPRMC,175918.00,A,4506.11777,N,06839.60912,W,2.278,225.06,180924,,,A*7D
$GPVTG,225.06,T,,M,2.278,N,4.218,K,A*3E
$GPGGA,175918.00,4506.11777,N,06839.60912,W,1,07,1.05,40.0,M,-29.0,M,,*54
$GPGSA,A,3,24,12,21,23,10,28,32,,,,,,1.76,1.05,1.41*0F
$GPGSV,4,1,14,02,02,335,,10,71,303,38,12,24,114,33,15,11,088,*75
$GPGSV,4,2,14,18,06,185,,21,13,322,31,22,00,019,,23,65,143,38*7E
$GPGSV,4,3,14,24,46,057,32,25,15,151,,28,14,217,21,32,45,280,40*7C
$GPGSV,4,4,14,46,12,248,,48,15,245,*78
$GPGLL,4506.11777,N,06839.60912,W,175918.00,A,A*70
$RDENS,5810,5035650,PC
$GPRMC,175919.00,A,4506.11732,N,06839.60974,W,2.221,224.55,180924,,,A*76
$GPVTG,224.55,T,,M,2.221,N,4.113,K,A*3D
$GPGGA,175919.00,4506.11732,N,06839.60974,W,1,07,1.05,40.0,M,-29.0,M,,*54
$GPGSA,A,3,24,12,21,23,10,28,32,,,,,,1.76,1.05,1.41*0F
$GPGSV,4,1,14,02,02,335,,10,71,303,37,12,24,114,33,15,11,088,*7A
$GPGSV,4,2,14,18,06,185,,21,13,322,30,22,00,019,,23,65,143,39*7E
$GPGSV,4,3,14,24,46,057,32,25,15,151,,28,14,217,22,32,45,280,40*7F
$GPGSV,4,4,14,46,12,248,,48,15,245,*78
$GPGLL,4506.11732,N,06839.60974,W,175919.00,A,A*70
$RDENS,5811,5035728,PC
$RDENS,5812,5035808,PC
$GPRMC,175920.00,A,4506.11687,N,06839.61036,W,2.200,224.76,180924,,,A*7F
$GPVTG,224.76,T,,M,2.200,N,4.075,K,A*3E
$GPGGA,175920.00,4506.11687,N,06839.61036,W,1,07,1.05,40.0,M,-29.0,M,,*5F
$GPGSA,A,3,24,12,21,23,10,28,32,,,,,,1.76,1.05,1.41*0F
$GPGSV,4,1,14,02,02,335,,10,71,303,37,12,24,114,33,15,11,088,*7A
$GPGSV,4,2,14,18,06,185,,21,13,322,30,22,00,019,,23,65,143,39*7E
$GPGSV,4,3,14,24,46,057,31,25,15,151,,28,14,217,23,32,45,280,41*7C
$GPGSV,4,4,14,46,12,248,,48,15,245,*78
$GPGLL,4506.11687,N,06839.61036,W,175920.00,A,A*7B
$RDENS,5813,5035886,PC
$GPRMC,175921.00,A,4506.11641,N,06839.61098,W,2.268,223.97,180924,,,A*76
$GPVTG,223.97,T,,M,2.268,N,4.201,K,A*39
$GPGGA,175921.00,4506.11641,N,06839.61098,W,1,07,1.05,40.0,M,-29.0,M,,*50
$GPGSA,A,3,24,12,21,23,10,28,32,,,,,,1.76,1.05,1.41*0F
$GPGSV,4,1,14,02,02,335,,10,71,303,36,12,24,114,33,15,11,088,*7B
$GPGSV,4,2,14,18,06,185,,21,13,322,30,22,00,019,,23,65,143,39*7E
$GPGSV,4,3,14,24,46,057,31,25,15,151,14,28,14,217,24,32,45,280,41*7E
$GPGSV,4,4,14,46,12,248,,48,15,245,*78
$GPGLL,4506.11641,N,06839.61098,W,175921.00,A,A*74
$RDENS,5814,5035965,PC
$GPRMC,175922.00,A,4506.11596,N,06839.61161,W,2.146,224.39,180924,,,A*77
$GPVTG,224.39,T,,M,2.146,N,3.975,K,A*3A
$GPGGA,175922.00,4506.11596,N,06839.61161,W,1,07,1.05,40.0,M,-29.0,M,,*5D
$GPGSA,A,3,24,12,21,23,10,28,32,,,,,,1.76,1.05,1.41*0F
$GPGSV,4,1,13,02,02,335,,10,71,303,36,12,24,114,33,15,11,088,*7C
$GPGSV,4,2,13,18,06,185,,21,13,322,30,23,65,143,39,24,46,057,31*75
$GPGSV,4,3,13,25,15,151,12,28,14,217,24,32,45,280,41,46,12,248,*74
$GPGSV,4,4,13,48,15,245,*40
$GPGLL,4506.11596,N,06839.61161,W,175922.00,A,A*79
$RDENS,5815,5036044,PC
$GPRMC,175923.00,A,4506.11551,N,06839.61222,W,2.139,224.22,180924,,,A*7B
$RDENS,5816,5036122,PC
$GPVTG,224.22,T,,M,2.139,N,3.961,K,A*3D
$GPGGA,175923.00,4506.11551,N,06839.61222,W,1,07,1.05,40.0,M,-29.0,M,,*53
$GPGSA,A,3,24,12,21,23,10,28,32,,,,,,1.76,1.05,1.41*0F
$GPGSV,4,1,13,02,02,335,,10,71,303,36,12,24,114,33,15,11,088,*7C
$GPGSV,4,2,13,18,06,185,,21,13,322,30,23,65,144,39,24,46,057,31*72
$GPGSV,4,3,13,25,15,151,12,28,14,217,24,32,45,280,41,46,12,248,*74
$GPGSV,4,4,13,48,15,245,*40
$GPGLL,4506.11551,N,06839.61222,W,175923.00,A,A*77
$RDENS,5817,5036201,PC
$GPRMC,175924.00,A,4506.11506,N,06839.61285,W,2.287,223.96,180924,,,A*7D
$GPVTG,223.96,T,,M,2.287,N,4.236,K,A*3D
$GPGGA,175924.00,4506.11506,N,06839.61285,W,1,07,1.05,40.0,M,-29.0,M,,*5B
$GPGSA,A,3,24,12,21,23,10,28,32,,,,,,1.76,1.05,1.41*0F
$GPGSV,4,1,13,02,02,335,,10,71,303,36,12,24,114,32,15,11,088,*7D
$GPGSV,4,2,13,18,06,185,,21,13,322,30,23,65,144,39,24,46,057,31*72
$GPGSV,4,3,13,25,15,151,12,28,14,217,24,32,45,280,41,46,12,248,*74
$GPGSV,4,4,13,48,15,245,*40
$GPGLL,4506.11506,N,06839.61285,W,175924.00,A,A*7F
$RDENS,5818,5036279,PC
$GPRMC,175925.00,A,4506.11461,N,06839.61346,W,2.292,224.27,180924,,,A*7B
$GPVTG,224.27,T,,M,2.292,N,4.245,K,A*30
$GPGGA,175925.00,4506.11461,N,06839.61346,W,1,07,1.05,40.0,M,-29.0,M,,*54
$GPGSA,A,3,24,12,21,23,10,28,32,,,,,,1.76,1.05,1.41*0F
$GPGSV,4,1,13,02,02,335,,10,71,303,36,12,24,114,33,15,11,088,*7C
$GPGSV,4,2,13,18,06,185,,21,13,322,30,23,65,144,39,24,46,057,32*71
$GPGSV,4,3,13,25,15,151,13,28,14,217,23,32,45,280,41,46,12,248,*72
$GPGSV,4,4,13,48,15,245,*40
$GPGLL,4506.11461,N,06839.61346,W,175925.00,A,A*70
$RDENS,5819,5036358,PC
$GPRMC,175926.00,A,4506.11420,N,06839.61406,W,2.192,224.04,180924,,,A*7C
$GPVTG,224.04,T,,M,2.192,N,4.060,K,A*37
$GPGGA,175926.00,4506.11420,N,06839.61406,W,1,08,0.99,40.0,M,-29.0,M,,*5A
$GPGSA,A,3,24,12,25,21,23,10,28,32,,,,,1.65,0.99,1.32*0A
$GPGSV,4,1,13,02,02,335,,10,71,303,37,12,24,114,33,15,11,088,*7D
$GPGSV,4,2,13,18,06,185,,21,13,322,32,23,65,144,39,24,46,057,32*73
$GPGSV,4,3,13,25,15,151,15,28,14,217,23,32,45,280,40,46,12,248,*75
$GPGSV,4,4,13,48,15,245,*40
$GPGLL,4506.11420,N,06839.61406,W,175926.00,A,A*75
$RDENS,5820,5036437,PC
$RDENS,5821,5036515,PC
$GPRMC,175927.00,A,4506.11381,N,06839.61467,W,2.152,225.09,180924,,,A*76
$GPVTG,225.09,T,,M,2.152,N,3.986,K,A*31
$GPGGA,175927.00,4506.11381,N,06839.61467,W,1,08,0.99,40.2,M,-29.0,M,,*52
$GPGSA,A,3,24,12,25,21,23,10,28,32,,,,,1.65,0.99,1.32*0A
$GPGSV,4,1,13,02,02,335,,10,71,303,38,12,24,114,33,15,11,088,*72
$GPGSV,4,2,13,18,06,185,,21,13,322,32,23,65,144,39,24,46,057,32*73
$GPGSV,4,3,13,25,15,151,15,28,14,217,22,32,45,280,40,46,12,248,*74
$GPGSV,4,4,13,48,15,245,*40
$GPGLL,4506.11381,N,06839.61467,W,175927.00,A,A*7F
$RDENS,5822,5036594,PC
$GPRMC,175928.00,A,4506.11344,N,06839.61525,W,2.187,224.99,180924,,,A*77
$GPVTG,224.99,T,,M,2.187,N,4.050,K,A*34
$GPGGA,175928.00,4506.11344,N,06839.61525,W,1,08,0.99,40.4,M,-29.0,M,,*55
$GPGSA,A,3,24,12,25,21,23,10,28,32,,,,,1.65,0.99,1.32*0A
$GPGSV,4,1,13,02,02,335,,10,71,303,38,12,24,114,33,15,11,088,*72
$GPGSV,4,2,13,18,06,185,,21,13,322,31,23,65,144,39,24,46,057,33*71
$GPGSV,4,3,13,25,15,151,14,28,14,217,22,32,45,280,40,46,12,248,*75
$GPGSV,4,4,13,48,15,245,*40
$GPGLL,4506.11344,N,06839.61525,W,175928.00,A,A*7E
$RDENS,5823,5036672,PC
$GPRMC,175929.00,A,4506.11297,N,06839.61587,W,2.291,224.05,180924,,,A*70
$GPVTG,224.05,T,,M,2.291,N,4.242,K,A*34
$GPGGA,175929.00,4506.11297,N,06839.61587,W,1,08,0.99,40.4,M,-29.0,M,,*53
$GPGSA,A,3,24,12,25,21,23,10,28,32,,,,,1.65,0.99,1.32*0A
$GPGSV,4,1,13,02,02,335,,10,71,303,38,12,24,114,33,15,11,088,17*74
$GPGSV,4,2,13,18,06,185,,21,13,322,32,23,65,144,39,24,46,057,33*72
$GPGSV,4,3,13,25,15,151,14,28,14,217,22,32,45,280,40,46,12,248,*75
$GPGSV,4,4,13,48,15,245,*40
$GPGLL,4506.11297,N,06839.61587,W,175929.00,A,A*78
$RDENS,5824,5036751,PC
$GPRMC,175930.00,A,4506.11255,N,06839.61648,W,2.239,223.99,180924,,,A*76
$GPVTG,223.99,T,,M,2.239,N,4.147,K,A*32
$GPGGA,175930.00,4506.11255,N,06839.61648,W,1,08,0.99,40.5,M,-29.0,M,,*54
$GPGSA,A,3,24,12,25,21,23,10,28,32,,,,,1.65,0.99,1.32*0A
$GPGSV,4,1,13,02,02,335,,10,71,303,38,12,24,114,33,15,11,088,14*77
$GPGSV,4,2,13,18,06,185,,21,13,322,32,23,65,144,38,24,46,057,33*73
$GPGSV,4,3,13,25,15,151,16,28,14,217,22,32,45,280,40,46,12,248,*77
$GPGSV,4,4,13,48,15,245,*40
$GPGLL,4506.11255,N,06839.61648,W,175930.00,A,A*7E
$RDENS,5825,5036830,PC
$RDENS,5826,5036908,PC
$GPRMC,175931.00,A,4506.11208,N,06839.61709,W,2.313,222.86,180924,,,A*7D
$GPVTG,222.86,T,,M,2.313,N,4.284,K,A*38
$GPGGA,175931.00,4506.11208,N,06839.61709,W,1,08,0.99,40.6,M,-29.0,M,,*5A
$GPGSA,A,3,24,12,25,21,23,10,28,32,,,,,1.65,0.99,1.32*0A
$GPGSV,4,1,13,02,02,335,,10,71,303,37,12,24,114,34,15,11,088,12*79
$GPGSV,4,2,13,18,06,185,,21,13,322,32,23,65,144,38,24,46,057,33*73
$GPGSV,4,3,13,25,15,151,18,28,14,217,23,32,45,280,40,46,12,248,*78
$GPGSV,4,4,13,48,15,245,*40
$GPGLL,4506.11208,N,06839.61709,W,175931.00,A,A*73
$RDENS,5827,5036986,PC
$GPRMC,175932.00,A,4506.11161,N,06839.61770,W,2.354,222.65,180924,,,A*72
$GPVTG,222.65,T,,M,2.354,N,4.360,K,A*3D
$GPGGA,175932.00,4506.11161,N,06839.61770,W,1,08,0.99,40.6,M,-29.0,M,,*5B
$GPGSA,A,3,24,12,25,21,23,10,28,32,,,,,1.65,0.99,1.32*0A
$GPGSV,4,1,13,02,02,335,,10,71,303,37,12,24,114,34,15,11,088,12*79
$GPGSV,4,2,13,18,06,185,,21,13,322,32,23,65,144,38,24,46,057,33*73
$GPGSV,4,3,13,25,15,151,17,28,14,217,24,32,46,280,40,46,12,248,*73
$GPGSV,4,4,13,48,15,245,*40
$GPGLL,4506.11161,N,06839.61770,W,175932.00,A,A*72
$RDENS,5828,5037066,PC
$GPRMC,175933.00,A,4506.11109,N,06839.61831,W,2.433,220.81,180924,,,A*79
$GPVTG,220.81,T,,M,2.433,N,4.505,K,A*36
$GPGGA,175933.00,4506.11109,N,06839.61831,W,1,08,0.99,40.6,M,-29.0,M,,*5E
$GPGSA,A,3,24,12,25,21,23,10,28,32,,,,,1.65,0.99,1.32*0A
$GPGSV,4,1,13,02,02,335,,10,71,303,37,12,24,114,35,15,11,088,12*78
$GPGSV,4,2,13,18,06,185,,21,13,322,32,23,65,144,39,24,46,057,33*72
$GPGSV,4,3,13,25,15,151,15,28,14,217,24,32,46,280,40,46,12,248,*71
$GPGSV,4,4,13,48,15,245,*40
$GPGLL,4506.11109,N,06839.61831,W,175933.00,A,A*77
$RDENS,5829,5037145,PC
$RDENS,5830,5037223,PC
$GPRMC,175934.00,A,4506.11062,N,06839.61890,W,2.294,220.99,180924,,,A*7B
$GPVTG,220.99,T,,M,2.294,N,4.249,K,A*3B
$GPGGA,175934.00,4506.11062,N,06839.61890,W,1,08,0.99,40.6,M,-29.0,M,,*5E
$GPGSA,A,3,24,12,25,21,23,10,28,32,,,,,1.65,0.99,1.32*0A
$GPGSV,4,1,13,02,02,335,,10,71,303,37,12,24,114,35,15,11,088,12*78
$GPGSV,4,2,13,18,06,185,,21,13,322,31,23,65,144,39,24,46,057,33*71
$GPGSV,4,3,13,25,15,151,16,28,14,217,25,32,46,280,40,46,12,248,*73
$GPGSV,4,4,13,48,15,245,*40
$GPGLL,4506.11062,N,06839.61890,W,175934.00,A,A*77
$RDENS,5831,5037301,PC
$GPRMC,175935.00,A,4506.11013,N,06839.61949,W,2.317,220.91,180924,,,A*7B
$GPVTG,220.91,T,,M,2.317,N,4.292,K,A*3F
$GPGGA,175935.00,4506.11013,N,06839.61949,W,1,08,0.99,40.6,M,-29.0,M,,*5C
$GPGSA,A,3,24,12,25,21,23,10,28,32,,,,,1.65,0.99,1.32*0A
$GPGSV,4,1,13,02,02,335,,10,71,303,37,12,24,114,35,15,11,088,12*78
$GPGSV,4,2,13,18,06,185,,21,13,322,31,23,65,144,39,24,46,057,33*71
$GPGSV,4,3,13,25,15,151,16,28,14,217,25,32,46,280,40,46,12,248,*73
$GPGSV,4,4,13,48,15,245,*40
$GPGLL,4506.11013,N,06839.61949,W,175935.00,A,A*75
$RDENS,5832,5037380,PC
$GPRMC,175936.00,A,4506.10964,N,06839.62009,W,2.372,220.66,180924,,,A*75
$GPVTG,220.66,T,,M,2.372,N,4.394,K,A*33
$GPGGA,175936.00,4506.10964,N,06839.62009,W,1,08,0.99,40.8,M,-29.0,M,,*57
$GPGSA,A,3,24,12,25,21,23,10,28,32,,,,,1.65,0.99,1.32*0A
$GPGSV,4,1,13,02,02,335,,10,71,303,37,12,24,114,35,15,11,088,12*78
$GPGSV,4,2,13,18,06,185,,21,13,322,30,23,65,144,39,24,46,057,34*77
$GPGSV,4,3,13,25,15,151,16,28,14,217,25,32,46,280,40,46,12,248,*73
$GPGSV,4,4,13,48,15,245,*40
$GPGLL,4506.10964,N,06839.62009,W,175936.00,A,A*70
$RDENS,5833,5037458,PC
$GPRMC,175937.00,A,4506.10918,N,06839.62068,W,2.244,221.10,180924,,,A*7C
$GPVTG,221.10,T,,M,2.244,N,4.155,K,A*38
$GPGGA,175937.00,4506.10918,N,06839.62068,W,1,08,0.99,40.9,M,-29.0,M,,*5B
$GPGSA,A,3,24,12,25,21,23,10,28,32,,,,,1.65,0.99,1.32*0A
$GPGSV,4,1,13,02,02,335,,10,71,303,37,12,24,114,34,15,11,088,*7A
$GPGSV,4,2,13,18,06,185,,21,13,322,29,23,65,144,39,24,46,057,34*7F
$GPGSV,4,3,13,25,15,151,16,28,14,217,25,32,46,280,40,46,12,248,*73
$GPGSV,4,4,13,48,15,245,*40
$GPGLL,4506.10918,N,06839.62068,W,175937.00,A,A*7D
$RDENS,5834,5037538,PC
$RDENS,5835,5037616,PC
$GPRMC,175938.00,A,4506.10872,N,06839.62125,W,2.259,220.83,180924,,,A*71
$GPVTG,220.83,T,,M,2.259,N,4.184,K,A*33
$GPGGA,175938.00,4506.10872,N,06839.62125,W,1,08,0.99,40.9,M,-29.0,M,,*51
$GPGSA,A,3,24,12,25,21,23,10,28,32,,,,,1.65,0.99,1.32*0A
$GPGSV,4,1,13,02,02,335,,10,71,303,37,12,24,114,34,15,11,088,*7A
$GPGSV,4,2,13,18,06,185,,21,13,322,29,23,65,144,39,24,46,057,34*7F
$GPGSV,4,3,13,25,15,151,16,28,14,217,26,32,46,280,40,46,12,248,*70
$GPGSV,4,4,13,48,15,245,*40
$GPGLL,4506.10872,N,06839.62125,W,175938.00,A,A*77
$RDENS,5836,5037695,PC
$GPRMC,175939.00,A,4506.10823,N,06839.62182,W,2.349,219.58,180924,,,A*75
$GPVTG,219.58,T,,M,2.349,N,4.349,K,A*3C
$GPGGA,175939.00,4506.10823,N,06839.62182,W,1,08,0.99,41.0,M,-29.0,M,,*51
$GPGSA,A,3,24,12,25,21,23,10,28,32,,,,,1.65,0.99,1.32*0A
$GPGSV,4,1,13,02,02,335,,10,71,303,37,12,24,114,34,15,11,088,*7A
$GPGSV,4,2,13,18,06,185,,21,13,322,29,23,65,144,39,24,46,057,34*7F
$GPGSV,4,3,13,25,15,151,17,28,14,217,26,32,46,280,39,46,12,248,*7F
$GPGSV,4,4,13,48,15,245,*40
$GPGLL,4506.10823,N,06839.62182,W,175939.00,A,A*7F
$RDENS,5837,5037774,PC
$GPRMC,175940.00,A,4506.10775,N,06839.62241,W,2.269,219.83,180924,,,A*7E
$GPVTG,219.83,T,,M,2.269,N,4.203,K,A*36
$GPGGA,175940.00,4506.10775,N,06839.62241,W,1,08,0.99,41.0,M,-29.0,M,,*5F
$GPGSA,A,3,24,12,25,21,23,10,28,32,,,,,1.65,0.99,1.32*0A
$GPGSV,4,1,13,02,02,335,,10,71,303,37,12,24,114,34,15,11,088,*7A
$GPGSV,4,2,13,18,06,185,,21,13,322,29,23,65,144,39,24,46,057,34*7F
$GPGSV,4,3,13,25,15,151,17,28,14,217,25,32,46,280,39,46,12,248,*7C
$GPGSV,4,4,13,48,15,245,*40
$GPGLL,4506.10775,N,06839.62241,W,175940.00,A,A*71
$RDENS,5838,5037852,PC
$GPRMC,175941.00,A,4506.10722,N,06839.62300,W,2.381,218.78,180924,,,A*7B
$GPVTG,218.78,T,,M,2.381,N,4.409,K,A*38
$GPGGA,175941.00,4506.10722,N,06839.62300,W,1,08,0.99,41.0,M,-29.0,M,,*58
$GPGSA,A,3,24,12,25,21,23,10,28,32,,,,,1.65,0.99,1.32*0A
$GPGSV,4,1,13,02,02,335,,10,71,303,36,12,24,114,34,15,11,088,*7B
$GPGSV,4,2,13,18,06,185,,21,13,322,30,23,65,144,39,24,46,057,34*77
$GPGSV,4,3,13,25,15,151,16,28,14,217,25,32,46,280,39,46,12,248,*7D
$GPGSV,4,4,13,48,15,245,*40
$GPGLL,4506.10722,N,06839.62300,W,175941.00,A,A*76
$RDENS,5839,5037931,PC
$RDENS,5840,5038010,PC
$GPRMC,175942.00,A,4506.10670,N,06839.62358,W,2.352,218.31,180924,,,A*70
$GPVTG,218.31,T,,M,2.352,N,4.356,K,A*36
$GPGGA,175942.00,4506.10670,N,06839.62358,W,1,08,0.99,41.0,M,-29.0,M,,*50
$GPGSA,A,3,24,12,25,21,23,10,28,32,,,,,1.65,0.99,1.32*0A
$GPGSV,4,1,13,02,02,335,,10,71,303,36,12,24,114,33,15,11,088,*7C
$GPGSV,4,2,13,18,06,185,,21,13,322,30,23,65,144,39,24,46,057,33*70
$GPGSV,4,3,13,25,15,151,18,28,14,217,25,32,46,280,39,46,12,248,*73
$GPGSV,4,4,13,48,15,245,*40
$GPGLL,4506.10670,N,06839.62358,W,175942.00,A,A*7E
$RDENS,5841,5038088,PC
$GPRMC,175943.00,A,4506.10619,N,06839.62414,W,2.305,217.63,180924,,,A*7B
$GPVTG,217.63,T,,M,2.305,N,4.269,K,A*31
$GPGGA,175943.00,4506.10619,N,06839.62414,W,1,08,0.99,41.0,M,-29.0,M,,*51
$GPGSA,A,3,24,12,25,21,23,10,28,32,,,,,1.65,0.99,1.32*0A
$GPGSV,4,1,13,02,02,335,,10,71,303,36,12,24,114,33,15,11,088,*7C
$GPGSV,4,2,13,18,06,185,04,21,13,322,30,23,65,144,39,24,46,057,33*74
$GPGSV,4,3,13,25,15,151,18,28,14,217,25,32,46,280,39,46,12,248,*73
$GPGSV,4,4,13,48,15,245,27*45
$GPGLL,4506.10619,N,06839.62414,W,175943.00,A,A*7F
$RDENS,5842,5038167,PC
$GPRMC,175944.00,A,4506.10561,N,06839.62475,W,2.693,216.90,180924,,,A*70
$GPVTG,216.90,T,,M,2.693,N,4.987,K,A*3D
$GPGGA,175944.00,4506.10561,N,06839.62475,W,1,09,0.92,40.9,M,-29.0,M,,*5F
$GPGSA,A,3,24,12,25,21,23,10,28,32,48,,,,1.59,0.92,1.30*00
$GPGSV,4,1,13,02,02,335,,10,71,303,37,12,24,114,32,15,11,088,*7C
$GPGSV,4,2,13,18,06,185,07,21,13,322,30,23,65,144,39,24,46,057,34*70
$GPGSV,4,3,13,25,15,151,19,28,14,217,24,32,46,280,39,46,12,248,*73
$GPGSV,4,4,13,48,15,245,27*45
$GPGLL,4506.10561,N,06839.62475,W,175944.00,A,A*73
$RDENS,5843,5038245,PC
$GPRMC,175945.00,A,4506.10507,N,06839.62534,W,2.445,216.83,180924,,,A*7E
$GPVTG,216.83,T,,M,2.445,N,4.529,K,A*3E
$GPGGA,175945.00,4506.10507,N,06839.62534,W,1,09,0.99,40.9,M,-29.0,M,,*51
$GPGSA,A,3,24,12,25,21,23,10,28,32,48,,,,1.65,0.99,1.32*06
$GPGSV,4,1,13,02,02,335,,10,71,303,36,12,24,114,32,15,11,088,*7D
$GPGSV,4,2,13,18,06,185,12,21,13,322,29,23,65,144,39,24,46,057,34*7C
$GPGSV,4,3,13,25,15,151,20,28,14,217,23,32,46,280,39,46,12,248,*7E
$GPGSV,4,4,13,48,15,245,27*45
$GPGLL,4506.10507,N,06839.62534,W,175945.00,A,A*76
$RDENS,5844,5038324,PC
$RDENS,5845,5038403,PC
$GPRMC,175946.00,A,4506.10455,N,06839.62589,W,2.422,216.71,180924,,,A*71
$GPVTG,216.71,T,,M,2.422,N,4.486,K,A*36
$GPGGA,175946.00,4506.10455,N,06839.62589,W,1,08,0.99,40.9,M,-29.0,M,,*53
$GPGSA,A,3,24,12,25,21,23,10,28,32,,,,,1.65,0.99,1.32*0A
$GPGSV,4,1,13,02,03,335,,10,71,303,36,12,24,114,32,15,11,088,*7C
$GPGSV,4,2,13,18,06,185,14,21,13,322,29,23,65,144,39,24,46,057,34*7A
$GPGSV,4,3,13,25,15,151,18,28,14,217,23,32,46,280,39,46,12,248,*75
$GPGSV,4,4,13,48,15,245,*40
$GPGLL,4506.10455,N,06839.62589,W,175946.00,A,A*75
$RDENS,5846,5038482,PC
$GPRMC,175947.00,A,4506.10406,N,06839.62643,W,2.333,217.13,180924,,,A*71
$GPVTG,217.13,T,,M,2.333,N,4.321,K,A*3E
$GPGGA,175947.00,4506.10406,N,06839.62643,W,1,08,0.99,40.8,M,-29.0,M,,*50
$GPGSA,A,3,24,12,25,21,23,10,28,32,,,,,1.65,0.99,1.32*0A
$GPGSV,4,1,13,02,03,335,,10,71,303,36,12,24,114,33,15,11,088,*7D
$GPGSV,4,2,13,18,06,185,14,21,13,322,29,23,65,144,39,24,46,057,34*7A
$GPGSV,4,3,13,25,15,151,18,28,14,217,23,32,46,280,39,46,12,248,*75
$GPGSV,4,4,13,48,15,245,*40
$GPGLL,4506.10406,N,06839.62643,W,175947.00,A,A*77
$RDENS,5847,5038560,PC
$GPRMC,175948.00,A,4506.10356,N,06839.62697,W,2.388,217.70,180924,,,A*70
$GPVTG,217.70,T,,M,2.388,N,4.423,K,A*3E
$GPGGA,175948.00,4506.10356,N,06839.62697,W,1,09,0.94,40.8,M,-29.0,M,,*58
$GPGSA,A,3,18,24,12,25,21,23,10,28,32,,,,1.58,0.94,1.26*05
$GPGSV,4,1,13,02,03,335,,10,71,303,37,12,24,114,34,15,11,088,*7B
$GPGSV,4,2,13,18,06,185,14,21,13,322,30,23,65,144,39,24,46,057,36*70
$GPGSV,4,3,13,25,15,151,16,28,14,217,21,32,46,280,36,46,12,248,*76
$GPGSV,4,4,13,48,15,245,*40
$GPGLL,4506.10356,N,06839.62697,W,175948.00,A,A*73
$RDENS,5848,5038639,PC
$RDENS,5849,5038717,PC
$GPRMC,175949.00,A,4506.10304,N,06839.62752,W,2.370,217.01,180924,,,A*7F
$GPVTG,217.01,T,,M,2.370,N,4.389,K,A*38
$GPGGA,175949.00,4506.10304,N,06839.62752,W,1,08,0.98,40.8,M,-29.0,M,,*5B
$GPGSA,A,3,18,24,12,21,23,10,28,32,,,,,1.62,0.98,1.29*08
$GPGSV,4,1,13,02,03,335,,10,71,303,37,12,24,114,29,15,11,088,*77
$GPGSV,4,2,13,18,06,185,15,21,13,322,30,23,65,144,38,24,46,057,32*74
$GPGSV,4,3,13,25,15,151,,28,14,217,18,32,46,280,33,46,12,248,*7E
$GPGSV,4,4,13,48,15,245,*40
$GPGLL,4506.10304,N,06839.62752,W,175949.00,A,A*7D
$RDENS,5850,5038796,PC
$GPRMC,175950.00,A,4506.10245,N,06839.62811,W,2.643,216.42,180924,,,A*78
$GPVTG,216.42,T,,M,2.643,N,4.895,K,A*3D
$GPGGA,175950.00,4506.10245,N,06839.62811,W,1,08,0.98,40.6,M,-29.0,M,,*51
$GPGSA,A,3,18,24,12,21,23,10,28,32,,,,,1.62,0.98,1.29*08
$GPGSV,4,1,13,02,03,335,,10,71,303,37,12,24,114,32,15,11,088,*7D
$GPGSV,4,2,13,18,06,185,16,21,13,322,29,23,65,144,38,24,46,057,33*7E
$GPGSV,4,3,13,25,15,151,,28,14,217,17,32,46,280,32,46,12,248,*70
$GPGSV,4,4,13,48,15,245,*40
$GPGLL,4506.10245,N,06839.62811,W,175950.00,A,A*79
$RDENS,5851,5038874,PC
$GPRMC,175951.00,A,4506.10192,N,06839.62864,W,2.333,216.55,180924,,,A*76
$GPVTG,216.55,T,,M,2.333,N,4.321,K,A*3D
$GPGGA,175951.00,4506.10192,N,06839.62864,W,1,08,0.98,40.6,M,-29.0,M,,*5B
$GPGSA,A,3,18,24,12,21,23,10,28,32,,,,,1.62,0.98,1.29*08
$GPGSV,4,1,13,02,03,335,,10,71,303,38,12,24,114,34,15,11,088,*74
$GPGSV,4,2,13,18,06,185,16,21,13,322,29,23,65,144,39,24,46,057,33*7F
$GPGSV,4,3,13,25,15,151,,28,14,217,17,32,46,280,33,46,12,248,*71
$GPGSV,4,4,13,48,15,245,*40
$GPGLL,4506.10192,N,06839.62864,W,175951.00,A,A*73
$RDENS,5852,5038953,PC
$GPRMC,175952.00,A,4506.10139,N,06839.62916,W,2.330,216.30,180924,,,A*70
$GPVTG,216.30,T,,M,2.330,N,4.316,K,A*39
$GPGGA,175952.00,4506.10139,N,06839.62916,W,1,08,0.98,40.6,M,-29.0,M,,*5D
$GPGSA,A,3,18,24,12,21,23,10,28,32,,,,,1.62,0.98,1.29*08
$GPGSV,4,1,13,02,03,335,,10,71,303,38,12,24,114,34,15,11,088,*74
$GPGSV,4,2,13,18,06,185,17,21,13,322,29,23,65,144,38,24,46,057,33*7F
$GPGSV,4,3,13,25,15,151,,28,14,217,19,32,46,280,32,46,12,248,*7E
$GPGSV,4,4,13,48,15,245,*40
$GPGLL,4506.10139,N,06839.62916,W,175952.00,A,A*75
$RDENS,5853,5039032,PC
$RDENS,5854,5039110,PC
$GPRMC,175953.00,A,4506.10086,N,06839.62971,W,2.376,216.85,180924,,,A*79
$GPVTG,216.85,T,,M,2.376,N,4.399,K,A*32
$GPGGA,175953.00,4506.10086,N,06839.62971,W,1,08,0.98,40.5,M,-29.0,M,,*5B
$GPGSA,A,3,18,24,12,21,23,10,28,32,,,,,1.62,0.98,1.29*08
$GPGSV,4,1,13,02,03,335,,10,71,303,38,12,24,114,33,15,11,088,*73
$GPGSV,4,2,13,18,06,185,18,21,13,322,30,23,65,144,38,24,46,057,33*78
$GPGSV,4,3,13,25,15,151,,28,14,217,19,32,46,280,32,46,12,248,*7E
$GPGSV,4,4,13,48,15,245,*40
$GPGLL,4506.10086,N,06839.62971,W,175953.00,A,A*70
$RDENS,5855,5039189,PC
$GPRMC,175954.00,A,4506.10033,N,06839.63024,W,2.420,216.30,180924,,,A*72
$GPVTG,216.30,T,,M,2.420,N,4.481,K,A*36
$GPGGA,175954.00,4506.10033,N,06839.63024,W,1,08,0.98,40.4,M,-29.0,M,,*5B
$GPGSA,A,3,18,24,12,21,23,10,28,32,,,,,1.62,0.98,1.29*08
$GPGSV,4,1,13,02,03,335,,10,71,302,38,12,24,114,34,15,11,088,*75
$GPGSV,4,2,13,18,06,185,18,21,13,322,30,23,65,144,38,24,46,057,33*78
$GPGSV,4,3,13,25,15,151,,28,14,217,20,32,46,280,32,46,12,248,*74
$GPGSV,4,4,13,48,15,245,*40
$GPGLL,4506.10033,N,06839.63024,W,175954.00,A,A*71
$RDENS,5856,5039267,PC
$GPRMC,175955.00,A,4506.09976,N,06839.63076,W,2.485,214.86,180924,,,A*74
$GPVTG,214.86,T,,M,2.485,N,4.602,K,A*3F
$GPGGA,175955.00,4506.09976,N,06839.63076,W,1,08,0.98,40.3,M,-29.0,M,,*5A
$GPGSA,A,3,18,24,12,21,23,10,28,32,,,,,1.62,0.98,1.29*08
$GPGSV,4,1,13,02,03,335,,10,71,302,38,12,24,114,34,15,11,088,*75
$GPGSV,4,2,13,18,06,185,19,21,13,322,30,23,65,144,37,24,46,057,33*76
$GPGSV,4,3,13,25,15,151,,28,14,217,20,32,46,280,32,46,12,248,*74
$GPGSV,4,4,13,48,15,245,*40
$GPGLL,4506.09976,N,06839.63076,W,175955.00,A,A*77
$RDENS,5857,5039347,PC
$GPRMC,175956.00,A,4506.09922,N,06839.63127,W,2.403,214.90,180924,,,A*7A
$GPVTG,214.90,T,,M,2.403,N,4.450,K,A*33
$GPGGA,175956.00,4506.09922,N,06839.63127,W,1,08,0.98,40.3,M,-29.0,M,,*5D
$GPGSA,A,3,18,24,12,21,23,10,28,32,,,,,1.62,0.98,1.29*08
$GPGSV,4,1,13,02,03,335,,10,71,302,38,12,25,113,35,15,11,088,*72
$GPGSV,4,2,13,18,06,185,19,21,13,322,29,23,65,144,37,24,46,057,33*7E
$GPGSV,4,3,13,25,15,151,15,28,14,217,21,32,46,280,32,46,12,248,*71
$GPGSV,4,4,13,48,15,245,*40
$GPGLL,4506.09922,N,06839.63127,W,175956.00,A,A*70
$RDENS,5858,5039425,PC
$RDENS,5859,5039504,PC
$GPRMC,175957.00,A,4506.09870,N,06839.63176,W,2.345,214.72,180924,,,A*70
$GPVTG,214.72,T,,M,2.345,N,4.344,K,A*38
$GPGGA,175957.00,4506.09870,N,06839.63176,W,1,08,0.98,40.2,M,-29.0,M,,*5F
$GPGSA,A,3,18,24,12,21,23,10,28,32,,,,,1.62,0.98,1.29*08
