$GPRMC,172055.00,A,4506.19247,N,06839.62152,W,2.076,219.13,180924,,,A*7D
$GPVTG,219.13,T,,M,2.076,N,3.844,K,A*3D
$GPGGA,172055.00,4506.19247,N,06839.62152,W,1,07,1.31,37.3,M,-29.0,M,,*57
$GPGSA,A,3,18,24,12,15,23,10,32,,,,,,2.27,1.31,1.85*03
$GPGSV,4,1,13,08,00,303,,10,53,309,38,12,12,127,31,15,24,078,30*78
$GPGSV,4,2,13,18,23,189,34,21,03,332,,22,06,031,,23,83,117,32*78
$GPGSV,4,3,13,24,61,073,38,25,01,159,,32,32,266,28,46,12,248,*7E
$GPGSV,4,4,13,48,15,245,*40
$GPGLL,4506.19247,N,06839.62152,W,172055.00,A,A*77
$RDENS,2885,4805414,PC
$GPRMC,172056.00,A,4506.19200,N,06839.62207,W,2.124,220.72,180924,,,A*75
$GPVTG,220.72,T,,M,2.124,N,3.935,K,A*31
$GPGGA,172056.00,4506.19200,N,06839.62207,W,1,07,1.31,37.3,M,-29.0,M,,*54
$GPGSA,A,3,18,24,12,15,23,10,32,,,,,,2.27,1.31,1.85*03
$GPGSV,4,1,13,08,00,303,,10,53,309,38,12,12,127,32,15,24,078,30*7B
$GPGSV,4,2,13,18,23,189,34,21,03,332,,22,06,031,,23,83,117,32*78
$GPGSV,4,3,13,24,61,073,38,25,01,159,,32,32,266,28,46,12,248,*7E
$GPGSV,4,4,13,48,15,245,*40
$GPGLL,4506.19200,N,06839.62207,W,172056.00,A,A*74
$RDENS,2886,4805492,PC
$GPRMC,172057.00,A,4506.19152,N,06839.62266,W,2.184,221.93,180924,,,A*73
$GPVTG,221.93,T,,M,2.184,N,4.044,K,A*3D
$GPGGA,172057.00,4506.19152,N,06839.62266,W,1,07,1.31,37.3,M,-29.0,M,,*56
$GPGSA,A,3,18,24,12,15,23,10,32,,,,,,2.27,1.31,1.85*03
$GPGSV,4,1,13,08,00,303,,10,53,309,39,12,12,127,31,15,24,078,30*79
$GPGSV,4,2,13,18,23,189,34,21,03,332,,22,06,031,,23,83,117,32*78
$GPGSV,4,3,13,24,61,073,38,25,01,159,,32,32,266,29,46,12,248,27*7A
$GPGSV,4,4,13,48,15,245,*40
$GPGLL,4506.19152,N,06839.62266,W,172057.00,A,A*76
$RDENS,2887,4805571,PC
$GPRMC,172058.00,A,4506.19102,N,06839.62329,W,2.360,222.60,180924,,,A*74
$GPVTG,222.60,T,,M,2.360,N,4.371,K,A*3F
$GPGGA,172058.00,4506.19102,N,06839.62329,W,1,07,1.31,37.4,M,-29.0,M,,*51
$GPGSA,A,3,18,24,12,15,23,10,32,,,,,,2.27,1.31,1.85*03
$GPGSV,4,1,13,08,00,303,,10,53,309,38,12,12,127,30,15,24,078,31*78
$GPGSV,4,2,13,18,23,189,34,21,03,332,,22,06,031,,23,83,117,31*7B
$GPGSV,4,3,13,24,61,073,38,25,01,159,,32,32,266,29,46,12,248,*7F
$GPGSV,4,4,13,48,15,245,*40
$GPGLL,4506.19102,N,06839.62329,W,172058.00,A,A*76
$RDENS,2888,4805650,PC
$GPRMC,172059.00,A,4506.19050,N,06839.62396,W,2.552,223.05,180924,,,A*72
$GPVTG,223.05,T,,M,2.552,N,4.726,K,A*3C
$GPGGA,172059.00,4506.19050,N,06839.62396,W,1,07,1.31,37.4,M,-29.0,M,,*52
$GPGSA,A,3,18,24,12,15,23,10,32,,,,,,2.27,1.31,1.85*03
$GPGSV,4,1,13,08,00,303,,10,53,309,37,12,12,127,31,15,24,078,30*77
$GPGSV,4,2,13,18,23,189,34,21,03,332,,22,06,031,,23,83,117,32*78
$GPGSV,4,3,13,24,61,073,38,25,01,159,,32,32,266,28,46,12,248,*7E
$GPGSV,4,4,13,48,15,245,*40
$GPGLL,4506.19050,N,06839.62396,W,172059.00,A,A*75
$RDENS,2889,4805729,PC
$RDENS,2890,4805807,PC
$GPRMC,172100.00,A,4506.18996,N,06839.62464,W,2.578,223.04,180924,,,A*7E
$GPVTG,223.04,T,,M,2.578,N,4.774,K,A*32
$GPGGA,172100.00,4506.18996,N,06839.62464,W,1,07,1.31,37.2,M,-29.0,M,,*51
$GPGSA,A,3,18,24,12,15,23,10,32,,,,,,2.27,1.31,1.85*03
$GPGSV,4,1,13,08,00,303,,10,53,309,39,12,12,127,34,15,24,078,31*7D
$GPGSV,4,2,13,18,23,189,33,21,03,332,,22,06,031,,23,83,117,32*7F
$GPGSV,4,3,13,24,61,073,38,25,01,159,,32,32,266,33,46,12,248,27*71
$GPGSV,4,4,13,48,15,245,*40
$GPGLL,4506.18996,N,06839.62464,W,172100.00,A,A*70
$RDENS,2891,4805886,PC
$GPRMC,172101.00,A,4506.18941,N,06839.62536,W,2.753,223.62,180924,,,A*78
$GPVTG,223.62,T,,M,2.753,N,5.099,K,A*3C
$GPGGA,172101.00,4506.18941,N,06839.62536,W,1,08,1.24,37.2,M,-29.0,M,,*57
$GPGSA,A,3,18,24,12,15,23,10,32,46,,,,,2.01,1.24,1.58*01
$GPGSV,4,1,13,08,00,303,,10,53,309,39,12,12,127,33,15,24,078,32*79
$GPGSV,4,2,13,18,23,189,33,21,03,332,,22,06,031,,23,83,117,32*7F
$GPGSV,4,3,13,24,61,073,38,25,01,159,,32,32,266,31,46,12,248,27*73
$GPGSV,4,4,13,48,15,245,*40
$GPGLL,4506.18941,N,06839.62536,W,172101.00,A,A*7D
$RDENS,2892,4805965,PC
$GPRMC,172102.00,A,4506.18882,N,06839.62610,W,2.786,224.14,180924,,,A*7C
$GPVTG,224.14,T,,M,2.786,N,5.161,K,A*34
$GPGGA,172102.00,4506.18882,N,06839.62610,W,1,07,1.31,37.2,M,-29.0,M,,*56
$GPGSA,A,3,18,24,12,15,23,10,32,,,,,,2.27,1.31,1.85*03
$GPGSV,4,1,13,08,00,303,,10,53,309,39,12,12,127,33,15,24,078,34*7F
$GPGSV,4,2,13,18,23,189,33,21,03,332,,22,06,031,,23,83,117,30*7D
$GPGSV,4,3,13,24,61,073,38,25,01,159,,32,32,266,30,46,12,248,*77
$GPGSV,4,4,13,48,15,245,*40
$GPGLL,4506.18882,N,06839.62610,W,172102.00,A,A*77
$RDENS,2893,4806044,PC
$RDENS,2894,4806122,PC
$GPRMC,172103.00,A,4506.18825,N,06839.62687,W,2.784,224.72,180924,,,A*7C
$GPVTG,224.72,T,,M,2.784,N,5.156,K,A*32
$GPGGA,172103.00,4506.18825,N,06839.62687,W,1,07,1.31,37.1,M,-29.0,M,,*57
$GPGSA,A,3,18,24,12,15,23,10,32,,,,,,2.27,1.31,1.85*03
$GPGSV,4,1,13,08,00,303,,10,53,309,39,12,12,127,35,15,24,078,33*7E
$GPGSV,4,2,13,18,23,189,34,21,03,332,,22,06,031,,23,83,117,31*7B
$GPGSV,4,3,13,24,61,073,38,25,01,159,,32,32,266,31,46,12,248,*76
$GPGSV,4,4,13,48,15,245,*40
$GPGLL,4506.18825,N,06839.62687,W,172103.00,A,A*75
$RDENS,2895,4806201,PC
$GPRMC,172104.00,A,4506.18769,N,06839.62765,W,2.858,225.40,180924,,,A*7F
$GPVTG,225.40,T,,M,2.858,N,5.293,K,A*36
$GPGGA,172104.00,4506.18769,N,06839.62765,W,1,07,1.31,37.0,M,-29.0,M,,*5B
$GPGSA,A,3,18,24,12,15,23,10,32,,,,,,2.27,1.31,1.85*03
$GPGSV,4,1,13,08,00,303,,10,53,309,40,12,12,127,34,15,24,078,33*71
$GPGSV,4,2,13,18,23,189,34,21,03,332,,22,06,031,,23,83,117,30*7A
$GPGSV,4,3,13,24,61,073,38,25,01,159,,32,32,266,31,46,12,248,*76
$GPGSV,4,4,13,48,15,245,*40
$GPGLL,4506.18769,N,06839.62765,W,172104.00,A,A*78
$RDENS,2896,4806280,PC
$GPRMC,172105.00,A,4506.18716,N,06839.62842,W,2.806,226.56,180924,,,A*73
$GPVTG,226.56,T,,M,2.806,N,5.196,K,A*3F
$GPGGA,172105.00,4506.18716,N,06839.62842,W,1,07,1.31,36.9,M,-29.0,M,,*50
$GPGSA,A,3,18,24,12,15,23,10,32,,,,,,2.27,1.31,1.85*03
$GPGSV,4,1,13,08,00,303,,10,53,309,40,12,12,127,34,15,24,078,33*71
$GPGSV,4,2,13,18,23,189,34,21,03,332,,22,06,031,,23,83,117,30*7A
$GPGSV,4,3,13,24,61,073,38,25,01,159,,32,32,266,31,46,12,248,*76
$GPGSV,4,4,13,48,15,245,*40
$GPGLL,4506.18716,N,06839.62842,W,172105.00,A,A*7B
$RDENS,2897,4806359,PC
$GPRMC,172106.00,A,4506.18661,N,06839.62921,W,2.844,226.87,180924,,,A*7F
$GPVTG,226.87,T,,M,2.844,N,5.267,K,A*38
$GPGGA,172106.00,4506.18661,N,06839.62921,W,1,07,1.31,36.9,M,-29.0,M,,*56
$GPGSA,A,3,18,24,12,15,23,10,32,,,,,,2.27,1.31,1.85*03
$GPGSV,4,1,13,08,00,303,,10,53,309,41,12,12,127,34,15,24,078,33*70
$GPGSV,4,2,13,18,23,189,35,21,03,332,,22,06,031,,23,83,117,30*7B
$GPGSV,4,3,13,24,61,073,38,25,01,159,,32,32,266,31,46,12,248,*76
$GPGSV,4,4,13,48,15,245,*40
$GPGLL,4506.18661,N,06839.62921,W,172106.00,A,A*7D
$RDENS,2898,4806438,PC
$RDENS,2899,4806517,PC
$GPRMC,172107.00,A,4506.18605,N,06839.63000,W,2.869,226.59,180924,,,A*7B
$GPVTG,226.59,T,,M,2.869,N,5.313,K,A*36
$GPGGA,172107.00,4506.18605,N,06839.63000,W,1,07,1.31,36.8,M,-29.0,M,,*5F
$GPGSA,A,3,18,24,12,15,23,10,32,,,,,,2.27,1.31,1.85*03
$GPGSV,4,1,13,08,00,303,,10,53,309,39,12,12,127,34,15,24,078,33*7F
$GPGSV,4,2,13,18,23,189,35,21,03,332,,22,06,031,,23,83,117,29*73
$GPGSV,4,3,13,24,61,073,38,25,01,159,,32,32,266,30,46,12,248,*77
$GPGSV,4,4,13,48,15,245,*40
$GPGLL,4506.18605,N,06839.63000,W,172107.00,A,A*75
$RDENS,2900,4806595,PC
$GPRMC,172108.00,A,4506.18549,N,06839.63082,W,2.926,226.47,180924,,,A*70
$GPVTG,226.47,T,,M,2.926,N,5.420,K,A*34
$GPGGA,172108.00,4506.18549,N,06839.63082,W,1,07,1.31,36.7,M,-29.0,M,,*5E
$GPGSA,A,3,18,24,12,15,23,10,32,,,,,,2.27,1.31,1.85*03
$GPGSV,4,1,13,08,00,303,,10,53,309,40,12,12,127,34,15,24,078,33*71
$GPGSV,4,2,13,18,23,189,34,21,03,332,,22,06,031,,23,83,117,29*72
$GPGSV,4,3,13,24,61,073,38,25,01,159,,32,32,266,30,46,12,248,*77
$GPGSV,4,4,13,48,15,245,*40
$GPGLL,4506.18549,N,06839.63082,W,172108.00,A,A*7B
$RDENS,2901,4806673,PC
$GPRMC,172109.00,A,4506.18490,N,06839.63165,W,3.003,226.19,180924,,,A*78
$GPVTG,226.19,T,,M,3.003,N,5.561,K,A*34
$GPGGA,172109.00,4506.18490,N,06839.63165,W,1,07,1.32,36.7,M,-29.0,M,,*51
$GPGSA,A,3,18,24,12,15,23,10,32,,,,,,2.27,1.32,1.85*00
$GPGSV,4,1,13,08,00,303,,10,53,309,40,12,12,127,35,15,24,078,33*70
$GPGSV,4,2,13,18,23,189,34,21,03,332,,22,06,031,,23,83,117,29*72
$GPGSV,4,3,13,24,61,073,38,25,01,159,,32,32,266,30,46,12,248,*77
$GPGSV,4,4,13,48,15,245,*40
$GPGLL,4506.18490,N,06839.63165,W,172109.00,A,A*77
$RDENS,2902,4806752,PC
$GPRMC,172110.00,A,4506.18435,N,06839.63249,W,2.936,227.05,180924,,,A*70
$GPVTG,227.05,T,,M,2.936,N,5.437,K,A*34
$GPGGA,172110.00,4506.18435,N,06839.63249,W,1,07,1.32,36.5,M,-29.0,M,,*59
$GPGSA,A,3,18,24,12,15,23,10,32,,,,,,2.27,1.32,1.85*00
$GPGSV,4,1,13,08,00,303,,10,53,309,40,12,12,127,34,15,24,078,34*76
$GPGSV,4,2,13,18,23,189,35,21,03,332,,22,06,031,,23,83,117,29*73
$GPGSV,4,3,13,24,61,073,38,25,01,159,,32,32,266,30,46,12,248,*77
$GPGSV,4,4,13,48,15,245,*40
$GPGLL,4506.18435,N,06839.63249,W,172110.00,A,A*7D
$RDENS,2903,4806831,PC
$RDENS,2904,4806910,PC
$GPRMC,172111.00,A,4506.18379,N,06839.63333,W,2.994,227.51,180924,,,A*7B
$GPVTG,227.51,T,,M,2.994,N,5.545,K,A*39
$GPGGA,172111.00,4506.18379,N,06839.63333,W,1,07,1.32,36.5,M,-29.0,M,,*5B
$GPGSA,A,3,18,24,12,15,23,10,32,,,,,,2.27,1.32,1.85*00
$GPGSV,4,1,13,08,00,303,,10,53,309,40,12,12,127,32,15,24,078,34*70
$GPGSV,4,2,13,18,23,189,35,21,03,332,,22,06,031,,23,83,117,30*7B
$GPGSV,4,3,13,24,61,073,38,25,01,159,,32,32,266,29,46,12,248,*7F
$GPGSV,4,4,13,48,15,245,*40
$GPGLL,4506.18379,N,06839.63333,W,172111.00,A,A*7F
$RDENS,2905,4806988,PC
$GPRMC,172112.00,A,4506.18322,N,06839.63422,W,3.028,228.22,180924,,,A*75
$GPVTG,228.22,T,,M,3.028,N,5.609,K,A*36
$GPGGA,172112.00,4506.18322,N,06839.63422,W,1,07,1.32,36.4,M,-29.0,M,,*50
$GPGSA,A,3,18,24,12,15,23,10,32,,,,,,2.27,1.32,1.85*00
$GPGSV,4,1,13,08,00,303,,10,53,309,40,12,12,127,35,15,24,078,34*77
$GPGSV,4,2,13,18,23,189,35,21,03,332,,22,06,031,,23,83,117,30*7B
$GPGSV,4,3,13,24,61,073,40,25,01,159,,32,32,266,29,46,12,248,*70
$GPGSV,4,4,13,48,15,245,*40
$GPGLL,4506.18322,N,06839.63422,W,172112.00,A,A*75
$RDENS,2906,4807067,PC
$GPRMC,172113.00,A,4506.18265,N,06839.63512,W,3.034,228.94,180924,,,A*74
$GPVTG,228.94,T,,M,3.034,N,5.619,K,A*37
$GPGGA,172113.00,4506.18265,N,06839.63512,W,1,07,1.32,36.4,M,-29.0,M,,*51
$GPGSA,A,3,18,24,12,15,23,10,32,,,,,,2.27,1.32,1.85*00
$GPGSV,4,1,13,08,00,303,,10,53,309,39,12,12,127,34,15,24,078,34*78
$GPGSV,4,2,13,18,23,189,33,21,03,332,,22,06,031,,23,83,117,30*7D
$GPGSV,4,3,13,24,61,073,39,25,01,159,,32,32,266,29,46,12,248,*7E
$GPGSV,4,4,13,48,15,245,*40
$GPGLL,4506.18265,N,06839.63512,W,172113.00,A,A*74
$RDENS,2907,4807147,PC
$GPRMC,172114.00,A,4506.18213,N,06839.63606,W,3.081,230.53,180924,,,A*78
$GPVTG,230.53,T,,M,3.081,N,5.706,K,A*34
$GPGGA,172114.00,4506.18213,N,06839.63606,W,1,07,1.32,36.3,M,-29.0,M,,*56
$GPGSA,A,3,18,24,12,15,23,10,32,,,,,,2.27,1.32,1.85*00
$GPGSV,4,1,13,08,00,303,,10,53,309,34,12,12,127,28,15,24,078,37*7B
$GPGSV,4,2,13,18,23,189,34,21,03,332,,22,06,031,,23,83,117,33*79
$GPGSV,4,3,13,24,61,073,37,25,01,159,,32,32,266,28,46,12,248,*71
$GPGSV,4,4,13,48,15,245,*40
$GPGLL,4506.18213,N,06839.63606,W,172114.00,A,A*74
$RDENS,2908,4807225,PC
$RDENS,2909,4807303,PC
$GPRMC,172115.00,A,4506.18162,N,06839.63700,W,2.976,231.76,180924,,,A*7D
$GPVTG,231.76,T,,M,2.976,N,5.511,K,A*36
$GPGGA,172115.00,4506.18162,N,06839.63700,W,1,07,1.32,36.2,M,-29.0,M,,*54
$GPGSA,A,3,18,24,12,15,23,10,32,,,,,,2.27,1.32,1.85*00
$GPGSV,4,1,13,08,00,303,,10,53,309,34,12,12,127,30,15,24,078,36*73
$GPGSV,4,2,13,18,23,189,36,21,03,332,,22,06,031,,23,83,117,28*71
$GPGSV,4,3,13,24,61,073,40,25,01,159,,32,32,266,28,46,12,248,*71
$GPGSV,4,4,13,48,15,245,*40
$GPGLL,4506.18162,N,06839.63700,W,172115.00,A,A*77
$RDENS,2910,4807382,PC
$GPRMC,172116.00,A,4506.18110,N,06839.63792,W,2.953,232.54,180924,,,A*74
$GPVTG,232.54,T,,M,2.953,N,5.468,K,A*3D
$GPGGA,172116.00,4506.18110,N,06839.63792,W,1,07,1.32,36.2,M,-29.0,M,,*59
$GPGSA,A,3,18,24,12,15,23,10,32,,,,,,2.27,1.32,1.85*00
$GPGSV,4,1,13,08,00,303,,10,53,309,37,12,12,127,30,15,24,078,36*70
$GPGSV,4,2,13,18,23,189,32,21,03,332,,22,06,031,,23,83,117,28*75
$GPGSV,4,3,13,24,61,073,38,25,01,159,,32,32,266,27,46,12,248,*71
$GPGSV,4,4,13,48,15,245,*40
$GPGLL,4506.18110,N,06839.63792,W,172116.00,A,A*7A
$RDENS,2911,4807461,PC
$GPRMC,172117.00,A,4506.18063,N,06839.63890,W,3.079,234.58,180924,,,A*77
$GPVTG,234.58,T,,M,3.079,N,5.703,K,A*39
$GPGGA,172117.00,4506.18063,N,06839.63890,W,1,07,1.32,36.2,M,-29.0,M,,*50
$GPGSA,A,3,18,24,12,15,23,10,32,,,,,,2.27,1.32,1.85*00
$GPGSV,4,1,13,08,00,303,,10,53,309,35,12,12,127,31,15,24,078,38*7D
$GPGSV,4,2,13,18,23,189,36,21,03,332,,22,06,031,,23,83,117,35*7D
$GPGSV,4,3,13,24,61,073,39,25,01,159,,32,32,266,23,46,12,248,*74
$GPGSV,4,4,13,48,15,245,*40
$GPGLL,4506.18063,N,06839.63890,W,172117.00,A,A*73
$RDENS,2912,4807539,PC
$RDENS,2913,4807618,PC
$GPRMC,172118.00,A,4506.18013,N,06839.63986,W,3.029,234.02,180924,,,A*73
$GPVTG,234.02,T,,M,3.029,N,5.610,K,A*30
$GPGGA,172118.00,4506.18013,N,06839.63986,W,1,07,1.32,36.4,M,-29.0,M,,*58
$GPGSA,A,3,18,24,12,15,23,10,32,,,,,,2.27,1.32,1.85*00
$GPGSV,4,1,13,08,00,303,,10,53,309,36,12,12,127,31,15,24,078,36*70
$GPGSV,4,2,13,18,23,189,35,21,03,332,,22,06,031,,23,83,117,33*78
$GPGSV,4,3,13,24,61,073,39,25,01,159,,32,32,266,21,46,12,248,*76
$GPGSV,4,4,13,48,15,245,*40
$GPGLL,4506.18013,N,06839.63986,W,172118.00,A,A*7D
$RDENS,2914,4807697,PC
$GPRMC,172119.00,A,4506.17961,N,06839.64083,W,3.065,234.09,180924,,,A*79
$GPVTG,234.09,T,,M,3.065,N,5.676,K,A*33
$GPGGA,172119.00,4506.17961,N,06839.64083,W,1,07,1.32,36.4,M,-29.0,M,,*51
$GPGSA,A,3,18,24,12,15,23,10,32,,,,,,2.27,1.32,1.85*00
$GPGSV,4,1,13,08,00,303,,10,53,309,38,12,12,127,30,15,24,078,36*7F
$GPGSV,4,2,13,18,23,189,35,21,03,332,,22,06,031,,23,83,117,29*73
$GPGSV,4,3,13,24,61,073,40,25,01,159,,32,32,266,21,46,12,248,*78
$GPGSV,4,4,13,48,15,245,*40
$GPGLL,4506.17961,N,06839.64083,W,172119.00,A,A*74
$RDENS,2915,4807776,PC
$GPRMC,172120.00,A,4506.17908,N,06839.64180,W,3.099,233.33,180924,,,A*73
$GPVTG,233.33,T,,M,3.099,N,5.740,K,A*3A
$GPGGA,172120.00,4506.17908,N,06839.64180,W,1,07,1.32,36.5,M,-29.0,M,,*57
$GPGSA,A,3,18,24,12,15,23,10,32,,,,,,2.27,1.32,1.85*00
$GPGSV,4,1,13,08,00,303,,10,53,309,32,12,12,127,32,15,24,078,35*74
$GPGSV,4,2,13,18,23,189,37,21,03,332,,22,06,031,,23,83,117,19*72
$GPGSV,4,3,13,24,61,073,38,25,01,159,,32,32,266,25,46,12,248,*73
$GPGSV,4,4,13,48,15,245,*40
$GPGLL,4506.17908,N,06839.64180,W,172120.00,A,A*73
$RDENS,2916,4807855,PC
$GPRMC,172121.00,A,4506.17852,N,06839.64275,W,3.082,231.97,180924,,,A*73
$GPVTG,231.97,T,,M,3.082,N,5.708,K,A*30
$GPGGA,172121.00,4506.17852,N,06839.64275,W,1,07,1.32,36.5,M,-29.0,M,,*51
$GPGSA,A,3,18,24,12,15,23,10,32,,,,,,2.27,1.32,1.85*00
$GPGSV,4,1,13,08,00,303,,10,53,309,31,12,12,127,32,15,24,078,37*75
$GPGSV,4,2,13,18,23,189,37,21,03,332,,22,06,031,,23,83,117,17*7C
$GPGSV,4,3,13,24,61,073,37,25,01,159,,32,32,266,26,46,12,248,*7F
$GPGSV,4,4,13,48,15,245,*40
$GPGLL,4506.17852,N,06839.64275,W,172121.00,A,A*75
$RDENS,2917,4807933,PC
$RDENS,2918,4808012,PC
$GPRMC,172122.00,A,4506.17797,N,06839.64369,W,3.072,232.68,180924,,,A*76
$GPVTG,232.68,T,,M,3.072,N,5.690,K,A*3C
$GPGGA,172122.00,4506.17797,N,06839.64369,W,1,07,1.32,36.6,M,-29.0,M,,*5B
$GPGSA,A,3,18,24,12,15,23,10,32,,,,,,2.27,1.32,1.85*00
$GPGSV,4,1,13,08,00,303,,10,54,309,36,12,12,127,31,15,24,078,35*74
$GPGSV,4,2,13,18,23,189,36,21,03,332,,22,06,031,,23,83,117,20*79
$GPGSV,4,3,13,24,61,073,38,25,01,159,,32,32,266,32,46,12,248,*75
$GPGSV,4,4,13,48,15,245,*40
$GPGLL,4506.17797,N,06839.64369,W,172122.00,A,A*7C
$RDENS,2919,4808090,PC
$GPRMC,172123.00,A,4506.17745,N,06839.64467,W,3.097,232.12,180924,,,A*77
$GPVTG,232.12,T,,M,3.097,N,5.735,K,A*34
$GPGGA,172123.00,4506.17745,N,06839.64467,W,1,07,1.32,36.7,M,-29.0,M,,*5D
$GPGSA,A,3,18,24,12,15,23,10,32,,,,,,2.27,1.32,1.85*00
$GPGSV,4,1,13,08,00,303,,10,54,309,39,12,12,127,31,15,24,078,35*7B
$GPGSV,4,2,13,18,23,189,35,21,03,332,,22,06,031,,23,83,117,24*7E
$GPGSV,4,3,13,24,61,073,40,25,01,159,,32,32,266,32,46,12,248,*7A
$GPGSV,4,4,13,48,15,245,*40
$GPGLL,4506.17745,N,06839.64467,W,172123.00,A,A*7B
$RDENS,2920,4808169,PC
$GPRMC,172124.00,A,4506.17695,N,06839.64569,W,3.135,232.60,180924,,,A*7F
$GPVTG,232.60,T,,M,3.135,N,5.806,K,A*37
$GPGGA,172124.00,4506.17695,N,06839.64569,W,1,07,1.32,36.6,M,-29.0,M,,*58
$GPGSA,A,3,18,24,12,15,23,10,32,,,,,,2.27,1.32,1.85*00
$GPGSV,4,1,13,08,00,303,,10,54,309,37,12,12,126,32,15,24,078,35*77
$GPGSV,4,2,13,18,23,189,36,21,03,332,,22,06,031,,23,83,117,22*7B
$GPGSV,4,3,13,24,61,073,39,25,01,159,,32,32,266,31,46,12,248,*77
$GPGSV,4,4,13,48,15,245,*40
$GPGLL,4506.17695,N,06839.64569,W,172124.00,A,A*7F
$RDENS,2921,4808248,PC
$GPRMC,172125.00,A,4506.17640,N,06839.64664,W,3.071,232.67,180924,,,A*7E
$GPVTG,232.67,T,,M,3.071,N,5.688,K,A*39
$GPGGA,172125.00,4506.17640,N,06839.64664,W,1,07,1.32,36.6,M,-29.0,M,,*5F
$GPGSA,A,3,18,24,12,15,23,10,32,,,,,,2.27,1.32,1.85*00
$GPGSV,4,1,13,08,00,303,,10,54,309,35,12,12,126,31,15,24,078,34*77
$GPGSV,4,2,13,18,23,189,36,21,03,332,,22,06,031,,23,83,117,21*78
$GPGSV,4,3,13,24,61,073,38,25,01,159,,32,32,266,31,46,12,248,*76
$GPGSV,4,4,13,48,15,245,*40
$GPGLL,4506.17640,N,06839.64664,W,172125.00,A,A*78
$RDENS,2922,4808326,PC
$RDENS,2923,4808405,PC
$GPRMC,172126.00,A,4506.17584,N,06839.64759,W,3.078,232.31,180924,,,A*73
$GPVTG,232.31,T,,M,3.078,N,5.700,K,A*32
$GPGGA,172126.00,4506.17584,N,06839.64759,W,1,07,1.32,36.7,M,-29.0,M,,*59
$GPGSA,A,3,18,24,12,15,23,10,32,,,,,,2.27,1.32,1.85*00
$GPGSV,4,1,13,08,00,303,,10,54,309,35,12,12,126,32,15,24,078,35*75
$GPGSV,4,2,13,18,23,189,36,21,03,332,,22,06,031,,23,83,117,24*7D
$GPGSV,4,3,13,24,61,073,40,25,01,159,,32,32,266,32,46,12,248,*7A
$GPGSV,4,4,13,48,15,245,*40
$GPGLL,4506.17584,N,06839.64759,W,172126.00,A,A*7F
$RDENS,2924,4808484,PC
$GPRMC,172127.00,A,4506.17530,N,06839.64853,W,3.067,233.08,180924,,,A*7D
$GPVTG,233.08,T,,M,3.067,N,5.679,K,A*38
$GPGGA,172127.00,4506.17530,N,06839.64853,W,1,07,1.32,36.7,M,-29.0,M,,*52
$GPGSA,A,3,18,24,12,15,23,10,32,,,,,,2.27,1.32,1.85*00
$GPGSV,4,1,13,08,00,303,,10,54,309,37,12,12,126,29,15,24,078,32*7A
$GPGSV,4,2,13,18,23,189,33,21,03,332,,22,06,031,,23,83,117,26*7A
$GPGSV,4,3,13,24,61,073,38,25,01,159,,32,32,266,32,46,12,248,*75
$GPGSV,4,4,13,48,15,245,*40
$GPGLL,4506.17530,N,06839.64853,W,172127.00,A,A*74
$RDENS,2925,4808563,PC
$GPRMC,172128.00,A,4506.17475,N,06839.64951,W,3.123,233.92,180924,,,A*73
$GPVTG,233.92,T,,M,3.123,N,5.784,K,A*39
$GPGGA,172128.00,4506.17475,N,06839.64951,W,1,07,1.32,36.8,M,-29.0,M,,*51
$GPGSA,A,3,18,24,12,15,23,10,32,,,,,,2.27,1.32,1.85*00
$GPGSV,4,1,13,08,00,303,,10,54,309,34,12,12,126,29,15,24,078,37*7C
$GPGSV,4,2,13,18,23,189,36,21,03,332,,22,06,031,19,23,83,117,26*77
$GPGSV,4,3,13,24,61,073,38,25,01,159,,32,32,266,31,46,12,248,*76
$GPGSV,4,4,13,48,15,245,*40
$GPGLL,4506.17475,N,06839.64951,W,172128.00,A,A*78
$RDENS,2926,4808642,PC
$RDENS,2927,4808721,PC
$GPRMC,172129.00,A,4506.17420,N,06839.65048,W,3.086,233.09,180924,,,A*7E
$GPVTG,233.09,T,,M,3.086,N,5.715,K,A*3D
$GPGGA,172129.00,4506.17420,N,06839.65048,W,1,07,1.32,36.8,M,-29.0,M,,*50
$GPGSA,A,3,18,24,12,15,23,10,32,,,,,,2.27,1.32,1.85*00
$GPGSV,4,1,13,08,00,303,,10,54,309,33,12,12,126,28,15,24,078,36*7B
$GPGSV,4,2,13,18,23,189,36,21,03,332,,22,06,031,17,23,83,117,24*7B
$GPGSV,4,3,13,24,61,073,35,25,01,159,,32,32,266,30,46,12,248,*7A
$GPGSV,4,4,13,48,15,245,*40
$GPGLL,4506.17420,N,06839.65048,W,172129.00,A,A*79
$RDENS,2928,4808800,PC
$GPRMC,172130.00,A,4506.17364,N,06839.65145,W,3.146,233.36,180924,,,A*7C
$GPVTG,233.36,T,,M,3.146,N,5.827,K,A*32
$GPGGA,172130.00,4506.17364,N,06839.65145,W,1,07,1.32,36.9,M,-29.0,M,,*52
$GPGSA,A,3,18,24,12,15,23,10,32,,,,,,2.27,1.32,1.85*00
$GPGSV,4,1,13,08,00,303,,10,54,309,29,12,12,126,30,15,24,078,36*79
$GPGSV,4,2,13,18,23,189,36,21,03,332,,22,06,031,14,23,83,117,24*78
$GPGSV,4,3,13,24,61,073,38,25,01,159,,32,32,266,22,46,12,248,*74
$GPGSV,4,4,13,48,15,245,*40
$GPGLL,4506.17364,N,06839.65145,W,172130.00,A,A*7A
$RDENS,2929,4808878,PC
$GPRMC,172131.00,A,4506.17314,N,06839.65247,W,3.144,235.28,180924,,,A*70
$GPVTG,235.28,T,,M,3.144,N,5.823,K,A*3D
$GPGGA,172131.00,4506.17314,N,06839.65247,W,1,07,1.32,36.8,M,-29.0,M,,*54
$GPGSA,A,3,18,24,12,15,23,10,32,,,,,,2.27,1.32,1.85*00
$GPGSV,4,1,13,08,00,303,,10,54,309,33,12,12,126,26,15,24,078,36*75
$GPGSV,4,2,13,18,23,189,36,21,03,332,,22,06,031,11,23,83,117,22*7B
$GPGSV,4,3,13,24,61,073,38,25,01,159,,32,32,266,21,46,12,248,*77
$GPGSV,4,4,13,48,15,245,*40
$GPGLL,4506.17314,N,06839.65247,W,172131.00,A,A*7D
$RDENS,2930,4808957,PC
$GPRMC,172132.00,A,4506.17262,N,06839.65346,W,3.070,234.44,180924,,,A*7E
$GPVTG,234.44,T,,M,3.070,N,5.686,K,A*31
$GPGGA,172132.00,4506.17262,N,06839.65346,W,1,07,1.32,36.8,M,-29.0,M,,*57
$GPGSA,A,3,18,24,12,15,23,10,32,,,,,,2.27,1.32,1.85*00
$GPGSV,4,1,13,08,00,303,,10,54,309,33,12,12,126,28,15,24,078,36*7B
$GPGSV,4,2,13,18,23,189,37,21,03,332,,22,06,031,10,23,83,117,21*78
$GPGSV,4,3,13,24,61,073,35,25,01,159,,32,32,266,19,46,12,248,*71
$GPGSV,4,4,13,48,15,245,*40
$GPGLL,4506.17262,N,06839.65346,W,172132.00,A,A*7E
$RDENS,2931,4809036,PC
$RDENS,2932,4809114,PC
$GPRMC,172133.00,A,4506.17209,N,06839.65441,W,3.051,234.33,180924,,,A*71
$GPVTG,234.33,T,,M,3.051,N,5.651,K,A*38
$GPGGA,172133.00,4506.17209,N,06839.65441,W,1,07,1.32,36.8,M,-29.0,M,,*5B
$GPGSA,A,3,18,24,12,15,23,10,32,,,,,,2.27,1.32,1.85*00
$GPGSV,4,1,13,08,00,303,,10,54,309,32,12,12,126,27,15,24,078,36*75
$GPGSV,4,2,13,18,23,189,37,21,03,332,,22,06,031,09,23,83,117,21*70
$GPGSV,4,3,13,24,61,073,36,25,01,159,,32,32,266,21,46,12,248,*79
$GPGSV,4,4,13,48,15,245,*40
$GPGLL,4506.17209,N,06839.65441,W,172133.00,A,A*72
$RDENS,2933,4809193,PC
$GPRMC,172134.00,A,4506.17157,N,06839.65537,W,3.020,234.50,180924,,,A*7D
$GPVTG,234.50,T,,M,3.020,N,5.593,K,A*36
$GPGGA,172134.00,4506.17157,N,06839.65537,W,1,08,1.32,36.8,M,-29.0,M,,*5B
$GPGSA,A,3,18,24,12,22,15,23,10,32,,,,,2.27,1.32,1.85*00
$GPGSV,4,1,13,08,00,303,,10,54,309,35,12,12,126,29,15,24,078,34*7E
$GPGSV,4,2,13,18,23,189,35,21,03,332,,22,06,031,10,23,83,117,30*7A
$GPGSV,4,3,13,24,61,073,39,25,01,159,,32,32,266,23,46,12,248,*74
$GPGSV,4,4,13,48,15,245,*40
$GPGLL,4506.17157,N,06839.65537,W,172134.00,A,A*7D
$RDENS,2934,4809271,PC
$GPRMC,172135.00,A,4506.17106,N,06839.65632,W,3.034,233.56,180924,,,A*7A
$GPVTG,233.56,T,,M,3.034,N,5.619,K,A*33
$GPGGA,172135.00,4506.17106,N,06839.65632,W,1,08,1.32,36.8,M,-29.0,M,,*58
$GPGSA,A,3,18,24,12,22,15,23,10,32,,,,,2.27,1.32,1.85*00
$GPGSV,4,1,13,08,00,303,,10,54,309,33,12,12,126,29,15,24,078,37*7B
$GPGSV,4,2,13,18,23,189,35,21,03,332,,22,06,031,11,23,83,119,31*74
$GPGSV,4,3,13,24,61,073,39,25,01,159,,32,32,266,23,46,12,248,*74
$GPGSV,4,4,13,48,15,245,*40
$GPGLL,4506.17106,N,06839.65632,W,172135.00,A,A*7E
$RDENS,2935,4809350,PC
$GPRMC,172136.00,A,4506.17052,N,06839.65726,W,3.032,234.54,180924,,,A*7E
$GPVTG,234.54,T,,M,3.032,N,5.616,K,A*3F
$GPGGA,172136.00,4506.17052,N,06839.65726,W,1,07,1.32,37.0,M,-29.0,M,,*59
$GPGSA,A,3,18,24,12,15,23,10,32,,,,,,2.27,1.32,1.85*00
$GPGSV,4,1,13,08,00,303,,10,54,309,32,12,12,126,29,15,24,078,36*7B
$GPGSV,4,2,13,18,23,189,36,21,03,332,,22,06,031,09,23,83,119,31*7E
$GPGSV,4,3,13,24,61,073,39,25,01,159,,32,32,266,23,46,12,248,*74
$GPGSV,4,4,13,48,15,245,*40
$GPGLL,4506.17052,N,06839.65726,W,172136.00,A,A*79
$RDENS,2936,4809429,PC
$RDENS,2937,4809507,PC
$GPRMC,172137.00,A,4506.16999,N,06839.65822,W,3.053,234.08,180924,,,A*75
$GPVTG,234.08,T,,M,3.053,N,5.655,K,A*36
$GPGGA,172137.00,4506.16999,N,06839.65822,W,1,07,1.32,37.1,M,-29.0,M,,*5D
$GPGSA,A,3,18,24,12,15,23,10,32,,,,,,2.27,1.32,1.85*00
$GPGSV,4,1,13,08,00,303,,10,54,309,36,12,12,126,28,15,24,078,33*7B
$GPGSV,4,2,13,18,23,189,36,21,03,332,,22,06,031,09,23,83,119,30*7F
$GPGSV,4,3,13,24,61,073,39,25,01,159,,32,32,266,24,46,12,248,*73
$GPGSV,4,4,13,48,15,245,*40
$GPGLL,4506.16999,N,06839.65822,W,172137.00,A,A*7C
$RDENS,2938,4809586,PC
$GPRMC,172138.00,A,4506.16948,N,06839.65916,W,3.003,234.43,180924,,,A*7A
$GPVTG,234.43,T,,M,3.003,N,5.562,K,A*3B
$GPGGA,172138.00,4506.16948,N,06839.65916,W,1,07,1.32,37.2,M,-29.0,M,,*5B
$GPGSA,A,3,18,24,12,15,23,10,32,,,,,,2.27,1.32,1.85*00
$GPGSV,4,1,13,08,00,303,,10,54,309,34,12,12,126,29,15,24,078,37*7C
$GPGSV,4,2,13,18,23,189,35,21,03,332,,22,06,031,09,23,83,119,30*7C
$GPGSV,4,3,13,24,61,073,39,25,01,159,,32,32,266,30,46,12,248,*76
$GPGSV,4,4,13,48,15,245,*40
$GPGLL,4506.16948,N,06839.65916,W,172138.00,A,A*79
$RDENS,2939,4809666,PC
$GPRMC,172139.00,A,4506.16898,N,06839.66009,W,2.958,233.83,180924,,,A*7E
$GPVTG,233.83,T,,M,2.958,N,5.479,K,A*3D
$GPGGA,172139.00,4506.16898,N,06839.66009,W,1,07,1.32,37.3,M,-29.0,M,,*53
$GPGSA,A,3,18,24,12,15,23,10,32,,,,,,2.27,1.32,1.85*00
$GPGSV,4,1,13,08,00,303,,10,54,309,30,12,12,126,28,15,24,078,28*77
$GPGSV,4,2,13,18,23,189,30,21,03,332,,22,06,031,09,23,83,119,29*71
$GPGSV,4,3,13,24,61,073,31,25,01,159,,32,32,266,23,46,12,248,*7C
$GPGSV,4,4,13,48,15,245,*40
$GPGLL,4506.16898,N,06839.66009,W,172139.00,A,A*70
$RDENS,2940,4809743,PC
$RDENS,2941,4809823,PC
$GPRMC,172140.00,A,4506.16842,N,06839.66109,W,3.355,233.40,180924,,,A*7F
$GPVTG,233.40,T,,M,3.355,N,6.213,K,A*3D
$GPGGA,172140.00,4506.16842,N,06839.66109,W,1,07,1.32,37.3,M,-29.0,M,,*5B
$GPGSA,A,3,18,24,12,15,23,10,32,,,,,,2.27,1.32,1.85*00
$GPGSV,4,1,13,08,00,303,,10,54,309,29,12,12,126,27,15,24,078,27*7F
$GPGSV,4,2,13,18,23,189,21,21,03,332,,22,06,031,09,23,83,119,27*7F
$GPGSV,4,3,13,24,61,073,31,25,01,159,,32,32,266,22,46,12,248,*7D
$GPGSV,4,4,13,48,15,245,*40
$GPGLL,4506.16842,N,06839.66109,W,172140.00,A,A*78
$RDENS,2942,4809902,PC
$GPRMC,172141.00,A,4506.16791,N,06839.66210,W,3.167,233.73,180924,,,A*77
$GPVTG,233.73,T,,M,3.167,N,5.866,K,A*35
$GPGGA,172141.00,4506.16791,N,06839.66210,W,1,07,1.32,37.2,M,-29.0,M,,*51
$GPGSA,A,3,18,24,12,15,23,10,32,,,,,,2.27,1.32,1.85*00
$GPGSV,4,1,13,08,00,303,,10,54,309,31,12,12,126,28,15,24,078,26*78
$GPGSV,4,2,13,18,23,189,20,21,03,332,,22,06,031,09,23,83,119,28*71
$GPGSV,4,3,13,24,61,073,32,25,01,159,,32,32,266,23,46,12,248,*7F
$GPGSV,4,4,13,48,15,245,*40
$GPGLL,4506.16791,N,06839.66210,W,172141.00,A,A*73
$RDENS,2943,4809980,PC
$GPRMC,172142.00,A,4506.16738,N,06839.66299,W,2.768,234.76,180924,,,A*7C
$GPVTG,234.76,T,,M,2.768,N,5.126,K,A*32
$GPGGA,172142.00,4506.16738,N,06839.66299,W,1,07,1.32,37.7,M,-29.0,M,,*55
$GPGSA,A,3,18,24,12,15,23,10,32,,,,,,2.27,1.32,1.85*00
$GPGSV,4,1,13,08,00,303,,10,54,309,31,12,12,126,28,15,24,078,26*78
$GPGSV,4,2,13,18,23,189,33,21,03,332,,22,06,031,09,23,83,119,28*73
$GPGSV,4,3,13,24,61,073,30,25,01,159,,32,32,266,25,46,12,248,*7B
$GPGSV,4,4,13,48,15,245,*40
$GPGLL,4506.16738,N,06839.66299,W,172142.00,A,A*72
$RDENS,2944,4810059,PC
$GPRMC,172143.00,A,4506.16694,N,06839.66392,W,3.032,233.71,180924,,,A*79
$GPVTG,233.71,T,,M,3.032,N,5.614,K,A*3D
$GPGGA,172143.00,4506.16694,N,06839.66392,W,1,07,1.32,37.9,M,-29.0,M,,*57
$GPGSA,A,3,18,24,12,15,23,10,32,,,,,,2.27,1.32,1.85*00
$GPGSV,4,1,13,08,00,303,,10,54,309,37,12,12,126,31,15,24,078,37*76
$GPGSV,4,2,13,18,23,189,34,21,03,332,,22,06,031,,23,83,119,27*72
$GPGSV,4,3,13,24,61,073,41,25,01,159,,32,32,266,22,46,12,248,*7A
$GPGSV,4,4,13,48,15,245,*40
$GPGLL,4506.16694,N,06839.66392,W,172143.00,A,A*7E
$RDENS,2945,4810137,PC
$RDENS,2946,4810216,PC
$GPRMC,172144.00,A,4506.16649,N,06839.66495,W,3.128,233.94,180924,,,A*7F
$GPVTG,233.94,T,,M,3.128,N,5.793,K,A*32
$GPGGA,172144.00,4506.16649,N,06839.66495,W,1,07,1.32,37.5,M,-29.0,M,,*5C
$GPGSA,A,3,18,24,12,15,23,10,32,,,,,,2.28,1.32,1.85*0F
$GPGSV,4,1,13,08,00,303,,10,54,309,36,12,12,126,29,15,24,078,38*71
$GPGSV,4,2,13,18,23,189,34,21,03,332,,22,06,031,,23,83,119,26*73
$GPGSV,4,3,13,24,61,073,41,25,01,159,,32,32,266,22,46,12,248,*7A
$GPGSV,4,4,13,48,15,245,*40
$GPGLL,4506.16649,N,06839.66495,W,172144.00,A,A*79
$RDENS,2947,4810295,PC
$GPRMC,172145.00,A,4506.16607,N,06839.66593,W,2.973,233.87,180924,,,A*76
$GPVTG,233.87,T,,M,2.973,N,5.506,K,A*39
$GPGGA,172145.00,4506.16607,N,06839.66593,W,1,07,1.32,37.6,M,-29.0,M,,*53
$GPGSA,A,3,18,24,12,15,23,10,32,,,,,,2.28,1.32,1.86*0C
$GPGSV,4,1,13,08,00,303,,10,54,309,37,12,12,126,29,15,24,078,38*70
$GPGSV,4,2,13,18,23,189,34,21,03,332,,22,06,031,,23,83,119,26*73
$GPGSV,4,3,13,24,61,073,41,25,01,159,,32,32,266,21,46,12,248,*79
$GPGSV,4,4,13,48,15,245,*40
$GPGLL,4506.16607,N,06839.66593,W,172145.00,A,A*75
$RDENS,2948,4810374,PC
$GPRMC,172146.00,A,4506.16560,N,06839.66683,W,3.014,233.96,180924,,,A*7C
$GPVTG,233.96,T,,M,3.014,N,5.582,K,A*3C
$GPGGA,172146.00,4506.16560,N,06839.66683,W,1,07,1.32,37.6,M,-29.0,M,,*50
$GPGSA,A,3,18,24,12,15,23,10,32,,,,,,2.28,1.32,1.86*0C
$GPGSV,4,1,13,08,00,303,,10,54,309,37,12,12,126,29,15,24,078,38*70
$GPGSV,4,2,13,18,23,189,35,21,03,332,,22,06,031,,23,83,119,26*72
$GPGSV,4,3,13,24,61,073,41,25,01,159,,32,32,266,22,46,12,248,*7A
$GPGSV,4,4,13,48,15,245,*40
$GPGLL,4506.16560,N,06839.66683,W,172146.00,A,A*76
$RDENS,2949,4810452,PC
$GPRMC,172147.00,A,4506.16506,N,06839.66772,W,2.980,232.81,180924,,,A*70
$GPVTG,232.81,T,,M,2.980,N,5.519,K,A*3C
$GPGGA,172147.00,4506.16506,N,06839.66772,W,1,07,1.32,37.7,M,-29.0,M,,*5F
$GPGSA,A,3,18,24,12,15,23,10,32,,,,,,2.28,1.32,1.86*0C
$GPGSV,4,1,13,08,00,303,,10,54,309,34,12,12,126,31,15,24,078,37*75
$GPGSV,4,2,13,18,23,189,35,21,03,332,,22,06,031,,23,83,119,28*7C
$GPGSV,4,3,13,24,61,073,41,25,01,159,,32,32,266,23,46,12,248,*7B
$GPGSV,4,4,13,48,15,245,*40
$GPGLL,4506.16506,N,06839.66772,W,172147.00,A,A*78
$RDENS,2950,4810531,PC
$RDENS,2951,4810610,PC
$GPRMC,172148.00,A,4506.16456,N,06839.66864,W,3.011,232.90,180924,,,A*73
$GPVTG,232.90,T,,M,3.011,N,5.576,K,A*35
$GPGGA,172148.00,4506.16456,N,06839.66864,W,1,07,1.32,37.7,M,-29.0,M,,*5C
$GPGSA,A,3,18,24,12,15,23,10,32,,,,,,2.28,1.32,1.86*0C
$GPGSV,4,1,13,08,00,303,,10,54,309,37,12,12,126,30,15,24,078,37*77
$GPGSV,4,2,13,18,23,189,35,21,03,332,,22,06,031,,23,83,119,32*77
$GPGSV,4,3,13,24,61,073,41,25,01,159,,32,32,266,24,46,12,248,*7C
$GPGSV,4,4,13,48,15,245,*40
$GPGLL,4506.16456,N,06839.66864,W,172148.00,A,A*7B
$RDENS,2952,4810688,PC
$GPRMC,172149.00,A,4506.16405,N,06839.66959,W,2.969,232.89,180924,,,A*74
$GPVTG,232.89,T,,M,2.969,N,5.499,K,A*3A
$GPGGA,172149.00,4506.16405,N,06839.66959,W,1,07,1.32,37.6,M,-29.0,M,,*55
$GPGSA,A,3,18,24,12,15,23,10,32,,,,,,2.28,1.32,1.86*0C
$GPGSV,4,1,13,08,00,303,,10,54,309,36,12,12,126,31,15,24,078,37*77
$GPGSV,4,2,13,18,23,189,35,21,03,332,,22,06,031,,23,83,119,31*74
$GPGSV,4,3,13,24,61,073,41,25,01,159,,32,32,266,27,46,12,248,*7F
$GPGSV,4,4,13,48,15,245,*40
$GPGLL,4506.16405,N,06839.66959,W,172149.00,A,A*73
$RDENS,2953,4810767,PC
$GPRMC,172150.00,A,4506.16356,N,06839.67056,W,3.017,233.06,180924,,,A*7D
$GPVTG,233.06,T,,M,3.017,N,5.587,K,A*33
$GPGGA,172150.00,4506.16356,N,06839.67056,W,1,07,1.32,37.6,M,-29.0,M,,*5B
$GPGSA,A,3,18,24,12,15,23,10,32,,,,,,2.28,1.32,1.86*0C
$GPGSV,4,1,13,08,00,303,,10,54,309,37,12,12,126,31,15,24,078,38*79
$GPGSV,4,2,13,18,23,189,35,21,03,332,,22,06,031,,23,83,119,33*76
$GPGSV,4,3,13,24,61,073,41,25,01,159,,32,32,266,27,46,12,248,*7F
$GPGSV,4,4,13,48,15,245,*40
$GPGLL,4506.16356,N,06839.67056,W,172150.00,A,A*7D
$RDENS,2954,4810846,PC
$GPRMC,172151.00,A,4506.16306,N,06839.67156,W,3.031,233.15,180924,,,A*7E
$GPVTG,233.15,T,,M,3.031,N,5.613,K,A*3B
$GPGGA,172151.00,4506.16306,N,06839.67156,W,1,07,1.32,37.6,M,-29.0,M,,*5E
$GPGSA,A,3,18,24,12,15,23,10,32,,,,,,2.28,1.32,1.86*0C
$GPGSV,4,1,13,08,00,303,,10,54,309,37,12,12,126,32,15,24,078,38*7A
$GPGSV,4,2,13,18,23,189,35,21,03,332,,22,06,031,,23,83,119,33*76
$GPGSV,4,3,13,24,61,073,41,25,01,159,,32,32,266,27,46,12,248,*7F
$GPGSV,4,4,13,48,15,245,*40
$GPGLL,4506.16306,N,06839.67156,W,172151.00,A,A*78
$RDENS,2955,4810925,PC
$RDENS,2956,4811004,PC
$GPRMC,172152.00,A,4506.16253,N,06839.67251,W,3.025,232.39,180924,,,A*72
$GPVTG,232.39,T,,M,3.025,N,5.603,K,A*30
$GPGGA,172152.00,4506.16253,N,06839.67251,W,1,07,1.32,37.6,M,-29.0,M,,*58
$GPGSA,A,3,18,24,12,15,23,10,32,,,,,,2.28,1.32,1.86*0C
$GPGSV,4,1,13,08,00,303,,10,54,309,37,12,12,126,32,15,24,078,38*7A
$GPGSV,4,2,13,18,23,189,35,21,03,332,,22,06,031,,23,83,119,32*77
$GPGSV,4,3,13,24,61,073,41,25,01,159,,32,32,266,27,46,12,248,*7F
$GPGSV,4,4,13,48,15,245,*40
$GPGLL,4506.16253,N,06839.67251,W,172152.00,A,A*7E
$RDENS,2957,4811082,PC
$GPRMC,172153.00,A,4506.16205,N,06839.67349,W,3.040,232.73,180924,,,A*75
$GPVTG,232.73,T,,M,3.040,N,5.630,K,A*3D
$GPGGA,172153.00,4506.16205,N,06839.67349,W,1,07,1.32,37.5,M,-29.0,M,,*51
$GPGSA,A,3,18,24,12,15,23,10,32,,,,,,2.28,1.32,1.86*0C
$GPGSV,4,1,13,08,00,303,,10,54,309,37,12,12,126,32,15,24,078,37*75
$GPGSV,4,2,13,18,23,189,36,21,03,332,,22,06,031,,23,83,119,31*77
$GPGSV,4,3,13,24,61,073,41,25,01,159,,32,32,266,27,46,12,248,*7F
$GPGSV,4,4,13,48,15,245,*40
$GPGLL,4506.16205,N,06839.67349,W,172153.00,A,A*74
$RDENS,2958,4811161,PC
$GPRMC,172154.00,A,4506.16157,N,06839.67447,W,3.013,232.66,180924,,,A*7D
$GPVTG,232.66,T,,M,3.013,N,5.581,K,A*36
$GPGGA,172154.00,4506.16157,N,06839.67447,W,1,07,1.32,37.4,M,-29.0,M,,*5A
$GPGSA,A,3,18,24,12,15,23,10,32,,,,,,2.28,1.32,1.86*0C
$GPGSV,4,1,13,08,00,303,,10,54,309,37,12,12,126,32,15,24,078,37*75
$GPGSV,4,2,13,18,23,189,36,21,03,332,,22,06,031,,23,83,119,31*77
$GPGSV,4,3,13,24,61,073,41,25,01,159,,32,32,266,27,46,12,248,*7F
$GPGSV,4,4,13,48,15,245,*40
$GPGLL,4506.16157,N,06839.67447,W,172154.00,A,A*7E
$RDENS,2959,4811240,PC
$RDENS,2960,4811319,PC
$GPRMC,172155.00,A,4506.16107,N,06839.67542,W,3.026,231.77,180924,,,A*78
$GPVTG,231.77,T,,M,3.026,N,5.605,K,A*3C
$GPGGA,172155.00,4506.16107,N,06839.67542,W,1,07,1.32,37.4,M,-29.0,M,,*5A
$GPGSA,A,3,18,24,12,15,23,10,32,,,,,,2.28,1.32,1.86*0C
$GPGSV,4,1,13,08,00,303,,10,54,309,37,12,12,126,32,15,24,078,37*75
$GPGSV,4,2,13,18,23,189,36,21,03,332,,22,06,031,,23,83,119,31*77
$GPGSV,4,3,13,24,61,073,40,25,01,159,,32,32,266,28,46,12,248,*71
$GPGSV,4,4,13,48,15,245,*40
$GPGLL,4506.16107,N,06839.67542,W,172155.00,A,A*7E
$RDENS,2961,4811397,PC
$GPRMC,172156.00,A,4506.16058,N,06839.67638,W,2.981,231.53,180924,,,A*7D
$GPVTG,231.53,T,,M,2.981,N,5.521,K,A*3A
$GPGGA,172156.00,4506.16058,N,06839.67638,W,1,07,1.32,37.3,M,-29.0,M,,*5B
$GPGSA,A,3,18,24,12,15,23,10,32,,,,,,2.28,1.32,1.86*0C
$GPGSV,4,1,13,08,00,303,,10,54,309,38,12,12,126,33,15,24,078,37*7B
$GPGSV,4,2,13,18,23,189,36,21,03,332,,22,06,031,,23,83,119,31*77
$GPGSV,4,3,13,24,61,073,41,25,01,159,,32,32,266,28,46,12,248,*70
$GPGSV,4,4,13,48,15,245,*40
$GPGLL,4506.16058,N,06839.67638,W,172156.00,A,A*78
$RDENS,2962,4811476,PC
$GPRMC,172157.00,A,4506.16006,N,06839.67731,W,2.978,230.91,180924,,,A*76
$GPVTG,230.91,T,,M,2.978,N,5.516,K,A*37
$GPGGA,172157.00,4506.16006,N,06839.67731,W,1,07,1.32,37.3,M,-29.0,M,,*59
$GPGSA,A,3,18,24,12,15,23,10,32,,,,,,2.28,1.32,1.86*0C
$GPGSV,4,1,13,08,00,303,,10,54,309,38,12,12,126,33,15,24,078,37*7B
$GPGSV,4,2,13,18,23,189,36,21,03,332,,22,06,031,,23,83,119,31*77
$GPGSV,4,3,13,24,61,073,40,25,01,159,,32,32,266,28,46,12,248,*71
$GPGSV,4,4,13,48,15,245,*40
$GPGLL,4506.16006,N,06839.67731,W,172157.00,A,A*7A
$RDENS,2963,4811555,PC
$GPRMC,172158.00,A,4506.15957,N,06839.67823,W,2.940,231.05,180924,,,A*7C
$GPVTG,231.05,T,,M,2.940,N,5.445,K,A*37
$GPGGA,172158.00,4506.15957,N,06839.67823,W,1,07,1.32,37.2,M,-29.0,M,,*55
$GPGSA,A,3,18,24,12,15,23,10,32,,,,,,2.28,1.32,1.86*0C
$GPGSV,4,1,13,08,00,303,,10,54,309,39,12,12,126,33,15,24,078,37*7A
$GPGSV,4,2,13,18,23,189,36,21,03,332,,22,06,031,,23,83,119,31*77
$GPGSV,4,3,13,24,61,073,40,25,01,159,,32,32,266,27,46,12,248,*7E
$GPGSV,4,4,13,48,15,245,*40
$GPGLL,4506.15957,N,06839.67823,W,172158.00,A,A*77
$RDENS,2964,4811633,PC
$RDENS,2965,4811712,PC
$GPRMC,172159.00,A,4506.15907,N,06839.67914,W,2.948,230.60,180924,,,A*77
$GPVTG,230.60,T,,M,2.948,N,5.460,K,A*3A
$GPGGA,172159.00,4506.15907,N,06839.67914,W,1,07,1.32,37.1,M,-29.0,M,,*57
$GPGSA,A,3,18,24,12,15,23,10,32,,,,,,2.28,1.32,1.86*0C
$GPGSV,4,1,13,08,00,303,,10,54,309,38,12,12,126,32,15,24,078,36*7B
$GPGSV,4,2,13,18,23,189,36,21,03,332,,22,06,031,,23,83,119,30*76
$GPGSV,4,3,13,24,61,073,40,25,01,159,,32,32,266,27,46,12,248,*7E
$GPGSV,4,4,13,48,15,245,*40
$GPGLL,4506.15907,N,06839.67914,W,172159.00,A,A*76
$RDENS,2966,4811791,PC
$GPRMC,172200.00,A,4506.15853,N,06839.68006,W,2.938,230.23,180924,,,A*7D
$GPVTG,230.23,T,,M,2.938,N,5.442,K,A*3A
$GPGGA,172200.00,4506.15853,N,06839.68006,W,1,07,1.32,37.1,M,-29.0,M,,*5D
$GPGSA,A,3,18,24,12,15,23,10,32,,,,,,2.28,1.32,1.86*0C
$GPGSV,4,1,13,08,00,303,,10,54,309,39,12,12,126,32,15,24,078,36*7A
$GPGSV,4,2,13,18,23,189,37,21,03,332,,22,06,031,,23,83,119,30*77
$GPGSV,4,3,13,24,61,073,40,25,01,159,,32,32,266,25,46,12,248,*7C
$GPGSV,4,4,13,48,15,245,*40
$GPGLL,4506.15853,N,06839.68006,W,172200.00,A,A*7C
$RDENS,2967,4811870,PC
$GPRMC,172201.00,A,4506.15799,N,06839.68096,W,2.978,230.09,180924,,,A*70
$GPVTG,230.09,T,,M,2.978,N,5.515,K,A*35
$GPGGA,172201.00,4506.15799,N,06839.68096,W,1,07,1.32,37.2,M,-29.0,M,,*5F
$GPGSA,A,3,18,24,12,15,23,10,32,,,,,,2.28,1.32,1.86*0C
$GPGSV,4,1,13,08,00,303,,10,54,309,39,12,12,126,32,15,24,078,35*79
$GPGSV,4,2,13,18,23,189,37,21,03,332,,22,06,031,,23,83,119,30*77
$GPGSV,4,3,13,24,61,073,40,25,01,159,,32,32,266,24,46,12,248,*7D
$GPGSV,4,4,13,48,15,245,*40
$GPGLL,4506.15799,N,06839.68096,W,172201.00,A,A*7D
$RDENS,2968,4811949,PC
$GPRMC,172202.00,A,4506.15748,N,06839.68186,W,2.964,229.58,180924,,,A*7E
$GPVTG,229.58,T,,M,2.964,N,5.489,K,A*30
$GPGGA,172202.00,4506.15748,N,06839.68186,W,1,07,1.32,37.1,M,-29.0,M,,*53
$GPGSA,A,3,18,24,12,15,23,10,32,,,,,,2.28,1.32,1.86*0C
$GPGSV,4,1,13,08,00,303,,10,54,309,39,12,12,126,31,15,24,078,35*7A
$GPGSV,4,2,13,18,23,189,37,21,03,332,,22,06,031,,23,83,119,30*77
$GPGSV,4,3,13,24,61,073,40,25,01,159,,32,32,266,22,46,12,248,*7B
$GPGSV,4,4,13,48,15,245,*40
$GPGLL,4506.15748,N,06839.68186,W,172202.00,A,A*72
$RDENS,2969,4812027,PC
$RDENS,2970,4812106,PC
$GPRMC,172203.00,A,4506.15699,N,06839.68279,W,2.923,229.87,180924,,,A*70
$GPVTG,229.87,T,,M,2.923,N,5.414,K,A*35
$GPGGA,172203.00,4506.15699,N,06839.68279,W,1,07,1.32,36.9,M,-29.0,M,,*55
$GPGSA,A,3,18,24,12,15,23,10,32,,,,,,2.28,1.32,1.86*0C
$GPGSV,4,1,13,08,00,303,,10,54,309,39,12,12,126,32,15,24,078,35*79
$GPGSV,4,2,13,18,23,189,36,21,03,332,,22,06,031,,23,83,119,30*76
$GPGSV,4,3,13,24,61,073,40,25,01,159,,32,32,266,22,46,12,248,*7B
$GPGSV,4,4,13,48,15,245,*40
$GPGLL,4506.15699,N,06839.68279,W,172203.00,A,A*7D
$RDENS,2971,4812185,PC
$GPRMC,172204.00,A,4506.15645,N,06839.68368,W,2.971,229.32,180924,,,A*7E
$GPVTG,229.32,T,,M,2.971,N,5.502,K,A*3A
$GPGGA,172204.00,4506.15645,N,06839.68368,W,1,07,1.32,36.9,M,-29.0,M,,*52
$GPGSA,A,3,18,24,12,15,23,10,32,,,,,,2.28,1.32,1.86*0C
$GPGSV,4,1,13,08,00,303,,10,54,309,39,12,12,126,32,15,24,078,35*79
$GPGSV,4,2,13,18,23,189,36,21,03,332,,22,06,031,,23,83,119,31*77
$GPGSV,4,3,13,24,61,073,40,25,01,159,,32,32,266,21,46,12,248,*78
$GPGSV,4,4,13,48,15,245,*40
$GPGLL,4506.15645,N,06839.68368,W,172204.00,A,A*7A
$RDENS,2972,4812264,PC
$GPRMC,172205.00,A,4506.15592,N,06839.68457,W,2.944,229.41,180924,,,A*7F
$GPVTG,229.41,T,,M,2.944,N,5.453,K,A*3D
$GPGGA,172205.00,4506.15592,N,06839.68457,W,1,07,1.32,36.8,M,-29.0,M,,*50
$GPGSA,A,3,18,24,12,15,23,10,32,,,,,,2.28,1.32,1.86*0C
$GPGSV,4,1,13,08,00,303,,10,54,309,39,12,12,126,32,15,24,078,35*79
$GPGSV,4,2,13,18,23,189,36,21,03,332,,22,06,031,,23,83,119,31*77
$GPGSV,4,3,13,24,61,073,40,25,01,159,,32,32,266,22,46,12,248,*7B
$GPGSV,4,4,13,48,15,245,*40
$GPGLL,4506.15592,N,06839.68457,W,172205.00,A,A*79
$RDENS,2973,4812342,PC
$RDENS,2974,4812421,PC
$GPRMC,172206.00,A,4506.15538,N,06839.68545,W,2.935,229.56,180924,,,A*7E
$GPVTG,229.56,T,,M,2.935,N,5.435,K,A*3D
$GPGGA,172206.00,4506.15538,N,06839.68545,W,1,07,1.32,36.8,M,-29.0,M,,*51
$GPGSA,A,3,18,24,12,15,23,10,32,,,,,,2.28,1.32,1.86*0C
$GPGSV,4,1,13,08,00,303,,10,54,309,39,12,12,126,33,15,24,078,35*78
$GPGSV,4,2,13,18,23,189,36,21,03,332,,22,06,031,,23,83,119,31*77
$GPGSV,4,3,13,24,61,073,40,25,01,159,,32,32,266,22,46,12,248,*7B
$GPGSV,4,4,13,48,15,245,*40
$GPGLL,4506.15538,N,06839.68545,W,172206.00,A,A*78
$RDENS,2975,4812500,PC
$GPRMC,172207.00,A,4506.15484,N,06839.68631,W,2.956,228.47,180924,,,A*7D
$GPVTG,228.47,T,,M,2.956,N,5.474,K,A*3C
$GPGGA,172207.00,4506.15484,N,06839.68631,W,1,07,1.32,36.9,M,-29.0,M,,*57
$GPGSA,A,3,18,24,12,15,23,10,32,,,,,,2.28,1.32,1.86*0C
$GPGSV,4,1,13,08,00,303,,10,54,309,39,12,12,126,32,15,24,078,35*79
$GPGSV,4,2,13,18,23,189,36,21,03,332,,22,06,031,,23,83,119,31*77
$GPGSV,4,3,13,24,61,073,40,25,01,159,,32,32,266,22,46,12,248,*7B
$GPGSV,4,4,13,48,15,245,*40
$GPGLL,4506.15484,N,06839.68631,W,172207.00,A,A*7F
$RDENS,2976,4812579,PC
$GPRMC,172208.00,A,4506.15428,N,06839.68714,W,2.940,227.72,180924,,,A*7C
$GPVTG,227.72,T,,M,2.940,N,5.444,K,A*31
$GPGGA,172208.00,4506.15428,N,06839.68714,W,1,07,1.32,36.9,M,-29.0,M,,*58
$GPGSA,A,3,18,24,12,15,23,10,32,,,,,,2.28,1.32,1.86*0C
$GPGSV,4,1,13,08,00,303,,10,54,309,38,12,12,126,32,15,24,078,35*78
$GPGSV,4,2,13,18,23,189,36,21,03,332,,22,06,031,,23,83,119,32*74
$GPGSV,4,3,13,24,61,073,40,25,01,159,,32,32,266,23,46,12,248,*7A
$GPGSV,4,4,13,48,15,245,*40
$GPGLL,4506.15428,N,06839.68714,W,172208.00,A,A*70
$RDENS,2977,4812657,PC
$GPRMC,172209.00,A,4506.15373,N,06839.68800,W,2.943,227.79,180924,,,A*76
$GPVTG,227.79,T,,M,2.943,N,5.450,K,A*3C
$GPGGA,172209.00,4506.15373,N,06839.68800,W,1,07,1.32,36.9,M,-29.0,M,,*5A
$GPGSA,A,3,18,24,12,15,23,10,32,,,,,,2.28,1.32,1.86*0C
$GPGSV,4,1,13,08,00,303,,10,54,309,38,12,12,126,33,15,24,078,35*79
$GPGSV,4,2,13,18,23,189,35,21,03,332,,22,06,031,,23,83,119,32*77
$GPGSV,4,3,13,24,61,073,40,25,01,159,,32,32,266,22,46,12,248,*7B
$GPGSV,4,4,13,48,15,245,*40
$GPGLL,4506.15373,N,06839.68800,W,172209.00,A,A*72
$RDENS,2978,4812736,PC
$RDENS,2979,4812815,PC
$GPRMC,172210.00,A,4506.15320,N,06839.68884,W,2.980,227.37,180924,,,A*71
$GPVTG,227.37,T,,M,2.980,N,5.519,K,A*35
$GPGGA,172210.00,4506.15320,N,06839.68884,W,1,07,1.32,36.8,M,-29.0,M,,*59
$GPGSA,A,3,18,24,12,15,23,10,32,,,,,,2.28,1.32,1.86*0C
$GPGSV,4,1,13,08,00,303,,10,54,309,38,12,12,126,33,15,24,078,35*79
$GPGSV,4,2,13,18,23,189,35,21,03,332,,22,06,031,,23,83,119,31*74
$GPGSV,4,3,13,24,61,073,40,25,01,159,,32,32,266,22,46,12,248,*7B
$GPGSV,4,4,13,48,15,245,*40
$GPGLL,4506.15320,N,06839.68884,W,172210.00,A,A*70
$RDENS,2980,4812894,PC
$GPRMC,172211.00,A,4506.15264,N,06839.68969,W,2.970,227.01,180924,,,A*79
$GPVTG,227.01,T,,M,2.970,N,5.501,K,A*36
$GPGGA,172211.00,4506.15264,N,06839.68969,W,1,07,1.32,36.8,M,-29.0,M,,*5B
$GPGSA,A,3,18,24,12,15,23,10,32,,,,,,2.28,1.32,1.86*0C
$GPGSV,4,1,13,08,00,303,,10,54,309,38,12,12,126,34,15,24,078,34*7F
$GPGSV,4,2,13,18,23,189,35,21,03,332,,22,06,031,,23,83,119,31*74
$GPGSV,4,3,13,24,61,073,39,25,01,159,,32,32,266,21,46,12,248,*76
$GPGSV,4,4,13,48,15,245,*40
$GPGLL,4506.15264,N,06839.68969,W,172211.00,A,A*72
$RDENS,2981,4812972,PC
$GPRMC,172212.00,A,4506.15208,N,06839.69053,W,2.995,226.53,180924,,,A*7C
$GPVTG,226.53,T,,M,2.995,N,5.548,K,A*36
$GPGGA,172212.00,4506.15208,N,06839.69053,W,1,07,1.32,36.8,M,-29.0,M,,*53
$GPGSA,A,3,18,24,12,15,23,10,32,,,,,,2.28,1.32,1.86*0C
$GPGSV,4,1,13,08,00,303,,10,54,309,38,12,12,126,35,15,24,078,35*7F
$GPGSV,4,2,13,18,23,189,34,21,03,332,,22,06,031,,23,83,119,31*75
$GPGSV,4,3,13,24,61,073,39,25,01,159,,32,32,266,21,46,12,248,*76
$GPGSV,4,4,13,48,15,245,*40
$GPGLL,4506.15208,N,06839.69053,W,172212.00,A,A*7A
$RDENS,2982,4813051,PC
$GPRMC,172213.00,A,4506.15154,N,06839.69140,W,3.034,226.68,180924,,,A*7F
$GPVTG,226.68,T,,M,3.034,N,5.619,K,A*3A
$GPGGA,172213.00,4506.15154,N,06839.69140,W,1,07,1.32,36.7,M,-29.0,M,,*54
$GPGSA,A,3,18,24,12,15,23,10,32,,,,,,2.28,1.32,1.86*0C
$GPGSV,4,1,13,08,00,303,,10,54,309,37,12,12,126,35,15,24,078,34*71
$GPGSV,4,2,13,18,22,189,34,21,03,332,,22,06,031,,23,83,119,31*74
$GPGSV,4,3,13,24,61,073,39,25,01,159,,32,32,266,20,46,12,248,*77
$GPGSV,4,4,13,48,15,245,*40
$GPGLL,4506.15154,N,06839.69140,W,172213.00,A,A*72
$RDENS,2983,4813130,PC
$RDENS,2984,4813208,PC
$GPRMC,172214.00,A,4506.15100,N,06839.69227,W,3.032,226.31,180924,,,A*71
$GPVTG,226.31,T,,M,3.032,N,5.616,K,A*3F
$GPGGA,172214.00,4506.15100,N,06839.69227,W,1,07,1.32,36.5,M,-29.0,M,,*52
$GPGSA,A,3,18,24,12,15,23,10,32,,,,,,2.28,1.32,1.86*0C
$GPGSV,4,1,13,08,00,303,,10,54,309,37,12,12,126,35,15,24,078,34*71
$GPGSV,4,2,13,18,22,189,34,21,03,332,,22,06,031,,23,83,119,32*77
$GPGSV,4,3,13,24,61,073,39,25,01,159,,32,32,266,22,46,12,248,*75
$GPGSV,4,4,13,48,15,245,*40
$GPGLL,4506.15100,N,06839.69227,W,172214.00,A,A*76
$RDENS,2985,4813288,PC
$GPRMC,172215.00,A,4506.15042,N,06839.69310,W,2.988,225.97,180924,,,A*74
$GPVTG,225.97,T,,M,2.988,N,5.534,K,A*3A
$GPGGA,172215.00,4506.15042,N,06839.69310,W,1,07,1.32,36.5,M,-29.0,M,,*51
$GPGSA,A,3,18,24,12,15,23,10,32,,,,,,2.28,1.32,1.86*0C
$GPGSV,4,1,13,08,00,303,,10,54,309,37,12,12,126,35,15,24,078,34*71
$GPGSV,4,2,13,18,22,189,34,21,03,332,,22,06,031,,23,83,119,32*77
$GPGSV,4,3,13,24,61,073,40,25,01,159,,32,32,266,21,46,12,248,*78
$GPGSV,4,4,13,48,15,245,*40
$GPGLL,4506.15042,N,06839.69310,W,172215.00,A,A*75
$RDENS,2986,4813366,PC
$GPRMC,172216.00,A,4506.14986,N,06839.69395,W,2.971,226.00,180924,,,A*71
$GPVTG,226.00,T,,M,2.971,N,5.503,K,A*35
$GPGGA,172216.00,4506.14986,N,06839.69395,W,1,07,1.32,36.5,M,-29.0,M,,*5F
$GPGSA,A,3,18,24,12,15,23,10,32,,,,,,2.28,1.32,1.86*0C
$GPGSV,4,1,13,08,00,303,,10,54,309,38,12,12,126,36,15,24,078,34*7D
$GPGSV,4,2,13,18,22,189,34,21,04,332,,22,06,031,,23,83,119,32*70
$GPGSV,4,3,13,24,61,073,40,25,01,159,,32,32,266,21,46,12,248,*78
$GPGSV,4,4,13,48,15,245,*40
$GPGLL,4506.14986,N,06839.69395,W,172216.00,A,A*7B
$RDENS,2987,4813445,PC
$GPRMC,172217.00,A,4506.14930,N,06839.69479,W,3.008,226.08,180924,,,A*76
$GPVTG,226.08,T,,M,3.008,N,5.570,K,A*3F
$GPGGA,172217.00,4506.14930,N,06839.69479,W,1,07,1.32,36.5,M,-29.0,M,,*56
$GPGSA,A,3,18,24,12,15,23,10,32,,,,,,2.28,1.32,1.86*0C
$GPGSV,4,1,13,08,00,303,,10,54,309,37,12,12,126,35,15,24,078,34*71
$GPGSV,4,2,13,18,22,189,34,21,04,332,,22,06,031,,23,83,119,32*70
$GPGSV,4,3,13,24,61,073,39,25,01,159,,32,32,266,22,46,12,248,*75
$GPGSV,4,4,13,48,15,245,*40
$GPGLL,4506.14930,N,06839.69479,W,172217.00,A,A*72
$RDENS,2988,4813523,PC
$RDENS,2989,4813603,PC
$GPRMC,172218.00,A,4506.14874,N,06839.69565,W,3.028,226.34,180924,,,A*79
$GPVTG,226.34,T,,M,3.028,N,5.607,K,A*31
$GPGGA,172218.00,4506.14874,N,06839.69565,W,1,07,1.32,36.5,M,-29.0,M,,*54
$GPGSA,A,3,18,24,12,15,23,10,32,,,,,,2.28,1.32,1.86*0C
$GPGSV,4,1,13,08,00,303,,10,54,309,37,12,12,126,35,15,24,078,34*71
$GPGSV,4,2,13,18,22,189,34,21,04,332,,22,06,031,,23,83,120,32*7A
$GPGSV,4,3,13,24,61,073,39,25,01,159,,32,32,266,22,46,12,248,*75
$GPGSV,4,4,13,48,15,245,*40
$GPGLL,4506.14874,N,06839.69565,W,172218.00,A,A*70
$RDENS,2990,4813681,PC
$GPRMC,172219.00,A,4506.14819,N,06839.69650,W,3.002,226.60,180924,,,A*7F
$GPVTG,226.60,T,,M,3.002,N,5.560,K,A*3A
$GPGGA,172219.00,4506.14819,N,06839.69650,W,1,07,1.32,36.5,M,-29.0,M,,*5B
$GPGSA,A,3,18,24,12,15,23,10,32,,,,,,2.28,1.32,1.86*0C
$GPGSV,4,1,13,08,00,303,,10,54,309,37,12,12,126,35,15,24,078,34*71
$GPGSV,4,2,13,18,22,189,35,21,04,332,,22,06,031,,23,83,120,32*7B
$GPGSV,4,3,13,24,60,072,39,25,01,159,,32,32,266,22,46,12,248,*75
$GPGSV,4,4,13,48,15,245,*40
$GPGLL,4506.14819,N,06839.69650,W,172219.00,A,A*7F
$RDENS,2991,4813760,PC
$GPRMC,172220.00,A,4506.14762,N,06839.69737,W,3.041,227.13,180924,,,A*74
$GPVTG,227.13,T,,M,3.041,N,5.632,K,A*3C
$GPGGA,172220.00,4506.14762,N,06839.69737,W,1,07,1.32,36.5,M,-29.0,M,,*52
$GPGSA,A,3,18,24,12,15,23,10,32,,,,,,2.28,1.32,1.86*0C
$GPGSV,4,1,13,08,00,303,,10,54,309,37,12,12,126,35,15,24,078,34*71
$GPGSV,4,2,13,18,22,189,35,21,04,332,,22,06,031,,23,83,120,32*7B
$GPGSV,4,3,13,24,60,072,39,25,01,159,,32,32,266,22,46,12,248,*75
$GPGSV,4,4,13,48,15,245,*40
$GPGLL,4506.14762,N,06839.69737,W,172220.00,A,A*76
$RDENS,2992,4813839,PC
$RDENS,2993,4813917,PC
$GPRMC,172221.00,A,4506.14707,N,06839.69825,W,3.044,227.36,180924,,,A*78
$GPVTG,227.36,T,,M,3.044,N,5.638,K,A*34
$GPGGA,172221.00,4506.14707,N,06839.69825,W,1,07,1.32,36.5,M,-29.0,M,,*5C
$GPGSA,A,3,18,24,12,15,23,10,32,,,,,,2.28,1.32,1.86*0C
$GPGSV,4,1,13,08,00,303,,10,54,309,37,12,12,126,34,15,24,078,34*70
$GPGSV,4,2,13,18,22,189,35,21,04,332,,22,06,031,,23,83,120,32*7B
$GPGSV,4,3,13,24,60,072,39,25,01,159,,32,32,266,22,46,12,248,*75
$GPGSV,4,4,13,48,15,245,*40
$GPGLL,4506.14707,N,06839.69825,W,172221.00,A,A*78
$RDENS,2994,4813996,PC
$GPRMC,172222.00,A,4506.14655,N,06839.69914,W,2.998,228.03,180924,,,A*7E
$GPVTG,228.03,T,,M,2.998,N,5.553,K,A*3A
$GPGGA,172222.00,4506.14655,N,06839.69914,W,1,07,1.32,36.3,M,-29.0,M,,*5C
$GPGSA,A,3,18,24,12,15,23,10,32,,,,,,2.28,1.32,1.86*0C
$GPGSV,4,1,13,08,00,303,,10,54,309,37,12,12,126,34,15,24,078,34*70
$GPGSV,4,2,13,18,22,189,35,21,04,332,,22,06,031,,23,83,120,31*78
$GPGSV,4,3,13,24,60,072,39,25,01,159,,32,32,266,21,46,12,248,*76
$GPGSV,4,4,13,48,15,245,*40
$GPGLL,4506.14655,N,06839.69914,W,172222.00,A,A*7E
$RDENS,2995,4814075,PC
$GPRMC,172223.00,A,4506.14598,N,06839.70002,W,3.054,227.86,180924,,,A*71
$GPVTG,227.86,T,,M,3.054,N,5.656,K,A*36
$GPGGA,172223.00,4506.14598,N,06839.70002,W,1,07,1.32,36.3,M,-29.0,M,,*59
$GPGSA,A,3,18,24,12,15,23,10,32,,,,,,2.28,1.32,1.86*0C
$GPGSV,4,1,13,08,00,303,,10,54,309,39,12,12,126,33,15,24,078,34*79
$GPGSV,4,2,13,18,22,189,34,21,04,332,,22,06,031,,23,83,120,30*78
$GPGSV,4,3,13,24,60,072,39,25,01,159,,32,32,266,19,46,12,248,*7D
$GPGSV,4,4,13,48,15,245,*40
$GPGLL,4506.14598,N,06839.70002,W,172223.00,A,A*7B
$RDENS,2996,4814154,PC
$GPRMC,172224.00,A,4506.14541,N,06839.70089,W,3.014,227.64,180924,,,A*79
$GPVTG,227.64,T,,M,3.014,N,5.582,K,A*34
$GPGGA,172224.00,4506.14541,N,06839.70089,W,1,07,1.32,36.3,M,-29.0,M,,*59
$GPGSA,A,3,18,24,12,15,23,10,32,,,,,,2.28,1.32,1.86*0C
$GPGSV,4,1,13,08,00,303,,10,54,309,40,12,12,126,34,15,24,078,34*70
$GPGSV,4,2,13,18,22,189,34,21,04,332,,22,06,031,,23,83,120,30*78
$GPGSV,4,3,13,24,60,072,40,25,01,159,,32,32,266,17,46,12,248,*7D
$GPGSV,4,4,13,48,15,245,*40
$GPGLL,4506.14541,N,06839.70089,W,172224.00,A,A*7B
$RDENS,2997,4814232,PC
$RDENS,2998,4814311,PC
$GPRMC,172225.00,A,4506.14486,N,06839.70178,W,3.037,227.39,180924,,,A*74
$GPVTG,227.39,T,,M,3.037,N,5.625,K,A*33
$GPGGA,172225.00,4506.14486,N,06839.70178,W,1,07,1.32,36.3,M,-29.0,M,,*5D
$GPGSA,A,3,18,24,12,15,23,10,32,,,,,,2.28,1.32,1.86*0C
$GPGSV,4,1,13,08,00,303,,10,54,309,40,12,12,126,34,15,24,078,34*70
$GPGSV,4,2,13,18,22,189,34,21,04,332,,22,06,031,,23,83,120,30*78
$GPGSV,4,3,13,24,60,072,40,25,01,159,,32,32,266,14,46,12,248,*7E
$GPGSV,4,4,13,48,15,245,*40
$GPGLL,4506.14486,N,06839.70178,W,172225.00,A,A*7F
$RDENS,2999,4814390,PC
$GPRMC,172226.00,A,4506.14430,N,06839.70266,W,2.981,227.39,180924,,,A*73
$GPVTG,227.39,T,,M,2.981,N,5.520,K,A*30
$GPGGA,172226.00,4506.14430,N,06839.70266,W,1,07,1.32,36.3,M,-29.0,M,,*5F
$GPGSA,A,3,18,24,12,15,23,10,32,,,,,,2.28,1.32,1.86*0C
$GPGSV,4,1,13,08,00,303,,10,54,309,40,12,12,126,35,15,24,078,34*71
$GPGSV,4,2,13,18,22,189,33,21,04,332,,22,06,031,,23,83,120,30*7F
$GPGSV,4,3,13,24,60,072,39,25,01,159,,32,32,266,13,46,12,248,*77
$GPGSV,4,4,13,48,15,245,*40
$GPGLL,4506.14430,N,06839.70266,W,172226.00,A,A*7D
$RDENS,3000,4814468,PC
$GPRMC,172227.00,A,4506.14376,N,06839.70354,W,3.016,227.57,180924,,,A*79
$GPVTG,227.57,T,,M,3.016,N,5.585,K,A*31
$GPGGA,172227.00,4506.14376,N,06839.70354,W,1,07,1.32,36.2,M,-29.0,M,,*5A
$GPGSA,A,3,18,24,12,15,23,10,32,,,,,,2.28,1.32,1.86*0C
$GPGSV,4,1,13,08,00,303,,10,54,309,39,12,12,126,35,15,24,078,34*7F
$GPGSV,4,2,13,18,22,189,33,21,04,332,,22,06,031,,23,83,120,30*7F
$GPGSV,4,3,13,24,60,072,40,25,01,159,,32,33,267,12,46,12,248,*78
$GPGSV,4,4,13,48,15,245,*40
$GPGLL,4506.14376,N,06839.70354,W,172227.00,A,A*79
$RDENS,3001,4814547,PC
$GPRMC,172228.00,A,4506.14321,N,06839.70442,W,2.999,227.59,180924,,,A*75
$GPVTG,227.59,T,,M,2.999,N,5.555,K,A*3D
$GPGGA,172228.00,4506.14321,N,06839.70442,W,1,07,1.32,36.0,M,-29.0,M,,*55
$GPGSA,A,3,18,24,12,15,23,10,32,,,,,,2.28,1.32,1.86*0C
$GPGSV,4,1,13,08,00,303,,10,54,309,39,12,12,126,35,15,24,078,34*7F
$GPGSV,4,2,13,18,22,189,32,21,04,332,,22,06,031,,23,83,120,29*76
$GPGSV,4,3,13,24,60,072,40,25,01,159,,32,33,267,13,46,12,248,*79
$GPGSV,4,4,13,48,15,245,*40
$GPGLL,4506.14321,N,06839.70442,W,172228.00,A,A*74
$RDENS,3002,4814625,PC
$RDENS,3003,4814704,PC
$GPRMC,172229.00,A,4506.14269,N,06839.70527,W,2.894,227.49,180924,,,A*76
$GPVTG,227.49,T,,M,2.894,N,5.360,K,A*30
$GPGGA,172229.00,4506.14269,N,06839.70527,W,1,07,1.32,35.8,M,-29.0,M,,*50
$GPGSA,A,3,18,24,12,15,23,10,32,,,,,,2.28,1.32,1.86*0C
$GPGSV,4,1,13,08,00,303,,10,54,309,39,12,12,126,35,15,24,078,34*7F
$GPGSV,4,2,13,18,22,189,33,21,04,332,,22,06,031,,23,83,120,30*7F
$GPGSV,4,3,13,24,60,072,40,25,01,159,,32,33,267,12,46,12,248,*78
$GPGSV,4,4,13,48,15,245,*40
$GPGLL,4506.14269,N,06839.70527,W,172229.00,A,A*7A
$RDENS,3004,4814783,PC
$GPRMC,172230.00,A,4506.14213,N,06839.70611,W,2.989,227.16,180924,,,A*72
$GPVTG,227.16,T,,M,2.989,N,5.535,K,A*31
$GPGGA,172230.00,4506.14213,N,06839.70611,W,1,07,1.32,35.8,M,-29.0,M,,*53
$GPGSA,A,3,18,24,12,15,23,10,32,,,,,,2.28,1.32,1.86*0C
$GPGSV,4,1,13,08,00,303,,10,54,309,39,12,12,126,35,15,24,078,34*7F
$GPGSV,4,2,13,18,22,189,32,21,04,332,,22,06,031,,23,83,120,30*7E
$GPGSV,4,3,13,24,60,072,40,25,01,159,,32,33,267,12,46,12,248,*78
$GPGSV,4,4,13,48,15,245,*40
$GPGLL,4506.14213,N,06839.70611,W,172230.00,A,A*79
$RDENS,3005,4814861,PC
$GPRMC,172231.00,A,4506.14155,N,06839.70693,W,2.954,226.39,180924,,,A*74
$GPVTG,226.39,T,,M,2.954,N,5.472,K,A*3F
$GPGGA,172231.00,4506.14155,N,06839.70693,W,1,07,1.32,35.7,M,-29.0,M,,*56
$GPGSA,A,3,18,24,12,15,23,10,32,,,,,,2.28,1.32,1.86*0C
$GPGSV,4,1,13,08,00,303,,10,54,309,40,12,12,126,35,15,24,078,34*71
$GPGSV,4,2,13,18,22,189,32,21,04,332,,22,06,031,,23,83,120,30*7E
$GPGSV,4,3,13,24,60,072,40,25,01,159,,32,33,267,14,46,12,248,*7E
$GPGSV,4,4,13,48,15,245,*40
$GPGLL,4506.14155,N,06839.70693,W,172231.00,A,A*73
$RDENS,3006,4814940,PC
$RDENS,3007,4815019,PC
$GPRMC,172232.00,A,4506.14095,N,06839.70774,W,2.973,225.78,180924,,,A*71
$GPVTG,225.78,T,,M,2.973,N,5.507,K,A*3F
$GPGGA,172232.00,4506.14095,N,06839.70774,W,1,07,1.32,35.8,M,-29.0,M,,*5F
$GPGSA,A,3,18,24,12,15,23,10,32,,,,,,2.28,1.32,1.86*0C
$GPGSV,4,1,13,08,00,303,,10,54,309,35,12,12,126,35,15,24,078,32*75
$GPGSV,4,2,13,18,22,189,32,21,04,332,,22,06,031,,23,83,120,30*7E
$GPGSV,4,3,13,24,60,072,39,25,01,159,,32,33,267,18,46,12,248,*7C
$GPGSV,4,4,13,48,15,245,*40
$GPGLL,4506.14095,N,06839.70774,W,172232.00,A,A*75
$RDENS,3008,4815098,PC
$GPRMC,172233.00,A,4506.14035,N,06839.70855,W,2.998,225.38,180924,,,A*77
$GPVTG,225.38,T,,M,2.998,N,5.553,K,A*3F
$GPGGA,172233.00,4506.14035,N,06839.70855,W,1,07,1.32,35.8,M,-29.0,M,,*58
$GPGSA,A,3,18,24,12,15,23,10,32,,,,,,2.28,1.32,1.86*0C
$GPGSV,4,1,13,08,00,303,,10,54,309,37,12,12,126,35,15,24,078,33*76
$GPGSV,4,2,13,18,22,189,32,21,04,332,,22,06,031,,23,83,120,31*7F
$GPGSV,4,3,13,24,60,072,39,25,01,159,,32,33,267,20,46,12,248,*77
$GPGSV,4,4,13,48,15,245,*40
$GPGLL,4506.14035,N,06839.70855,W,172233.00,A,A*72
$RDENS,3009,4815177,PC
$GPRMC,172234.00,A,4506.13977,N,06839.70938,W,3.008,224.46,180924,,,A*7B
$GPVTG,224.46,T,,M,3.008,N,5.570,K,A*37
$GPGGA,172234.00,4506.13977,N,06839.70938,W,1,07,1.32,35.7,M,-29.0,M,,*52
$GPGSA,A,3,18,24,12,15,23,10,32,,,,,,2.28,1.32,1.86*0C
$GPGSV,4,1,13,08,00,303,,10,54,309,37,12,12,126,35,15,24,078,33*76
$GPGSV,4,2,13,18,22,189,33,21,04,332,,22,06,031,,23,83,120,31*7E
$GPGSV,4,3,13,24,60,072,39,25,01,159,,32,33,267,21,46,12,248,*76
$GPGSV,4,4,13,48,15,245,*40
$GPGLL,4506.13977,N,06839.70938,W,172234.00,A,A*77
$RDENS,3010,4815255,PC
$GPRMC,172235.00,A,4506.13917,N,06839.71021,W,3.068,224.31,180924,,,A*7A
$GPVTG,224.31,T,,M,3.068,N,5.682,K,A*3F
$GPGGA,172235.00,4506.13917,N,06839.71021,W,1,07,1.32,35.7,M,-29.0,M,,*55
$GPGSA,A,3,18,24,12,15,23,10,32,,,,,,2.28,1.32,1.86*0C
$GPGSV,4,1,13,08,00,303,,10,54,309,37,12,12,126,35,15,24,078,33*76
$GPGSV,4,2,13,18,22,189,33,21,04,332,,22,06,031,,23,83,120,31*7E
$GPGSV,4,3,13,24,60,072,39,25,01,159,,32,33,267,23,46,12,248,*74
$GPGSV,4,4,13,48,15,245,*40
$GPGLL,4506.13917,N,06839.71021,W,172235.00,A,A*70
$RDENS,3011,4815334,PC
$RDENS,3012,4815413,PC
$GPRMC,172236.00,A,4506.13858,N,06839.71104,W,3.021,224.79,180924,,,A*74
$GPVTG,224.79,T,,M,3.021,N,5.595,K,A*3B
$GPGGA,172236.00,4506.13858,N,06839.71104,W,1,07,1.32,35.7,M,-29.0,M,,*5A
$GPGSA,A,3,18,24,12,15,23,10,32,,,,,,2.28,1.32,1.86*0C
$GPGSV,4,1,13,08,00,303,,10,54,309,37,12,12,126,34,15,24,078,34*70
$GPGSV,4,2,13,18,22,189,35,21,04,332,,22,06,031,,23,83,120,31*78
$GPGSV,4,3,13,24,60,072,39,25,01,159,,32,33,267,23,46,12,248,*74
$GPGSV,4,4,13,48,15,245,*40
$GPGLL,4506.13858,N,06839.71104,W,172236.00,A,A*7F
$RDENS,3013,4815491,PC
$GPRMC,172237.00,A,4506.13800,N,06839.71188,W,2.998,224.91,180924,,,A*70
$GPVTG,224.91,T,,M,2.998,N,5.551,K,A*3F
$GPGGA,172237.00,4506.13800,N,06839.71188,W,1,07,1.32,35.6,M,-29.0,M,,*53
$GPGSA,A,3,18,24,12,15,23,10,32,,,,,,2.28,1.32,1.86*0C
$GPGSV,4,1,13,08,00,303,,10,54,309,37,12,12,126,32,15,24,078,33*71
$GPGSV,4,2,13,18,22,189,34,21,04,332,,22,06,031,,23,83,120,31*79
$GPGSV,4,3,13,24,60,072,39,25,01,159,,32,33,267,22,46,12,248,*75
$GPGSV,4,4,13,48,15,245,*40
$GPGLL,4506.13800,N,06839.71188,W,172237.00,A,A*77
$RDENS,3014,4815571,PC
$GPRMC,172238.00,A,4506.13743,N,06839.71275,W,3.025,225.87,180924,,,A*7E
$GPVTG,225.87,T,,M,3.025,N,5.603,K,A*33
$GPGGA,172238.00,4506.13743,N,06839.71275,W,1,07,1.32,35.5,M,-29.0,M,,*56
$GPGSA,A,3,18,24,12,15,23,10,32,,,,,,2.28,1.32,1.86*0C
$GPGSV,4,1,13,08,00,303,,10,54,309,37,12,12,126,33,15,24,078,34*77
$GPGSV,4,2,13,18,22,189,35,21,04,332,,22,06,031,,23,83,120,30*79
$GPGSV,4,3,13,24,60,072,39,25,01,159,,32,33,267,21,46,12,248,*76
$GPGSV,4,4,13,48,15,245,*40
$GPGLL,4506.13743,N,06839.71275,W,172238.00,A,A*71
$RDENS,3015,4815649,PC
$GPRMC,172239.00,A,4506.13683,N,06839.71358,W,2.956,225.20,180924,,,A*7D
$GPVTG,225.20,T,,M,2.956,N,5.474,K,A*30
$GPGGA,172239.00,4506.13683,N,06839.71358,W,1,07,1.32,35.5,M,-29.0,M,,*54
$GPGSA,A,3,18,24,12,15,23,10,32,,,,,,2.28,1.32,1.86*0C
$GPGSV,4,1,13,08,00,303,,10,54,309,37,12,12,126,33,15,24,078,34*77
$GPGSV,4,2,13,18,22,189,36,21,04,332,,22,06,031,,23,83,120,31*7B
$GPGSV,4,3,13,24,60,072,39,25,01,159,,32,33,267,20,46,12,248,*77
$GPGSV,4,4,13,48,15,245,*40
$GPGLL,4506.13683,N,06839.71358,W,172239.00,A,A*73
$RDENS,3016,4815728,PC
$RDENS,3017,4815806,PC
$GPRMC,172240.00,A,4506.13623,N,06839.71443,W,2.986,225.49,180924,,,A*76
$GPVTG,225.49,T,,M,2.986,N,5.529,K,A*3B
$GPGGA,172240.00,4506.13623,N,06839.71443,W,1,07,1.32,35.5,M,-29.0,M,,*5D
$GPGSA,A,3,18,24,12,15,23,10,32,,,,,,2.28,1.32,1.86*0C
$GPGSV,4,1,13,08,00,303,,10,54,309,37,12,12,126,32,15,24,078,34*76
$GPGSV,4,2,13,18,22,189,36,21,04,332,,22,06,031,,23,83,120,30*7A
$GPGSV,4,3,13,24,60,072,39,25,01,159,,32,33,267,20,46,12,248,*77
$GPGSV,4,4,13,48,15,245,*40
$GPGLL,4506.13623,N,06839.71443,W,172240.00,A,A*7A
$RDENS,3018,4815885,PC
$GPRMC,172241.00,A,4506.13564,N,06839.71529,W,3.014,226.34,180924,,,A*70
$GPVTG,226.34,T,,M,3.014,N,5.581,K,A*33
$GPGGA,172241.00,4506.13564,N,06839.71529,W,1,07,1.32,35.6,M,-29.0,M,,*52
$GPGSA,A,3,18,24,12,15,23,10,32,,,,,,2.28,1.32,1.86*0C
$GPGSV,4,1,13,08,00,303,,10,54,309,36,12,12,126,32,15,24,078,34*77
$GPGSV,4,2,13,18,22,189,36,21,04,332,,22,06,031,,23,83,120,31*7B
$GPGSV,4,3,13,24,60,072,40,25,01,159,,32,33,267,21,46,12,248,*78
$GPGSV,4,4,13,48,15,245,*40
$GPGLL,4506.13564,N,06839.71529,W,172241.00,A,A*76
$RDENS,3019,4815963,PC
$GPRMC,172242.00,A,4506.13507,N,06839.71617,W,3.015,227.08,180924,,,A*77
$GPVTG,227.08,T,,M,3.015,N,5.584,K,A*39
$GPGGA,172242.00,4506.13507,N,06839.71617,W,1,07,1.32,35.6,M,-29.0,M,,*5A
$GPGSA,A,3,18,24,12,15,23,10,32,,,,,,2.28,1.32,1.86*0C
$GPGSV,4,1,13,08,00,303,,10,54,309,36,12,12,126,32,15,24,078,35*76
