$GPRMC,182631.00,A,4506.11465,N,06839.80289,W,1.757,224.09,180924,,,A*73
$GPVTG,224.09,T,,M,1.757,N,3.254,K,A*34
$GPGGA,182631.00,4506.11465,N,06839.80289,W,1,07,1.26,37.0,M,-29.0,M,,*5E
$GPGSA,A,3,24,12,25,23,10,28,32,,,,,,2.60,1.26,2.28*02
$GPGSV,3,1,12,02,09,328,,10,80,265,41,12,32,102,37,15,02,096,*7B
$GPGSV,3,2,12,21,18,313,14,23,51,150,42,24,34,054,36,25,25,144,36*73
$GPGSV,3,3,12,28,25,222,25,32,55,292,41,46,12,248,,48,15,245,*7B
$GPGLL,4506.11465,N,06839.80289,W,182631.00,A,A*7B
$GPRMC,182632.00,A,4506.11430,N,06839.80334,W,1.651,224.36,180924,,,A*7C
$GPVTG,224.36,T,,M,1.651,N,3.059,K,A*30
$GPGGA,182632.00,4506.11430,N,06839.80334,W,1,07,1.26,36.8,M,-29.0,M,,*53
$GPGSA,A,3,24,12,25,23,10,28,32,,,,,,2.60,1.26,2.28*02
$GPGSV,3,1,12,02,09,328,,10,80,265,41,12,32,102,37,15,02,096,*7B
$GPGSV,3,2,12,21,18,313,15,23,51,150,42,24,34,054,37,25,25,144,35*70
$GPGSV,3,3,12,28,25,222,26,32,55,292,41,46,12,248,,48,15,245,*78
$GPGLL,4506.11430,N,06839.80334,W,182632.00,A,A*7F
$RDENS,7886,5199041,PC
$RDENS,7887,5199119,PC
$GPRMC,182633.00,A,4506.11397,N,06839.80375,W,1.535,224.86,180924,,,A*78
$GPVTG,224.86,T,,M,1.535,N,2.842,K,A*39
$GPGGA,182633.00,4506.11397,N,06839.80375,W,1,08,0.97,36.7,M,-29.0,M,,*56
$GPGSA,A,3,24,12,25,21,23,10,28,32,,,,,1.89,0.97,1.63*02
$GPGSV,3,1,12,02,09,328,,10,80,265,43,12,32,102,36,15,02,096,*78
$GPGSV,3,2,12,21,18,313,15,23,51,150,42,24,34,054,39,25,25,144,34*7F
$GPGSV,3,3,12,28,25,222,26,32,55,292,40,46,12,248,,48,15,245,*79
$GPGLL,4506.11397,N,06839.80375,W,182633.00,A,A*71
$RDENS,7888,5199198,PC
$GPRMC,182634.00,A,4506.11367,N,06839.80408,W,1.442,224.49,180924,,,A*7F
$GPVTG,224.49,T,,M,1.442,N,2.671,K,A*35
$GPGGA,182634.00,4506.11367,N,06839.80408,W,1,08,0.97,36.7,M,-29.0,M,,*53
$GPGSA,A,3,24,12,25,21,23,10,28,32,,,,,1.89,0.97,1.63*02
$GPGSV,3,1,12,02,09,328,,10,80,265,40,12,32,102,36,15,02,096,*7B
$GPGSV,3,2,12,21,18,313,16,23,51,150,40,24,34,054,38,25,25,144,32*79
$GPGSV,3,3,12,28,25,222,27,32,55,292,38,46,12,248,,48,15,245,*77
$GPGLL,4506.11367,N,06839.80408,W,182634.00,A,A*74
$RDENS,7889,5199277,PC
$GPRMC,182635.00,A,4506.11339,N,06839.80437,W,1.316,223.51,180924,,,A*71
$GPVTG,223.51,T,,M,1.316,N,2.438,K,A*32
$GPGGA,182635.00,4506.11339,N,06839.80437,W,1,08,0.97,36.7,M,-29.0,M,,*55
$GPGSA,A,3,24,12,25,21,23,10,28,32,,,,,1.89,0.97,1.63*02
$GPGSV,3,1,12,02,09,328,,10,80,265,40,12,32,102,39,15,02,096,*74
$GPGSV,3,2,12,21,18,313,18,23,51,150,40,24,34,054,35,25,25,144,32*7A
$GPGSV,3,3,12,28,25,222,27,32,55,292,38,46,12,248,,48,15,245,*77
$GPGLL,4506.11339,N,06839.80437,W,182635.00,A,A*72
$RDENS,7890,5199356,PC
$GPRMC,182636.00,A,4506.11314,N,06839.80467,W,1.193,223.18,180924,,,A*7A
$GPVTG,223.18,T,,M,1.193,N,2.209,K,A*34
$GPGGA,182636.00,4506.11314,N,06839.80467,W,1,08,0.97,36.6,M,-29.0,M,,*5D
$GPGSA,A,3,24,12,25,21,23,10,28,32,,,,,1.89,0.97,1.63*02
$GPGSV,3,1,12,02,09,328,,10,80,265,40,12,32,102,41,15,02,096,*7B
$GPGSV,3,2,12,21,18,313,19,23,51,150,40,24,34,054,35,25,25,144,32*7B
$GPGSV,3,3,12,28,26,222,27,32,55,292,38,46,12,248,,48,15,245,*74
$GPGLL,4506.11314,N,06839.80467,W,182636.00,A,A*7B
$RDENS,7891,5199434,PC
$RDENS,7892,5199513,PC
$GPRMC,182637.00,A,4506.11288,N,06839.80498,W,1.170,221.79,180924,,,A*77
$GPVTG,221.79,T,,M,1.170,N,2.167,K,A*37
$GPGGA,182637.00,4506.11288,N,06839.80498,W,1,08,0.97,36.4,M,-29.0,M,,*5A
$GPGSA,A,3,24,12,25,21,23,10,28,32,,,,,1.89,0.97,1.63*02
$GPGSV,3,1,12,02,09,328,,10,80,265,40,12,32,102,39,15,02,096,*74
$GPGSV,3,2,12,21,18,313,19,23,51,150,40,24,34,054,34,25,25,144,33*7B
$GPGSV,3,3,12,28,26,222,25,32,55,292,36,46,12,248,,48,15,245,*78
$GPGLL,4506.11288,N,06839.80498,W,182637.00,A,A*7E
$RDENS,7893,5199592,PC
$GPRMC,182638.00,A,4506.11263,N,06839.80530,W,1.148,222.37,180924,,,A*7C
$GPVTG,222.37,T,,M,1.148,N,2.126,K,A*30
$GPGGA,182638.00,4506.11263,N,06839.80530,W,1,08,0.97,36.1,M,-29.0,M,,*56
$GPGSA,A,3,24,12,25,21,23,10,28,32,,,,,1.89,0.97,1.63*02
$GPGSV,3,1,12,02,09,328,,10,80,265,40,12,32,102,39,15,02,096,*74
$GPGSV,3,2,12,21,18,313,17,23,51,150,39,24,34,054,34,25,25,144,32*7A
$GPGSV,3,3,12,28,26,222,23,32,55,292,38,46,12,248,,48,15,245,*70
$GPGLL,4506.11263,N,06839.80530,W,182638.00,A,A*77
$RDENS,7894,5199671,PC
$GPRMC,182639.00,A,4506.11238,N,06839.80560,W,1.150,220.93,180924,,,A*73
$GPVTG,220.93,T,,M,1.150,N,2.129,K,A*3A
$GPGGA,182639.00,4506.11238,N,06839.80560,W,1,08,0.97,35.7,M,-29.0,M,,*59
$GPGSA,A,3,24,12,25,21,23,10,28,32,,,,,1.89,0.97,1.63*02
$GPGSV,3,1,12,02,09,328,,10,80,265,40,12,32,102,40,15,02,096,*7A
$GPGSV,3,2,12,21,18,313,15,23,51,150,38,24,34,054,32,25,25,144,35*78
$GPGSV,3,3,12,28,26,222,20,32,55,292,37,46,12,248,,48,15,245,*7C
$GPGLL,4506.11238,N,06839.80560,W,182639.00,A,A*7D
$RDENS,7895,5199749,PC
$GPRMC,182640.00,A,4506.11214,N,06839.80585,W,1.009,219.70,180924,,,A*72
$GPVTG,219.70,T,,M,1.009,N,1.869,K,A*3E
$GPGGA,182640.00,4506.11214,N,06839.80585,W,1,08,0.97,35.6,M,-29.0,M,,*53
$GPGSA,A,3,24,12,25,21,23,10,28,32,,,,,1.89,0.97,1.63*02
$GPGSV,3,1,12,02,09,328,,10,80,265,40,12,32,102,38,15,02,096,*75
$GPGSV,3,2,12,21,18,313,15,23,51,150,38,24,34,054,35,25,25,144,36*7C
$GPGSV,3,3,12,28,26,222,22,32,56,292,39,46,12,248,,48,15,245,*73
$GPGLL,4506.11214,N,06839.80585,W,182640.00,A,A*76
$RDENS,7896,5199828,PC
$RDENS,7897,5199907,PC
$GPRMC,182641.00,A,4506.11190,N,06839.80609,W,0.983,217.58,180924,,,A*75
$GPVTG,217.58,T,,M,0.983,N,1.821,K,A*3C
$GPGGA,182641.00,4506.11190,N,06839.80609,W,1,07,1.26,35.4,M,-29.0,M,,*5C
$GPGSA,A,3,24,12,25,23,10,28,32,,,,,,2.61,1.26,2.28*03
$GPGSV,3,1,12,02,09,328,,10,80,265,37,12,32,102,34,15,02,096,*79
$GPGSV,3,2,12,21,18,313,,23,51,150,38,24,34,054,34,25,25,144,35*7A
$GPGSV,3,3,12,28,26,222,25,32,56,292,39,46,12,248,,48,15,245,*74
$GPGLL,4506.11190,N,06839.80609,W,182641.00,A,A*7F
$RDENS,7898,5199985,PC
$GPRMC,182642.00,A,4506.11167,N,06839.80629,W,0.978,217.56,180924,,,A*76
$GPVTG,217.56,T,,M,0.978,N,1.811,K,A*35
$GPGGA,182642.00,4506.11167,N,06839.80629,W,1,07,1.26,35.3,M,-29.0,M,,*52
$GPGSA,A,3,24,12,25,23,10,28,32,,,,,,2.61,1.26,2.28*03
$GPGSV,3,1,12,02,09,328,,10,80,265,38,12,32,102,35,15,02,096,*77
$GPGSV,3,2,12,21,18,313,,23,51,150,39,24,34,054,38,25,25,144,34*76
$GPGSV,3,3,12,28,26,222,27,32,56,292,39,46,12,248,,48,15,245,*76
$GPGLL,4506.11167,N,06839.80629,W,182642.00,A,A*76
$RDENS,7899,5200064,PC
$GPRMC,182643.00,A,4506.11148,N,06839.80644,W,0.870,219.02,180924,,,A*77
$GPVTG,219.02,T,,M,0.870,N,1.612,K,A*3E
$GPGGA,182643.00,4506.11148,N,06839.80644,W,1,07,1.26,35.2,M,-29.0,M,,*54
$GPGSA,A,3,24,12,25,23,10,28,32,,,,,,2.61,1.26,2.28*03
$GPGSV,3,1,12,02,09,328,,10,80,265,39,12,32,102,35,15,02,096,*76
$GPGSV,3,2,12,21,18,313,,23,51,150,40,24,34,054,37,25,25,144,33*70
$GPGSV,3,3,12,28,26,222,29,32,56,292,39,46,12,248,,48,15,245,*78
$GPGLL,4506.11148,N,06839.80644,W,182643.00,A,A*71
$RDENS,7900,5200143,PC
$RDENS,7901,5200221,PC
$GPRMC,182644.00,A,4506.11126,N,06839.80664,W,0.846,218.56,180924,,,A*7F
$GPVTG,218.56,T,,M,0.846,N,1.566,K,A*3B
$GPGGA,182644.00,4506.11126,N,06839.80664,W,1,07,1.26,35.1,M,-29.0,M,,*5A
$GPGSA,A,3,24,12,25,23,10,28,32,,,,,,2.61,1.26,2.28*03
$GPGSV,3,1,12,02,09,328,,10,80,265,38,12,32,102,35,15,02,096,*77
$GPGSV,3,2,12,21,18,313,,23,51,150,38,24,34,054,35,25,25,144,32*7C
$GPGSV,3,3,12,28,26,222,31,32,56,292,39,46,12,248,,48,15,245,*71
$GPGLL,4506.11126,N,06839.80664,W,182644.00,A,A*7C
$RDENS,7902,5200300,PC
$GPRMC,182645.00,A,4506.11107,N,06839.80683,W,0.861,217.21,180924,,,A*7E
$GPVTG,217.21,T,,M,0.861,N,1.595,K,A*3D
$GPGGA,182645.00,4506.11107,N,06839.80683,W,1,07,1.26,34.9,M,-29.0,M,,*58
$GPGSA,A,3,24,12,25,23,10,28,32,,,,,,2.61,1.26,2.28*03
$GPGSV,3,1,12,02,09,328,,10,80,265,39,12,32,102,38,15,02,096,*7B
$GPGSV,3,2,12,21,18,313,,23,51,150,35,24,34,054,35,25,25,144,32*71
$GPGSV,3,3,12,28,26,222,32,32,56,292,39,46,12,248,,48,15,245,*72
$GPGLL,4506.11107,N,06839.80683,W,182645.00,A,A*77
$RDENS,7903,5200378,PC
$GPRMC,182646.00,A,4506.11087,N,06839.80697,W,0.840,214.51,180924,,,A*76
$GPVTG,214.51,T,,M,0.840,N,1.556,K,A*35
$GPGGA,182646.00,4506.11087,N,06839.80697,W,1,07,1.26,34.8,M,-29.0,M,,*56
$GPGSA,A,3,24,12,25,23,10,28,32,,,,,,2.61,1.26,2.28*03
$GPGSV,3,1,12,02,09,328,,10,80,265,39,12,32,102,37,15,02,096,*74
$GPGSV,3,2,12,21,18,313,,23,51,150,33,24,34,054,36,25,25,144,32*74
$GPGSV,3,3,12,28,26,222,36,32,56,292,41,46,12,248,,48,15,245,*79
$GPGLL,4506.11087,N,06839.80697,W,182646.00,A,A*78
$RDENS,7904,5200457,PC
$GPRMC,182647.00,A,4506.11067,N,06839.80710,W,0.830,213.42,180924,,,A*75
$GPVTG,213.42,T,,M,0.830,N,1.538,K,A*3F
$GPGGA,182647.00,4506.11067,N,06839.80710,W,1,07,1.26,34.7,M,-29.0,M,,*58
$GPGSA,A,3,24,12,25,23,10,28,32,,,,,,2.61,1.26,2.28*03
$GPGSV,3,1,12,02,09,328,,10,80,265,39,12,32,102,39,15,02,096,*7A
$GPGSV,3,2,12,21,18,313,,23,51,150,33,24,34,054,39,25,25,144,25*7D
$GPGSV,3,3,12,28,26,222,39,32,56,292,41,46,12,248,,48,15,245,*76
$GPGLL,4506.11067,N,06839.80710,W,182647.00,A,A*79
$RDENS,7905,5200536,PC
$RDENS,7906,5200615,PC
$GPRMC,182648.00,A,4506.11047,N,06839.80723,W,0.869,214.20,180924,,,A*77
$GPVTG,214.20,T,,M,0.869,N,1.609,K,A*31
$GPGGA,182648.00,4506.11047,N,06839.80723,W,1,07,1.26,34.7,M,-29.0,M,,*55
$GPGSA,A,3,24,12,25,23,10,28,32,,,,,,2.61,1.26,2.28*03
$GPGSV,3,1,12,02,09,328,,10,80,265,39,12,32,102,37,15,02,096,*74
$GPGSV,3,2,12,21,18,313,,23,51,150,35,24,34,054,37,25,25,144,23*73
$GPGSV,3,3,12,28,26,222,39,32,56,292,41,46,12,248,,48,15,245,*76
$GPGLL,4506.11047,N,06839.80723,W,182648.00,A,A*74
$RDENS,7907,5200694,PC
$GPRMC,182649.00,A,4506.11028,N,06839.80734,W,0.749,212.22,180924,,,A*70
$GPVTG,212.22,T,,M,0.749,N,1.387,K,A*3B
$GPGGA,182649.00,4506.11028,N,06839.80734,W,1,07,1.26,34.7,M,-29.0,M,,*5B
$GPGSA,A,3,24,12,25,23,10,28,32,,,,,,2.61,1.26,2.28*03
$GPGSV,3,1,12,02,09,328,,10,80,265,37,12,32,102,36,15,02,096,*7B
$GPGSV,3,2,12,21,18,313,,23,51,150,35,24,34,054,37,25,25,144,23*73
$GPGSV,3,3,12,28,26,222,39,32,56,292,40,46,12,248,,48,15,245,*77
$GPGLL,4506.11028,N,06839.80734,W,182649.00,A,A*7A
$RDENS,7908,5200772,PC
$GPRMC,182650.00,A,4506.11008,N,06839.80746,W,0.760,210.95,180924,,,A*7A
$GPVTG,210.95,T,,M,0.760,N,1.407,K,A*31
$GPGGA,182650.00,4506.11008,N,06839.80746,W,1,07,1.26,34.7,M,-29.0,M,,*54
$GPGSA,A,3,24,12,25,23,10,28,32,,,,,,2.61,1.26,2.28*03
$GPGSV,3,1,12,02,09,328,,10,80,265,38,12,32,102,36,15,02,096,*74
$GPGSV,3,2,12,21,18,313,,23,51,150,35,24,34,054,37,25,25,144,26*76
$GPGSV,3,3,12,28,26,222,37,32,56,292,39,46,12,248,,48,15,245,*77
$GPGLL,4506.11008,N,06839.80746,W,182650.00,A,A*75
$RDENS,7909,5200851,PC
$GPRMC,182651.00,A,4506.10988,N,06839.80753,W,0.660,,180924,,,A*6F
$GPVTG,,T,,M,0.660,N,1.223,K,A*21
$GPGGA,182651.00,4506.10988,N,06839.80753,W,1,07,1.26,34.8,M,-29.0,M,,*5E
$GPGSA,A,3,24,12,25,23,10,28,32,,,,,,2.61,1.26,2.28*03
$GPGSV,3,1,12,02,09,328,,10,80,265,36,12,32,102,35,15,02,096,*79
$GPGSV,3,2,12,21,18,313,21,23,51,150,37,24,34,054,38,25,25,144,26*78
$GPGSV,3,3,12,28,26,222,35,32,56,292,39,46,12,248,,48,15,245,*75
$GPGLL,4506.10988,N,06839.80753,W,182651.00,A,A*70
$RDENS,7910,5200930,PC
$RDENS,7911,5201008,PC
$GPRMC,182652.00,A,4506.10969,N,06839.80757,W,0.674,207.53,180924,,,A*7F
$GPVTG,207.53,T,,M,0.674,N,1.248,K,A*34
$GPGGA,182652.00,4506.10969,N,06839.80757,W,1,07,1.26,34.9,M,-29.0,M,,*57
$GPGSA,A,3,24,12,25,23,10,28,32,,,,,,2.61,1.26,2.28*03
$GPGSV,3,1,12,02,09,328,,10,80,265,36,12,32,102,35,15,02,096,*79
$GPGSV,3,2,12,21,18,313,,23,51,150,37,24,34,054,36,25,25,144,26*75
$GPGSV,3,3,12,28,26,222,35,32,56,292,41,46,12,248,,48,15,245,*7A
$GPGLL,4506.10969,N,06839.80757,W,182652.00,A,A*78
$RDENS,7912,5201087,PC
$GPRMC,182653.00,A,4506.10948,N,06839.80760,W,0.792,196.79,180924,,,A*73
$GPVTG,196.79,T,,M,0.792,N,1.467,K,A*35
$GPGGA,182653.00,4506.10948,N,06839.80760,W,1,07,1.26,34.8,M,-29.0,M,,*50
$GPGSA,A,3,24,12,25,23,10,28,32,,,,,,2.61,1.26,2.28*03
$GPGSV,3,1,12,02,09,328,,10,80,265,34,12,32,102,34,15,02,096,*7A
$GPGSV,3,2,12,21,18,313,,23,51,150,37,24,34,054,36,25,25,144,24*77
$GPGSV,3,3,12,28,26,222,31,32,56,292,41,46,12,248,,48,15,245,*7E
$GPGLL,4506.10948,N,06839.80760,W,182653.00,A,A*7E
$RDENS,7913,5201166,PC
$GPRMC,182654.00,A,4506.10925,N,06839.80756,W,0.858,185.30,180924,,,A*7C
$GPVTG,185.30,T,,M,0.858,N,1.589,K,A*32
$GPGGA,182654.00,4506.10925,N,06839.80756,W,1,07,1.26,34.9,M,-29.0,M,,*58
$GPGSA,A,3,24,12,25,23,10,28,32,,,,,,2.61,1.26,2.28*03
$GPGSV,3,1,12,02,09,328,,10,80,265,33,12,32,102,32,15,02,096,*7B
$GPGSV,3,2,12,21,18,313,,23,51,150,40,24,34,054,38,25,25,144,25*78
$GPGSV,3,3,12,28,26,222,26,32,56,292,40,46,12,248,,48,15,245,*79
$GPGLL,4506.10925,N,06839.80756,W,182654.00,A,A*77
$RDENS,7914,5201244,PC
$RDENS,7915,5201323,PC
$GPRMC,182655.00,A,4506.10899,N,06839.80749,W,0.984,179.05,180924,,,A*70
$GPVTG,179.05,T,,M,0.984,N,1.823,K,A*3A
$GPGGA,182655.00,4506.10899,N,06839.80749,W,1,07,1.26,34.8,M,-29.0,M,,*50
$GPGSA,A,3,24,12,25,23,10,28,32,,,,,,2.61,1.26,2.28*03
$GPGSV,3,1,12,02,09,328,,10,80,265,35,12,32,102,34,15,02,096,*7B
$GPGSV,3,2,12,21,18,313,23,23,51,150,33,24,34,054,35,25,25,144,23*76
$GPGSV,3,3,12,28,26,222,25,32,56,292,40,46,12,248,,48,15,245,*7A
$GPGLL,4506.10899,N,06839.80749,W,182655.00,A,A*7E
$RDENS,7916,5201401,PC
$GPRMC,182656.00,A,4506.10877,N,06839.80735,W,0.934,168.45,180924,,,A*77
$GPVTG,168.45,T,,M,0.934,N,1.730,K,A*38
$GPGGA,182656.00,4506.10877,N,06839.80735,W,1,07,1.26,35.0,M,-29.0,M,,*51
$GPGSA,A,3,24,12,25,23,10,28,32,,,,,,2.61,1.26,2.28*03
$GPGSV,3,1,12,02,09,328,,10,80,265,32,12,32,102,34,15,02,096,*7C
$GPGSV,3,2,12,21,18,313,22,23,51,150,40,24,34,054,33,25,25,144,22*74
$GPGSV,3,3,12,28,26,222,27,32,56,292,40,46,12,248,,48,15,245,*78
$GPGLL,4506.10877,N,06839.80735,W,182656.00,A,A*76
$RDENS,7917,5201480,PC
$GPRMC,182657.00,A,4506.10852,N,06839.80716,W,1.104,159.22,180924,,,A*79
$GPVTG,159.22,T,,M,1.104,N,2.044,K,A*36
$GPGGA,182657.00,4506.10852,N,06839.80716,W,1,07,1.26,34.9,M,-29.0,M,,*5E
$GPGSA,A,3,24,12,25,23,10,28,32,,,,,,2.61,1.26,2.28*03
$GPGSV,3,1,12,02,09,328,,10,80,265,33,12,32,102,34,15,02,096,*7D
$GPGSV,3,2,12,21,18,313,19,23,51,150,40,24,34,054,36,25,25,144,21*7A
$GPGSV,3,3,12,28,26,222,28,32,56,292,41,46,12,248,,48,15,245,*76
$GPGLL,4506.10852,N,06839.80716,W,182657.00,A,A*71
$RDENS,7918,5201559,PC
$GPRMC,182658.00,A,4506.10825,N,06839.80694,W,1.331,154.50,180924,,,A*71
$GPVTG,154.50,T,,M,1.331,N,2.465,K,A*3D
$GPGGA,182658.00,4506.10825,N,06839.80694,W,1,08,0.97,34.7,M,-29.0,M,,*50
$GPGSA,A,3,24,12,25,21,23,10,28,32,,,,,1.90,0.97,1.63*0A
$GPGSV,3,1,12,02,09,328,,10,80,265,33,12,32,102,35,15,02,096,20*7E
$GPGSV,3,2,12,21,18,313,21,23,51,150,41,24,34,054,37,25,25,144,22*72
$GPGSV,3,3,12,28,26,222,29,32,56,292,40,46,12,248,,48,15,245,*76
$GPGLL,4506.10825,N,06839.80694,W,182658.00,A,A*75
$RDENS,7919,5201638,PC
$RDENS,7920,5201716,PC
$GPRMC,182659.00,A,4506.10794,N,06839.80667,W,1.405,152.65,180924,,,A*79
$GPVTG,152.65,T,,M,1.405,N,2.601,K,A*3D
$GPGGA,182659.00,4506.10794,N,06839.80667,W,1,08,0.97,34.7,M,-29.0,M,,*58
$GPGSA,A,3,24,12,25,21,23,10,28,32,,,,,1.90,0.97,1.63*0A
$GPGSV,3,1,12,02,09,328,,10,80,265,32,12,32,102,35,15,02,096,*7D
$GPGSV,3,2,12,21,18,313,22,23,51,150,41,24,34,054,37,25,25,144,21*72
$GPGSV,3,3,12,28,26,222,29,32,56,292,41,46,12,248,,48,15,245,*77
$GPGLL,4506.10794,N,06839.80667,W,182659.00,A,A*7D
$RDENS,7921,5201795,PC
$GPRMC,182700.00,A,4506.10762,N,06839.80638,W,1.461,150.39,180924,,,A*7E
$GPVTG,150.39,T,,M,1.461,N,2.706,K,A*32
$GPGGA,182700.00,4506.10762,N,06839.80638,W,1,08,0.97,34.5,M,-29.0,M,,*54
$GPGSA,A,3,24,12,25,21,23,10,28,32,,,,,1.90,0.97,1.63*0A
$GPGSV,3,1,12,02,09,328,,10,80,265,35,12,32,102,34,15,02,096,21*78
$GPGSV,3,2,12,21,18,313,21,23,51,150,40,24,34,054,36,25,25,144,20*70
$GPGSV,3,3,12,28,26,222,28,32,56,292,42,46,12,248,,48,15,245,*75
$GPGLL,4506.10762,N,06839.80638,W,182700.00,A,A*73
$RDENS,7922,5201874,PC
$GPRMC,182701.00,A,4506.10732,N,06839.80597,W,1.617,144.81,180924,,,A*79
$GPVTG,144.81,T,,M,1.617,N,2.994,K,A*32
$GPGGA,182701.00,4506.10732,N,06839.80597,W,1,08,0.97,34.5,M,-29.0,M,,*56
$GPGSA,A,3,24,12,25,21,23,10,28,32,,,,,1.90,0.97,1.63*0A
$GPGSV,3,1,12,02,09,328,,10,80,265,33,12,32,102,34,15,02,096,*7D
$GPGSV,3,2,12,21,18,313,20,23,51,150,40,24,34,054,37,25,25,144,17*74
$GPGSV,3,3,12,28,26,222,29,32,56,292,42,46,12,248,,48,15,245,*74
$GPGLL,4506.10732,N,06839.80597,W,182701.00,A,A*71
$RDENS,7923,5201952,PC
$GPRMC,182702.00,A,4506.10701,N,06839.80552,W,1.616,141.72,180924,,,A*7B
$GPVTG,141.72,T,,M,1.616,N,2.992,K,A*3C
$GPGGA,182702.00,4506.10701,N,06839.80552,W,1,08,0.97,34.5,M,-29.0,M,,*5C
$GPGSA,A,3,24,12,25,21,23,10,28,32,,,,,1.90,0.97,1.63*0A
$GPGSV,3,1,12,02,09,328,,10,80,263,32,12,32,102,33,15,02,096,*7D
$GPGSV,3,2,12,21,18,313,21,23,51,150,40,24,34,054,37,25,25,144,16*74
$GPGSV,3,3,12,28,26,222,29,32,56,292,41,46,12,248,,48,15,245,*77
$GPGLL,4506.10701,N,06839.80552,W,182702.00,A,A*7B
$RDENS,7924,5202031,PC
$RDENS,7925,5202110,PC
$GPRMC,182703.00,A,4506.10670,N,06839.80504,W,1.705,138.82,180924,,,A*7C
$GPVTG,138.82,T,,M,1.705,N,3.158,K,A*31
$GPGGA,182703.00,4506.10670,N,06839.80504,W,1,08,0.97,34.6,M,-29.0,M,,*5A
$GPGSA,A,3,24,12,25,21,23,10,28,32,,,,,1.90,0.97,1.63*0A
$GPGSV,3,1,12,02,09,328,,10,80,263,33,12,32,102,33,15,02,096,*7C
$GPGSV,3,2,12,21,18,313,24,23,51,150,40,24,34,054,38,25,25,144,18*70
$GPGSV,3,3,12,28,26,222,29,32,56,292,41,46,12,248,,48,15,245,*77
$GPGLL,4506.10670,N,06839.80504,W,182703.00,A,A*7E
$RDENS,7926,5202188,PC
$GPRMC,182704.00,A,4506.10636,N,06839.80453,W,1.818,137.11,180924,,,A*7C
$GPVTG,137.11,T,,M,1.818,N,3.367,K,A*39
$GPGGA,182704.00,4506.10636,N,06839.80453,W,1,08,0.97,34.5,M,-29.0,M,,*5F
$GPGSA,A,3,24,12,25,21,23,10,28,32,,,,,1.90,0.97,1.63*0A
$GPGSV,3,1,12,02,09,328,,10,80,263,32,12,32,102,34,15,02,096,*7A
$GPGSV,3,2,12,21,18,313,25,23,51,150,40,24,34,054,38,25,25,144,21*7B
$GPGSV,3,3,12,28,26,222,30,32,56,292,42,46,12,248,,48,15,245,*7C
$GPGLL,4506.10636,N,06839.80453,W,182704.00,A,A*78
$RDENS,7927,5202267,PC
$GPRMC,182705.00,A,4506.10602,N,06839.80398,W,1.818,136.37,180924,,,A*7F
$GPVTG,136.37,T,,M,1.818,N,3.367,K,A*3C
$GPGGA,182705.00,4506.10602,N,06839.80398,W,1,08,0.97,34.7,M,-29.0,M,,*5B
$GPGSA,A,3,24,12,25,21,23,10,28,32,,,,,1.90,0.97,1.63*0A
$GPGSV,3,1,12,02,09,328,,10,80,263,32,12,32,102,34,15,02,096,*7A
$GPGSV,3,2,12,21,18,313,25,23,51,150,40,24,34,054,38,25,25,144,23*79
$GPGSV,3,3,12,28,26,222,31,32,56,292,42,46,12,248,,48,15,245,*7D
$GPGLL,4506.10602,N,06839.80398,W,182705.00,A,A*7E
$RDENS,7928,5202345,PC
$GPRMC,182706.00,A,4506.10565,N,06839.80342,W,1.968,136.49,180924,,,A*76
$GPVTG,136.49,T,,M,1.968,N,3.644,K,A*37
$GPGGA,182706.00,4506.10565,N,06839.80342,W,1,08,0.97,34.7,M,-29.0,M,,*5D
$GPGSA,A,3,24,12,25,21,23,10,28,32,,,,,1.90,0.97,1.63*0A
$GPGSV,3,1,12,02,09,328,,10,80,263,32,12,32,102,34,15,02,096,*7A
$GPGSV,3,2,12,21,18,313,27,23,51,150,39,24,34,054,36,25,25,144,23*7B
$GPGSV,3,3,12,28,26,222,30,32,56,292,40,46,12,248,,48,15,245,*7E
$GPGLL,4506.10565,N,06839.80342,W,182706.00,A,A*78
$RDENS,7929,5202424,PC
$RDENS,7930,5202503,PC
$GPRMC,182707.00,A,4506.10528,N,06839.80287,W,1.966,136.16,180924,,,A*72
$GPVTG,136.16,T,,M,1.966,N,3.642,K,A*35
$GPGGA,182707.00,4506.10528,N,06839.80287,W,1,08,0.97,34.7,M,-29.0,M,,*5D
$GPGSA,A,3,24,12,25,21,23,10,28,32,,,,,1.90,0.97,1.63*0A
$GPGSV,3,1,12,02,09,328,,10,80,263,31,12,32,102,34,15,02,096,*79
$GPGSV,3,2,12,21,18,313,27,23,51,150,40,24,34,054,37,25,25,144,23*74
$GPGSV,3,3,12,28,26,222,31,32,56,292,41,46,12,248,,48,15,245,*7E
$GPGLL,4506.10528,N,06839.80287,W,182707.00,A,A*78
$RDENS,7931,5202582,PC
$GPRMC,182708.00,A,4506.10490,N,06839.80233,W,2.005,136.17,180924,,,A*7E
$GPVTG,136.17,T,,M,2.005,N,3.713,K,A*3E
$GPGGA,182708.00,4506.10490,N,06839.80233,W,1,08,0.97,34.7,M,-29.0,M,,*5F
$GPGSA,A,3,24,12,25,21,23,10,28,32,,,,,1.90,0.97,1.63*0A
$GPGSV,3,1,12,02,09,328,,10,80,263,31,12,32,102,34,15,02,096,*79
$GPGSV,3,2,12,21,18,313,26,23,51,150,40,24,34,054,37,25,25,144,23*75
$GPGSV,3,3,12,28,26,222,31,32,56,292,42,46,12,248,,48,15,245,*7D
$GPGLL,4506.10490,N,06839.80233,W,182708.00,A,A*7A
$RDENS,7932,5202660,PC
$GPRMC,182709.00,A,4506.10453,N,06839.80174,W,2.059,135.19,180924,,,A*74
$GPVTG,135.19,T,,M,2.059,N,3.814,K,A*32
$GPGGA,182709.00,4506.10453,N,06839.80174,W,1,08,0.97,34.7,M,-29.0,M,,*51
$GPGSA,A,3,24,12,25,21,23,10,28,32,,,,,1.90,0.97,1.63*0A
$GPGSV,3,1,12,02,09,328,,10,80,263,32,12,32,102,34,15,02,096,*7A
$GPGSV,3,2,12,21,18,313,25,23,51,150,40,24,34,054,37,25,25,144,24*71
$GPGSV,3,3,12,28,26,222,32,32,56,292,41,46,12,248,,48,15,245,*7D
$GPGLL,4506.10453,N,06839.80174,W,182709.00,A,A*74
$RDENS,7933,5202739,PC
$RDENS,7934,5202818,PC
$GPRMC,182710.00,A,4506.10414,N,06839.80116,W,2.038,135.40,180924,,,A*70
$GPVTG,135.40,T,,M,2.038,N,3.774,K,A*30
$GPGGA,182710.00,4506.10414,N,06839.80116,W,1,08,0.97,34.7,M,-29.0,M,,*5E
$GPGSA,A,3,24,12,25,21,23,10,28,32,,,,,1.90,0.97,1.63*0A
$GPGSV,3,1,12,02,09,328,,10,80,263,31,12,32,102,34,15,02,096,20*7B
$GPGSV,3,2,12,21,18,313,25,23,51,150,39,24,34,054,37,25,25,144,24*7F
$GPGSV,3,3,12,28,26,222,31,32,56,292,40,46,12,248,,48,15,245,*7F
$GPGLL,4506.10414,N,06839.80116,W,182710.00,A,A*7B
$RDENS,7935,5202897,PC
$GPRMC,182711.00,A,4506.10377,N,06839.80055,W,2.063,134.51,180924,,,A*7A
$GPVTG,134.51,T,,M,2.063,N,3.821,K,A*30
$GPGGA,182711.00,4506.10377,N,06839.80055,W,1,08,0.97,34.7,M,-29.0,M,,*5B
$GPGSA,A,3,24,12,25,21,23,10,28,32,,,,,1.90,0.97,1.63*0A
$GPGSV,3,1,12,02,09,328,,10,80,263,32,12,32,102,34,15,02,096,*7A
$GPGSV,3,2,12,21,18,313,25,23,51,150,40,24,34,054,37,25,25,144,23*76
$GPGSV,3,3,12,28,26,222,32,32,56,292,42,46,12,248,,48,15,245,*7E
$GPGLL,4506.10377,N,06839.80055,W,182711.00,A,A*7E
$RDENS,7936,5202976,PC
$GPRMC,182712.00,A,4506.10339,N,06839.79997,W,1.966,134.38,180924,,,A*72
$GPVTG,134.38,T,,M,1.966,N,3.641,K,A*38
$GPGGA,182712.00,4506.10339,N,06839.79997,W,1,08,0.97,34.7,M,-29.0,M,,*53
$GPGSA,A,3,24,12,25,21,23,10,28,32,,,,,1.90,0.97,1.63*0A
$GPGSV,3,1,12,02,09,328,,10,80,263,31,12,32,102,33,15,02,096,*7E
$GPGSV,3,2,12,21,18,313,26,23,51,150,39,24,34,054,37,25,25,144,24*7C
$GPGSV,3,3,12,28,26,222,32,32,56,292,42,46,12,248,,48,15,245,*7E
$GPGLL,4506.10339,N,06839.79997,W,182712.00,A,A*76
$RDENS,7937,5203054,PC
$GPRMC,182713.00,A,4506.10303,N,06839.79941,W,1.890,134.00,180924,,,A*72
$GPVTG,134.00,T,,M,1.890,N,3.500,K,A*3D
$GPGGA,182713.00,4506.10303,N,06839.79941,W,1,08,0.97,34.6,M,-29.0,M,,*51
$GPGSA,A,3,24,12,25,21,23,10,28,32,,,,,1.90,0.97,1.63*0A
$GPGSV,3,1,12,02,09,328,,10,80,263,32,12,32,102,32,15,02,096,*7C
$GPGSV,3,2,12,21,18,312,27,23,51,150,39,24,34,054,36,25,25,144,25*7C
$GPGSV,3,3,12,28,26,222,32,32,56,292,42,46,12,248,,48,15,245,*7E
$GPGLL,4506.10303,N,06839.79941,W,182713.00,A,A*75
$RDENS,7938,5203132,PC
$RDENS,7939,5203211,PC
$GPRMC,182714.00,A,4506.10267,N,06839.79886,W,1.895,133.70,180924,,,A*79
$GPVTG,133.70,T,,M,1.895,N,3.509,K,A*31
$GPGGA,182714.00,4506.10267,N,06839.79886,W,1,08,0.97,34.6,M,-29.0,M,,*5F
$GPGSA,A,3,24,12,25,21,23,10,28,32,,,,,1.90,0.97,1.63*0A
$GPGSV,3,1,12,02,09,328,,10,80,263,33,12,32,102,32,15,02,096,*7D
$GPGSV,3,2,12,21,18,312,28,23,51,150,39,24,34,054,36,25,25,144,24*72
$GPGSV,3,3,12,28,26,222,31,32,56,292,41,46,12,248,,48,15,245,*7E
$GPGLL,4506.10267,N,06839.79886,W,182714.00,A,A*7B
$RDENS,7940,5203290,PC
$GPRMC,182715.00,A,4506.10232,N,06839.79831,W,1.848,133.38,180924,,,A*78
$GPVTG,133.38,T,,M,1.848,N,3.423,K,A*34
$GPGGA,182715.00,4506.10232,N,06839.79831,W,1,08,0.97,34.5,M,-29.0,M,,*51
$GPGSA,A,3,24,12,25,21,23,10,28,32,,,,,1.90,0.97,1.63*0A
$GPGSV,3,1,12,02,09,328,21,10,80,263,34,12,32,102,32,15,02,096,*79
$GPGSV,3,2,12,21,18,312,28,23,51,150,39,24,34,054,37,25,25,144,24*73
$GPGSV,3,3,12,28,26,222,31,32,56,292,41,46,12,248,,48,15,245,*7E
$GPGLL,4506.10232,N,06839.79831,W,182715.00,A,A*76
$RDENS,7941,5203369,PC
$GPRMC,182716.00,A,4506.10198,N,06839.79777,W,1.807,133.90,180924,,,A*7C
$GPVTG,133.90,T,,M,1.807,N,3.346,K,A*39
$GPGGA,182716.00,4506.10198,N,06839.79777,W,1,08,0.97,34.5,M,-29.0,M,,*5C
$GPGSA,A,3,24,12,25,21,23,10,28,32,,,,,1.90,0.97,1.63*0A
$GPGSV,3,1,12,02,09,328,18,10,80,263,33,12,32,102,34,15,02,096,*72
$GPGSV,3,2,12,21,18,312,28,23,51,150,40,24,34,054,37,25,25,144,24*7D
$GPGSV,3,3,12,28,26,222,30,32,56,292,42,46,12,248,,48,15,245,*7C
$GPGLL,4506.10198,N,06839.79777,W,182716.00,A,A*7B
$RDENS,7942,5203447,PC
$GPRMC,182717.00,A,4506.10162,N,06839.79729,W,1.759,134.79,180924,,,A*77
$GPVTG,134.79,T,,M,1.759,N,3.257,K,A*3C
$GPGGA,182717.00,4506.10162,N,06839.79729,W,1,08,0.97,34.5,M,-29.0,M,,*53
$GPGSA,A,3,24,12,25,21,23,10,28,32,,,,,1.90,0.97,1.63*0A
$GPGSV,3,1,12,02,09,328,15,10,80,263,33,12,32,102,34,15,02,096,*7F
$GPGSV,3,2,12,21,18,312,27,23,51,150,40,24,34,054,37,25,26,144,23*76
$GPGSV,3,3,12,28,26,222,31,32,56,292,41,46,12,248,,48,15,245,*7E
$GPGLL,4506.10162,N,06839.79729,W,182717.00,A,A*74
$RDENS,7943,5203526,PC
$RDENS,7944,5203605,PC
$GPRMC,182718.00,A,4506.10129,N,06839.79679,W,1.768,135.44,180924,,,A*7E
$GPVTG,135.44,T,,M,1.768,N,3.274,K,A*30
$GPGGA,182718.00,4506.10129,N,06839.79679,W,1,08,0.97,34.5,M,-29.0,M,,*57
$GPGSA,A,3,24,12,25,21,23,10,28,32,,,,,1.90,0.97,1.63*0A
$GPGSV,3,1,12,02,09,328,,10,80,263,34,12,32,102,34,15,02,096,*7C
$GPGSV,3,2,12,21,18,312,26,23,51,150,40,24,34,054,37,25,26,144,23*77
$GPGSV,3,3,12,28,26,222,31,32,56,292,41,46,12,248,,48,15,245,*7E
$GPGLL,4506.10129,N,06839.79679,W,182718.00,A,A*70
$RDENS,7945,5203684,PC
$GPRMC,182719.00,A,4506.10095,N,06839.79634,W,1.722,135.90,180924,,,A*77
$GPVTG,135.90,T,,M,1.722,N,3.190,K,A*3E
$GPGGA,182719.00,4506.10095,N,06839.79634,W,1,08,0.97,34.4,M,-29.0,M,,*58
$GPGSA,A,3,24,12,25,21,23,10,28,32,,,,,1.90,0.97,1.63*0A
$GPGSV,3,1,12,02,09,328,15,10,80,263,32,12,32,102,34,15,02,096,*7E
$GPGSV,3,2,12,21,18,312,25,23,51,150,40,24,34,054,37,25,26,144,22*75
$GPGSV,3,3,12,28,26,222,31,32,56,292,41,46,12,248,,48,15,245,*7E
$GPGLL,4506.10095,N,06839.79634,W,182719.00,A,A*7E
$RDENS,7946,5203762,PC
$GPRMC,182720.00,A,4506.10064,N,06839.79587,W,1.707,136.23,180924,,,A*74
$GPVTG,136.23,T,,M,1.707,N,3.162,K,A*3F
$GPGGA,182720.00,4506.10064,N,06839.79587,W,1,08,0.97,34.5,M,-29.0,M,,*56
$GPGSA,A,3,24,12,25,21,23,10,28,32,,,,,1.90,0.97,1.63*0A
$GPGSV,3,1,12,02,09,328,13,10,80,263,35,12,32,102,35,15,02,096,24*78
$GPGSV,3,2,12,21,18,312,25,23,51,150,41,24,34,054,37,25,26,144,22*74
$GPGSV,3,3,12,28,26,222,31,32,56,292,42,46,12,248,,48,15,245,*7D
$GPGLL,4506.10064,N,06839.79587,W,182720.00,A,A*71
$RDENS,7947,5203840,PC
$RDENS,7948,5203919,PC
$GPRMC,182721.00,A,4506.10030,N,06839.79540,W,1.730,137.63,180924,,,A*7E
$GPVTG,137.63,T,,M,1.730,N,3.204,K,A*3D
$GPGGA,182721.00,4506.10030,N,06839.79540,W,1,08,0.97,34.5,M,-29.0,M,,*5D
$GPGSA,A,3,24,12,25,21,23,10,28,32,,,,,1.90,0.97,1.64*0D
$GPGSV,3,1,12,02,09,328,12,10,80,263,33,12,32,102,35,15,02,096,*79
$GPGSV,3,2,12,21,18,312,25,23,51,150,41,24,34,054,37,25,26,144,23*75
$GPGSV,3,3,12,28,26,222,31,32,56,292,42,46,12,248,,48,15,245,31*7F
$GPGLL,4506.10030,N,06839.79540,W,182721.00,A,A*7A
$RDENS,7949,5203998,PC
$GPRMC,182722.00,A,4506.09995,N,06839.79491,W,1.722,137.63,180924,,,A*7D
$GPVTG,137.63,T,,M,1.722,N,3.189,K,A*38
$GPGGA,182722.00,4506.09995,N,06839.79491,W,1,08,0.97,34.6,M,-29.0,M,,*5E
$GPGSA,A,3,24,12,25,21,23,10,28,32,,,,,1.90,0.97,1.64*0D
$GPGSV,3,1,12,02,09,328,14,10,80,263,32,12,32,102,35,15,02,096,*7E
$GPGSV,3,2,12,21,18,312,26,23,51,150,40,24,34,054,37,25,26,144,24*70
$GPGSV,3,3,12,28,26,222,32,32,56,292,43,46,12,248,,48,15,245,31*7D
$GPGLL,4506.09995,N,06839.79491,W,182722.00,A,A*7A
$RDENS,7950,5204077,PC
$GPRMC,182723.00,A,4506.09959,N,06839.79441,W,1.830,137.87,180924,,,A*77
$GPVTG,137.87,T,,M,1.830,N,3.389,K,A*3C
$GPGGA,182723.00,4506.09959,N,06839.79441,W,1,08,0.97,34.7,M,-29.0,M,,*53
$GPGSA,A,3,24,12,25,21,23,10,28,32,,,,,1.90,0.97,1.64*0D
$GPGSV,3,1,12,02,09,328,15,10,80,263,33,12,32,102,34,15,02,096,*7F
$GPGSV,3,2,12,21,18,312,26,23,51,150,41,24,34,054,37,25,26,144,25*70
$GPGSV,3,3,12,28,26,222,31,32,56,292,43,46,12,248,,48,15,245,33*7C
$GPGLL,4506.09959,N,06839.79441,W,182723.00,A,A*76
$RDENS,7951,5204155,PC
$GPRMC,182724.00,A,4506.09924,N,06839.79391,W,1.873,136.49,180924,,,A*74
$GPVTG,136.49,T,,M,1.873,N,3.469,K,A*31
$GPGGA,182724.00,4506.09924,N,06839.79391,W,1,08,0.97,34.7,M,-29.0,M,,*54
$GPGSA,A,3,24,12,25,21,23,10,28,32,,,,,1.90,0.97,1.64*0D
$GPGSV,3,1,12,02,09,328,,10,80,263,33,12,32,102,31,15,02,096,*7E
$GPGSV,3,2,12,21,18,312,27,23,51,150,41,24,34,054,37,25,26,144,26*72
$GPGSV,3,3,12,28,26,222,31,32,56,292,43,46,12,248,,48,15,245,32*7D
$GPGLL,4506.09924,N,06839.79391,W,182724.00,A,A*71
$RDENS,7952,5204233,PC
$RDENS,7953,5204312,PC
$GPRMC,182725.00,A,4506.09890,N,06839.79337,W,1.895,134.55,180924,,,A*70
$GPVTG,134.55,T,,M,1.895,N,3.509,K,A*31
$GPGGA,182725.00,4506.09890,N,06839.79337,W,1,08,0.97,34.7,M,-29.0,M,,*57
$GPGSA,A,3,24,12,25,21,23,10,28,32,,,,,1.90,0.97,1.64*0D
$GPGSV,3,1,12,02,09,328,,10,80,263,32,12,32,102,32,15,02,096,*7C
$GPGSV,3,2,12,21,18,312,27,23,51,150,39,24,34,054,37,25,26,144,27*7C
$GPGSV,3,3,12,28,26,222,31,32,56,292,41,46,12,248,,48,15,245,32*7F
$GPGLL,4506.09890,N,06839.79337,W,182725.00,A,A*72
$RDENS,7954,5204391,PC
$GPRMC,182726.00,A,4506.09856,N,06839.79280,W,1.972,132.66,180924,,,A*7A
$GPVTG,132.66,T,,M,1.972,N,3.653,K,A*33
$GPGGA,182726.00,4506.09856,N,06839.79280,W,1,08,0.97,34.6,M,-29.0,M,,*52
$GPGSA,A,3,24,12,25,21,23,10,28,32,,,,,1.90,0.97,1.64*0D
$GPGSV,3,1,12,02,09,328,,10,80,263,33,12,32,102,32,15,02,096,*7D
$GPGSV,3,2,12,21,18,312,27,23,51,150,39,24,34,054,35,25,26,144,27*7E
$GPGSV,3,3,12,28,26,222,32,32,56,292,42,46,12,248,,48,15,245,33*7E
$GPGLL,4506.09856,N,06839.79280,W,182726.00,A,A*76
$RDENS,7955,5204470,PC
$GPRMC,182727.00,A,4506.09822,N,06839.79219,W,1.988,130.70,180924,,,A*78
$GPVTG,130.70,T,,M,1.988,N,3.681,K,A*3C
$GPGGA,182727.00,4506.09822,N,06839.79219,W,1,08,0.97,34.6,M,-29.0,M,,*50
$GPGSA,A,3,24,12,25,21,23,10,28,32,,,,,1.90,0.97,1.64*0D
$GPGSV,3,1,12,02,09,328,,10,80,263,34,12,32,102,32,15,02,096,*7A
$GPGSV,3,2,12,21,18,312,27,23,51,150,39,24,34,054,35,25,26,144,27*7E
$GPGSV,3,3,12,28,26,222,33,32,56,292,42,46,12,248,,48,15,245,34*78
$GPGLL,4506.09822,N,06839.79219,W,182727.00,A,A*74
$RDENS,7956,5204549,PC
$GPRMC,182728.00,A,4506.09786,N,06839.79157,W,2.037,129.40,180924,,,A*7A
$GPVTG,129.40,T,,M,2.037,N,3.772,K,A*34
$GPGGA,182728.00,4506.09786,N,06839.79157,W,1,08,0.97,34.6,M,-29.0,M,,*57
$GPGSA,A,3,24,12,25,21,23,10,28,32,,,,,1.90,0.97,1.64*0D
$GPGSV,3,1,12,02,09,328,,10,80,263,34,12,32,102,31,15,02,096,*79
$GPGSV,3,2,12,21,18,312,29,23,51,150,39,24,34,054,36,25,26,144,27*73
$GPGSV,3,3,12,28,26,222,32,32,56,292,42,46,12,248,,48,15,245,34*79
$GPGLL,4506.09786,N,06839.79157,W,182728.00,A,A*73
$RDENS,7957,5204627,PC
$RDENS,7958,5204706,PC
$GPRMC,182729.00,A,4506.09752,N,06839.79092,W,2.048,128.32,180924,,,A*76
$GPVTG,128.32,T,,M,2.048,N,3.793,K,A*37
$GPGGA,182729.00,4506.09752,N,06839.79092,W,1,08,0.97,34.5,M,-29.0,M,,*54
$GPGSA,A,3,24,12,25,21,23,10,28,32,,,,,1.90,0.97,1.64*0D
$GPGSV,3,1,12,02,09,328,,10,80,263,34,12,32,102,31,15,02,096,*79
$GPGSV,3,2,12,21,18,312,30,23,51,150,39,24,34,054,36,25,26,144,27*7B
$GPGSV,3,3,12,28,26,222,32,32,56,292,42,46,12,248,,48,15,245,34*79
$GPGLL,4506.09752,N,06839.79092,W,182729.00,A,A*73
$RDENS,7959,5204785,PC
$GPRMC,182730.00,A,4506.09719,N,06839.79025,W,2.057,127.87,180924,,,A*72
$GPVTG,127.87,T,,M,2.057,N,3.810,K,A*3C
$GPGGA,182730.00,4506.09719,N,06839.79025,W,1,07,1.26,34.4,M,-29.0,M,,*5A
$GPGSA,A,3,24,12,25,23,10,28,32,,,,,,2.61,1.26,2.29*02
$GPGSV,3,1,12,02,09,328,,10,80,263,33,12,32,102,30,15,02,096,*7F
$GPGSV,3,2,12,21,18,312,24,23,51,150,39,24,34,054,36,25,26,144,27*7E
$GPGSV,3,3,12,28,26,222,32,32,56,292,42,46,12,248,,48,15,245,34*79
$GPGLL,4506.09719,N,06839.79025,W,182730.00,A,A*78
$RDENS,7960,5204863,PC
$GPRMC,182731.00,A,4506.09684,N,06839.78959,W,2.048,127.14,180924,,,A*71
$GPVTG,127.14,T,,M,2.048,N,3.793,K,A*3C
$GPGGA,182731.00,4506.09684,N,06839.78959,W,1,07,1.26,34.4,M,-29.0,M,,*5D
$GPGSA,A,3,24,12,25,23,10,28,32,,,,,,2.61,1.26,2.29*02
$GPGSV,3,1,12,02,09,328,,10,80,263,33,12,32,102,31,15,02,096,*7E
$GPGSV,3,2,12,21,18,312,22,23,51,150,39,24,34,054,36,25,26,144,26*79
$GPGSV,3,3,12,28,26,222,33,32,56,292,42,46,12,248,,48,15,245,34*78
$GPGLL,4506.09684,N,06839.78959,W,182731.00,A,A*7F
$RDENS,7961,5204942,PC
$RDENS,7962,5205021,PC
$GPRMC,182732.00,A,4506.09650,N,06839.78892,W,2.117,126.48,180924,,,A*7E
$GPVTG,126.48,T,,M,2.117,N,3.921,K,A*38
$GPGGA,182732.00,4506.09650,N,06839.78892,W,1,08,0.97,34.4,M,-29.0,M,,*55
$GPGSA,A,3,24,12,25,21,23,10,28,32,,,,,1.90,0.97,1.64*0D
$GPGSV,3,1,12,02,09,328,,10,80,263,33,12,32,102,31,15,02,096,*7E
$GPGSV,3,2,12,21,18,312,26,23,51,150,39,24,34,054,36,25,26,144,27*7C
$GPGSV,3,3,12,28,26,222,32,32,56,292,42,46,12,248,,48,15,245,34*79
$GPGLL,4506.09650,N,06839.78892,W,182732.00,A,A*73
$RDENS,7963,5205099,PC
$GPRMC,182733.00,A,4506.09617,N,06839.78826,W,2.087,126.43,180924,,,A*70
$GPVTG,126.43,T,,M,2.087,N,3.866,K,A*39
$GPGGA,182733.00,4506.09617,N,06839.78826,W,1,08,0.97,34.2,M,-29.0,M,,*5E
$GPGSA,A,3,24,12,25,21,23,10,28,32,,,,,1.90,0.97,1.64*0D
$GPGSV,3,1,12,02,09,328,,10,80,263,32,12,32,102,32,15,02,096,*7C
$GPGSV,3,2,12,21,18,312,30,23,51,150,39,24,34,054,36,25,26,144,27*7B
$GPGSV,3,3,12,28,26,222,32,32,56,292,42,46,12,248,,48,15,245,33*7E
$GPGLL,4506.09617,N,06839.78826,W,182733.00,A,A*7E
$RDENS,7964,5205178,PC
$GPRMC,182734.00,A,4506.09584,N,06839.78759,W,2.088,126.06,180924,,,A*77
$GPVTG,126.06,T,,M,2.088,N,3.866,K,A*37
$GPGGA,182734.00,4506.09584,N,06839.78759,W,1,08,0.97,34.2,M,-29.0,M,,*57
$GPGSA,A,3,24,12,25,21,23,10,28,32,,,,,1.90,0.97,1.64*0D
$GPGSV,3,1,12,02,09,328,22,10,80,263,33,12,32,102,31,15,02,096,*7E
$GPGSV,3,2,12,21,18,312,30,23,51,150,39,24,34,054,36,25,26,144,27*7B
$GPGSV,3,3,12,28,26,222,32,32,56,292,42,46,12,248,,48,15,245,34*79
$GPGLL,4506.09584,N,06839.78759,W,182734.00,A,A*77
$RDENS,7965,5205256,PC
$GPRMC,182735.00,A,4506.09550,N,06839.78689,W,2.088,126.40,180924,,,A*71
$GPVTG,126.40,T,,M,2.088,N,3.867,K,A*34
$GPGGA,182735.00,4506.09550,N,06839.78689,W,1,08,0.97,34.2,M,-29.0,M,,*53
$GPGSA,A,3,24,12,25,21,23,10,28,32,,,,,1.90,0.97,1.64*0D
$GPGSV,3,1,12,02,09,328,22,10,80,263,33,12,32,102,31,15,02,096,*7E
$GPGSV,3,2,12,21,18,312,29,23,51,150,38,24,34,054,35,25,26,144,27*71
$GPGSV,3,3,12,28,26,222,32,32,56,292,42,46,12,248,,48,15,245,34*79
$GPGLL,4506.09550,N,06839.78689,W,182735.00,A,A*73
$RDENS,7966,5205335,PC
$RDENS,7967,5205414,PC
$GPRMC,182736.00,A,4506.09517,N,06839.78618,W,2.110,125.27,180924,,,A*7B
$GPVTG,125.27,T,,M,2.110,N,3.907,K,A*31
$GPGGA,182736.00,4506.09517,N,06839.78618,W,1,08,0.97,34.2,M,-29.0,M,,*5B
$GPGSA,A,3,24,12,25,21,23,10,28,32,,,,,1.90,0.97,1.64*0D
$GPGSV,3,1,12,02,09,328,22,10,80,263,33,12,32,102,30,15,02,096,*7F
$GPGSV,3,2,12,21,18,312,29,23,51,150,38,24,34,054,35,25,26,144,26*70
$GPGSV,3,3,12,28,26,222,31,32,56,292,41,46,12,248,,48,15,245,34*79
$GPGLL,4506.09517,N,06839.78618,W,182736.00,A,A*7B
$RDENS,7968,5205492,PC
$GPRMC,182737.00,A,4506.09483,N,06839.78546,W,2.127,124.53,180924,,,A*78
$GPVTG,124.53,T,,M,2.127,N,3.939,K,A*3A
$GPGGA,182737.00,4506.09483,N,06839.78546,W,1,08,0.97,34.2,M,-29.0,M,,*5E
$GPGSA,A,3,24,12,25,21,23,10,28,32,,,,,1.90,0.97,1.64*0D
$GPGSV,3,1,12,02,09,328,20,10,80,263,33,12,32,102,29,15,02,096,*75
$GPGSV,3,2,12,21,18,312,30,23,51,150,38,24,34,054,35,25,26,144,26*78
$GPGSV,3,3,12,28,26,222,29,32,56,292,41,46,12,248,,48,15,245,35*71
$GPGLL,4506.09483,N,06839.78546,W,182737.00,A,A*7E
$RDENS,7969,5205571,PC
$GPRMC,182738.00,A,4506.09452,N,06839.78474,W,2.091,123.35,180924,,,A*70
$GPVTG,123.35,T,,M,2.091,N,3.873,K,A*3E
$GPGGA,182738.00,4506.09452,N,06839.78474,W,1,08,0.97,34.1,M,-29.0,M,,*5E
$GPGSA,A,3,24,12,25,21,23,10,28,32,,,,,1.90,0.97,1.64*0D
$GPGSV,3,1,12,02,09,327,18,10,80,263,34,12,32,102,29,15,02,096,*76
$GPGSV,3,2,12,21,18,312,30,23,51,150,37,24,34,054,34,25,26,144,25*75
$GPGSV,3,3,12,28,26,222,29,32,56,292,42,46,12,248,,48,15,245,34*73
$GPGLL,4506.09452,N,06839.78474,W,182738.00,A,A*7D
$RDENS,7970,5205650,PC
$GPRMC,182739.00,A,4506.09422,N,06839.78403,W,2.074,122.38,180924,,,A*71
$GPVTG,122.38,T,,M,2.074,N,3.841,K,A*38
$GPGGA,182739.00,4506.09422,N,06839.78403,W,1,08,0.97,34.1,M,-29.0,M,,*58
$GPGSA,A,3,24,12,25,21,23,10,28,32,,,,,1.90,0.97,1.64*0D
$GPGSV,3,1,12,02,09,327,16,10,80,263,34,12,32,102,29,15,02,096,*78
$GPGSV,3,2,12,21,18,312,30,23,51,150,38,24,34,054,34,25,26,144,25*7A
$GPGSV,3,3,12,28,26,222,28,32,56,292,40,46,12,248,,48,15,245,34*70
$GPGLL,4506.09422,N,06839.78403,W,182739.00,A,A*7B
$RDENS,7971,5205729,PC
$RDENS,7972,5205808,PC
$GPRMC,182740.00,A,4506.09392,N,06839.78331,W,2.098,122.10,180924,,,A*7D
$GPVTG,122.10,T,,M,2.098,N,3.886,K,A*3B
$GPGGA,182740.00,4506.09392,N,06839.78331,W,1,08,0.97,34.0,M,-29.0,M,,*5D
$GPGSA,A,3,24,12,25,21,23,10,28,32,,,,,1.91,0.97,1.64*0C
$GPGSV,3,1,12,02,09,327,15,10,80,263,34,12,32,102,29,15,02,096,*7B
$GPGSV,3,2,12,21,18,312,30,23,51,150,37,24,34,054,34,25,26,144,25*75
$GPGSV,3,3,12,28,26,222,28,32,56,292,40,46,12,248,,48,15,245,34*70
$GPGLL,4506.09392,N,06839.78331,W,182740.00,A,A*7F
$RDENS,7973,5205886,PC
$GPRMC,182741.00,A,4506.09362,N,06839.78260,W,2.093,121.45,180924,,,A*7E
$GPVTG,121.45,T,,M,2.093,N,3.877,K,A*3D
$GPGGA,182741.00,4506.09362,N,06839.78260,W,1,08,0.97,33.9,M,-29.0,M,,*58
$GPGSA,A,3,24,12,25,21,23,10,28,32,,,,,1.91,0.97,1.64*0C
$GPGSV,3,1,12,02,09,327,15,10,80,263,35,12,32,102,29,15,02,096,*7A
$GPGSV,3,2,12,21,18,312,29,23,51,150,37,24,34,054,35,25,26,144,25*7C
$GPGSV,3,3,12,28,26,222,27,32,56,292,41,46,12,248,,48,15,245,33*79
$GPGLL,4506.09362,N,06839.78260,W,182741.00,A,A*74
$RDENS,7974,5205965,PC
$GPRMC,182742.00,A,4506.09334,N,06839.78189,W,2.080,121.18,180924,,,A*70
$GPVTG,121.18,T,,M,2.080,N,3.852,K,A*30
$GPGGA,182742.00,4506.09334,N,06839.78189,W,1,08,0.97,33.8,M,-29.0,M,,*5D
$GPGSA,A,3,24,12,25,21,23,10,28,32,,,,,1.91,0.97,1.64*0C
$GPGSV,3,1,12,02,09,327,15,10,80,263,35,12,32,102,29,15,02,096,*7A
$GPGSV,3,2,12,21,18,312,29,23,51,150,38,24,34,054,35,25,26,144,25*73
$GPGSV,3,3,12,28,26,222,27,32,56,292,41,46,12,248,,48,15,245,33*79
$GPGLL,4506.09334,N,06839.78189,W,182742.00,A,A*70
$RDENS,7975,5206043,PC
$RDENS,7976,5206122,PC
$GPRMC,182743.00,A,4506.09304,N,06839.78116,W,2.098,120.96,180924,,,A*7A
$GPVTG,120.96,T,,M,2.098,N,3.886,K,A*37
$GPGGA,182743.00,4506.09304,N,06839.78116,W,1,08,0.97,33.8,M,-29.0,M,,*59
$GPGSA,A,3,24,12,25,21,23,10,28,32,,,,,1.91,0.97,1.64*0C
$GPGSV,3,1,12,02,09,327,15,10,80,263,35,12,32,102,29,15,02,096,*7A
$GPGSV,3,2,12,21,18,312,31,23,51,150,37,24,34,054,35,25,26,144,25*75
$GPGSV,3,3,12,28,26,222,27,32,56,292,42,46,12,248,,48,15,245,33*7A
$GPGLL,4506.09304,N,06839.78116,W,182743.00,A,A*74
$RDENS,7977,5206201,PC
$GPRMC,182744.00,A,4506.09273,N,06839.78042,W,2.136,121.20,180924,,,A*75
$GPVTG,121.20,T,,M,2.136,N,3.955,K,A*31
$GPGGA,182744.00,4506.09273,N,06839.78042,W,1,08,0.97,33.7,M,-29.0,M,,*50
$GPGSA,A,3,24,12,25,21,23,10,28,32,,,,,1.91,0.97,1.64*0C
$GPGSV,3,1,12,02,09,327,14,10,80,263,34,12,32,102,29,15,02,096,*7A
$GPGSV,3,2,12,21,18,312,31,23,51,150,38,24,34,054,35,25,26,144,25*7A
$GPGSV,3,3,12,28,26,222,27,32,56,292,42,46,12,248,,48,15,245,34*7D
$GPGLL,4506.09273,N,06839.78042,W,182744.00,A,A*72
$RDENS,7978,5206280,PC
$GPRMC,182745.00,A,4506.09243,N,06839.77970,W,2.110,121.70,180924,,,A*71
$GPVTG,121.70,T,,M,2.110,N,3.908,K,A*38
$GPGGA,182745.00,4506.09243,N,06839.77970,W,1,08,0.97,33.7,M,-29.0,M,,*55
$GPGSA,A,3,24,12,25,21,23,10,28,32,,,,,1.91,0.97,1.64*0C
$GPGSV,3,1,12,02,09,327,13,10,80,263,34,12,32,102,29,15,02,096,*7D
$GPGSV,3,2,12,21,18,312,30,23,51,150,38,24,34,054,35,25,26,144,25*7B
$GPGSV,3,3,12,28,26,222,28,32,56,292,42,46,12,248,,48,15,245,35*73
$GPGLL,4506.09243,N,06839.77970,W,182745.00,A,A*77
$RDENS,7979,5206359,PC
$GPRMC,182746.00,A,4506.09212,N,06839.77899,W,2.075,121.39,180924,,,A*7F
$GPVTG,121.39,T,,M,2.075,N,3.843,K,A*39
$GPGGA,182746.00,4506.09212,N,06839.77899,W,1,08,0.97,33.7,M,-29.0,M,,*54
$GPGSA,A,3,24,12,25,21,23,10,28,32,,,,,1.91,0.97,1.64*0C
$GPGSV,3,1,12,02,09,327,12,10,80,260,34,12,32,102,30,15,02,096,*77
$GPGSV,3,2,12,21,18,312,29,23,51,150,38,24,34,054,35,25,26,144,25*73
$GPGSV,3,3,12,28,26,222,29,32,56,292,42,46,12,248,,48,15,245,35*72
$GPGLL,4506.09212,N,06839.77899,W,182746.00,A,A*76
$RDENS,7980,5206437,PC
$RDENS,7981,5206516,PC
$GPRMC,182747.00,A,4506.09182,N,06839.77826,W,2.121,121.67,180924,,,A*7B
$GPVTG,121.67,T,,M,2.121,N,3.928,K,A*3E
$GPGGA,182747.00,4506.09182,N,06839.77826,W,1,08,0.97,33.6,M,-29.0,M,,*5A
$GPGSA,A,3,24,12,25,21,23,10,28,32,,,,,1.91,0.97,1.64*0C
$GPGSV,3,1,12,02,09,327,13,10,80,260,33,12,32,102,29,15,02,096,*79
$GPGSV,3,2,12,21,18,312,30,23,51,150,38,24,34,054,35,25,26,144,25*7B
$GPGSV,3,3,12,28,26,222,29,32,56,292,41,46,12,248,,48,15,245,34*70
$GPGLL,4506.09182,N,06839.77826,W,182747.00,A,A*79
$RDENS,7982,5206594,PC
$GPRMC,182748.00,A,4506.09150,N,06839.77756,W,2.048,122.10,180924,,,A*7E
$GPVTG,122.10,T,,M,2.048,N,3.793,K,A*3D
$GPGGA,182748.00,4506.09150,N,06839.77756,W,1,08,0.97,33.6,M,-29.0,M,,*52
$GPGSA,A,3,24,12,25,21,23,10,28,32,,,,,1.91,0.97,1.64*0C
$GPGSV,3,1,12,02,09,327,16,10,80,260,34,12,32,101,29,15,02,096,*78
$GPGSV,3,2,12,21,18,312,31,23,51,150,38,24,34,054,35,25,26,144,25*7A
$GPGSV,3,3,12,28,26,222,29,32,56,292,41,46,12,248,,48,15,245,34*70
$GPGLL,4506.09150,N,06839.77756,W,182748.00,A,A*71
$RDENS,7983,5206672,PC
$GPRMC,182749.00,A,4506.09118,N,06839.77684,W,2.077,122.72,180924,,,A*75
$GPVTG,122.72,T,,M,2.077,N,3.847,K,A*33
$GPGGA,182749.00,4506.09118,N,06839.77684,W,1,08,0.97,33.7,M,-29.0,M,,*50
$GPGSA,A,3,24,12,25,21,23,10,28,32,,,,,1.91,0.97,1.64*0C
$GPGSV,3,1,12,02,09,327,16,10,80,260,34,12,32,101,29,15,02,096,*78
$GPGSV,3,2,12,21,18,312,32,23,51,150,38,24,34,054,35,25,26,144,25*79
$GPGSV,3,3,12,28,26,222,28,32,56,292,41,46,12,248,,48,15,245,34*71
$GPGLL,4506.09118,N,06839.77684,W,182749.00,A,A*72
$RDENS,7984,5206752,PC
$GPRMC,182750.00,A,4506.09086,N,06839.77612,W,2.054,122.38,180924,,,A*7B
$GPVTG,122.38,T,,M,2.054,N,3.804,K,A*3B
$GPGGA,182750.00,4506.09086,N,06839.77612,W,1,08,0.97,33.7,M,-29.0,M,,*51
$GPGSA,A,3,24,12,25,21,23,10,28,32,,,,,1.91,0.97,1.64*0C
$GPGSV,3,1,12,02,09,327,12,10,80,260,34,12,32,101,29,15,02,096,*7C
$GPGSV,3,2,12,21,18,312,32,23,51,150,37,24,34,054,35,25,26,144,25*76
$GPGSV,3,3,12,28,26,222,27,32,56,292,41,46,12,248,,48,15,245,34*7E
$GPGLL,4506.09086,N,06839.77612,W,182750.00,A,A*73
$RDENS,7985,5206830,PC
$RDENS,7986,5206909,PC
$GPRMC,182751.00,A,4506.09056,N,06839.77542,W,2.074,122.48,180924,,,A*74
$GPVTG,122.48,T,,M,2.074,N,3.841,K,A*3F
$GPGGA,182751.00,4506.09056,N,06839.77542,W,1,08,0.97,33.7,M,-29.0,M,,*5B
$GPGSA,A,3,24,12,25,21,23,10,28,32,,,,,1.91,0.97,1.64*0C
$GPGSV,3,1,12,02,09,327,13,10,80,260,34,12,32,101,29,15,02,096,20*7F
$GPGSV,3,2,12,21,18,312,32,23,51,150,36,24,34,054,35,25,26,144,25*77
$GPGSV,3,3,12,28,26,222,27,32,56,292,42,46,12,248,,48,15,245,34*7D
$GPGLL,4506.09056,N,06839.77542,W,182751.00,A,A*79
$RDENS,7987,5206988,PC
$GPRMC,182752.00,A,4506.09026,N,06839.77475,W,2.061,123.19,180924,,,A*74
$GPVTG,123.19,T,,M,2.061,N,3.816,K,A*3C
$GPGGA,182752.00,4506.09026,N,06839.77475,W,1,08,0.97,33.7,M,-29.0,M,,*5A
$GPGSA,A,3,24,12,25,21,23,10,28,32,,,,,1.91,0.97,1.64*0C
$GPGSV,3,1,12,02,09,327,15,10,80,260,35,12,32,101,29,15,02,096,*7A
$GPGSV,3,2,12,21,18,312,32,23,51,150,37,24,34,054,35,25,26,144,25*76
$GPGSV,3,3,12,28,26,222,27,32,56,292,42,46,12,248,,48,15,245,34*7D
$GPGLL,4506.09026,N,06839.77475,W,182752.00,A,A*78
$RDENS,7988,5207066,PC
$GPRMC,182753.00,A,4506.08993,N,06839.77406,W,2.092,123.88,180924,,,A*73
$GPVTG,123.88,T,,M,2.092,N,3.875,K,A*3D
$GPGGA,182753.00,4506.08993,N,06839.77406,W,1,08,0.97,33.7,M,-29.0,M,,*59
$GPGSA,A,3,24,12,25,21,23,10,28,32,,,,,1.91,0.97,1.64*0C
$GPGSV,3,1,12,02,09,327,13,10,80,260,34,12,32,101,29,15,02,096,*7D
$GPGSV,3,2,12,21,18,312,32,23,51,150,37,24,34,054,35,25,26,144,24*77
$GPGSV,3,3,12,28,26,222,28,32,56,292,42,46,12,248,,48,15,245,34*72
$GPGLL,4506.08993,N,06839.77406,W,182753.00,A,A*7B
$RDENS,7989,5207145,PC
$RDENS,7990,5207223,PC
$GPRMC,182754.00,A,4506.08959,N,06839.77339,W,2.087,124.56,180924,,,A*79
$GPVTG,124.56,T,,M,2.087,N,3.866,K,A*3F
$GPGGA,182754.00,4506.08959,N,06839.77339,W,1,08,0.97,33.7,M,-29.0,M,,*53
$GPGSA,A,3,24,12,25,21,23,10,28,32,,,,,1.91,0.97,1.64*0C
$GPGSV,3,1,12,02,09,327,13,10,80,260,34,12,32,101,30,15,02,096,*75
$GPGSV,3,2,12,21,18,312,32,23,51,150,38,24,34,054,35,25,26,144,25*79
$GPGSV,3,3,12,28,26,222,28,32,56,292,40,46,12,248,,48,15,245,32*76
$GPGLL,4506.08959,N,06839.77339,W,182754.00,A,A*71
$RDENS,7991,5207302,PC
$GPRMC,182755.00,A,4506.08924,N,06839.77270,W,2.109,125.25,180924,,,A*7C
$GPVTG,125.25,T,,M,2.109,N,3.906,K,A*3A
$GPGGA,182755.00,4506.08924,N,06839.77270,W,1,08,0.97,33.6,M,-29.0,M,,*55
$GPGSA,A,3,24,12,25,21,23,10,28,32,,,,,1.91,0.97,1.64*0C
$GPGSV,3,1,12,02,09,327,13,10,80,260,34,12,32,101,30,15,02,096,*75
$GPGSV,3,2,12,21,18,312,32,23,51,150,38,24,34,054,35,25,26,144,25*79
$GPGSV,3,3,12,28,26,222,28,32,56,292,41,46,12,248,,48,15,245,34*71
$GPGLL,4506.08924,N,06839.77270,W,182755.00,A,A*76
$RDENS,7992,5207382,PC
$GPRMC,182756.00,A,4506.08890,N,06839.77201,W,2.083,125.16,180924,,,A*74
$GPVTG,125.16,T,,M,2.083,N,3.858,K,A*33
$GPGGA,182756.00,4506.08890,N,06839.77201,W,1,08,0.97,33.6,M,-29.0,M,,*5E
$GPGSA,A,3,24,12,25,21,23,10,28,32,,,,,1.91,0.97,1.64*0C
$GPGSV,3,1,12,02,09,327,14,10,80,260,33,12,32,101,30,15,02,096,*75
$GPGSV,3,2,12,21,18,312,31,23,51,150,38,24,34,054,35,25,26,144,25*7A
$GPGSV,3,3,12,28,26,222,29,32,56,292,41,46,12,248,,48,15,245,35*71
$GPGLL,4506.08890,N,06839.77201,W,182756.00,A,A*7D
$RDENS,7993,5207460,PC
$GPRMC,182757.00,A,4506.08855,N,06839.77134,W,2.100,125.53,180924,,,A*72
$GPVTG,125.53,T,,M,2.100,N,3.889,K,A*34
$GPGGA,182757.00,4506.08855,N,06839.77134,W,1,08,0.97,33.5,M,-29.0,M,,*50
$GPGSA,A,3,24,12,25,21,23,10,28,32,,,,,1.91,0.97,1.64*0C
$GPGSV,3,1,12,02,09,327,13,10,80,260,34,12,32,101,30,15,02,096,*75
$GPGSV,3,2,12,21,18,312,31,23,51,150,38,24,34,054,35,25,26,144,25*7A
$GPGSV,3,3,12,28,26,222,29,32,56,292,41,46,12,248,,48,15,245,35*71
$GPGLL,4506.08855,N,06839.77134,W,182757.00,A,A*70
$RDENS,7994,5207538,PC
$RDENS,7995,5207617,PC
$GPRMC,182758.00,A,4506.08821,N,06839.77065,W,2.078,125.81,180924,,,A*7A
$GPVTG,125.81,T,,M,2.078,N,3.849,K,A*39
$GPGGA,182758.00,4506.08821,N,06839.77065,W,1,08,0.97,33.5,M,-29.0,M,,*59
$GPGSA,A,3,24,12,25,21,23,10,28,32,,,,,1.91,0.97,1.64*0C
$GPGSV,3,1,12,02,09,327,12,10,80,260,34,12,32,101,30,15,02,096,*74
$GPGSV,3,2,12,21,18,312,32,23,51,150,38,24,34,054,35,25,26,144,25*79
$GPGSV,3,3,12,28,26,222,29,32,56,292,42,46,12,248,,48,15,245,35*72
$GPGLL,4506.08821,N,06839.77065,W,182758.00,A,A*79
$RDENS,7996,5207696,PC
$GPRMC,182759.00,A,4506.08788,N,06839.76996,W,2.074,126.14,180924,,,A*70
$GPVTG,126.14,T,,M,2.074,N,3.841,K,A*32
$GPGGA,182759.00,4506.08788,N,06839.76996,W,1,08,0.97,33.5,M,-29.0,M,,*50
$GPGSA,A,3,24,12,25,21,23,10,28,32,,,,,1.91,0.97,1.64*0C
$GPGSV,3,1,12,02,09,327,11,10,80,260,34,12,32,101,29,15,02,096,*7F
$GPGSV,3,2,12,21,18,312,32,23,50,150,38,24,34,054,35,25,26,144,25*78
$GPGSV,3,3,12,28,26,222,29,32,56,292,41,46,12,248,,48,15,245,35*71
$GPGLL,4506.08788,N,06839.76996,W,182759.00,A,A*70
$RDENS,7997,5207775,PC
$GPRMC,182800.00,A,4506.08757,N,06839.76926,W,2.086,125.24,180924,,,A*77
$GPVTG,125.24,T,,M,2.086,N,3.863,K,A*3F
$GPGGA,182800.00,4506.08757,N,06839.76926,W,1,08,0.97,33.5,M,-29.0,M,,*5A
$GPGSA,A,3,24,12,25,21,23,10,28,32,,,,,1.91,0.97,1.64*0C
$GPGSV,3,1,12,02,09,327,11,10,80,260,34,12,32,101,29,15,02,096,*7F
$GPGSV,3,2,12,21,18,312,33,23,50,150,38,24,34,054,35,25,26,144,25*79
$GPGSV,3,3,12,28,26,222,28,32,56,292,42,46,12,248,,48,15,245,35*73
$GPGLL,4506.08757,N,06839.76926,W,182800.00,A,A*7A
$RDENS,7998,5207854,PC
$GPRMC,182801.00,A,4506.08724,N,06839.76855,W,2.098,125.09,180924,,,A*77
$GPVTG,125.09,T,,M,2.098,N,3.886,K,A*34
$GPGGA,182801.00,4506.08724,N,06839.76855,W,1,08,0.97,33.5,M,-29.0,M,,*5A
$GPGSA,A,3,24,12,25,21,23,10,28,32,,,,,1.91,0.97,1.64*0C
$GPGSV,3,1,12,02,09,327,12,10,80,260,34,12,32,101,29,15,02,096,*7C
$GPGSV,3,2,12,21,18,312,32,23,50,150,38,24,34,054,35,25,26,144,25*78
$GPGSV,3,3,12,28,26,222,27,32,56,292,41,46,12,248,,48,15,245,34*7E
$GPGLL,4506.08724,N,06839.76855,W,182801.00,A,A*7A
$RDENS,7999,5207933,PC
$RDENS,8000,5208011,PC
$GPRMC,182802.00,A,4506.08692,N,06839.76787,W,2.068,124.25,180924,,,A*78
$GPVTG,124.25,T,,M,2.068,N,3.830,K,A*39
$GPGGA,182802.00,4506.08692,N,06839.76787,W,1,08,0.97,33.4,M,-29.0,M,,*54
$GPGSA,A,3,24,12,25,21,23,10,28,32,,,,,1.91,0.97,1.64*0C
$GPGSV,3,1,12,02,09,327,12,10,80,260,34,12,32,101,29,15,02,096,*7C
$GPGSV,3,2,12,21,18,312,31,23,50,150,37,24,34,054,35,25,26,144,25*74
$GPGSV,3,3,12,28,26,222,28,32,56,292,41,46,12,248,,48,15,245,34*71
$GPGLL,4506.08692,N,06839.76787,W,182802.00,A,A*75
$RDENS,8001,5208090,PC
$GPRMC,182803.00,A,4506.08660,N,06839.76718,W,2.108,124.05,180924,,,A*77
$GPVTG,124.05,T,,M,2.108,N,3.904,K,A*3A
$GPGGA,182803.00,4506.08660,N,06839.76718,W,1,08,0.97,33.4,M,-29.0,M,,*5E
$GPGSA,A,3,24,12,25,21,23,10,28,32,,,,,1.91,0.97,1.64*0C
$GPGSV,3,1,12,02,09,327,09,10,80,260,34,12,32,101,29,15,02,096,*76
$GPGSV,3,2,12,21,18,312,31,23,50,150,37,24,34,054,35,25,26,144,25*74
$GPGSV,3,3,12,28,26,222,27,32,56,292,41,46,12,248,,48,15,245,35*7F
$GPGLL,4506.08660,N,06839.76718,W,182803.00,A,A*7F
$RDENS,8002,5208169,PC
$GPRMC,182804.00,A,4506.08627,N,06839.76649,W,2.136,124.11,180924,,,A*7E
$GPVTG,124.11,T,,M,2.136,N,3.956,K,A*35
$GPGGA,182804.00,4506.08627,N,06839.76649,W,1,08,0.97,33.4,M,-29.0,M,,*5F
$GPGSA,A,3,24,12,25,21,23,10,28,32,,,,,1.91,0.97,1.64*0C
$GPGSV,3,1,12,02,09,327,10,10,80,260,34,12,32,101,29,15,02,096,*7E
$GPGSV,3,2,12,21,18,312,31,23,50,150,37,24,34,054,35,25,26,144,25*74
$GPGSV,3,3,12,28,26,222,27,32,56,292,42,46,12,248,,48,15,245,35*7C
$GPGLL,4506.08627,N,06839.76649,W,182804.00,A,A*7E
$RDENS,8003,5208247,PC
$GPRMC,182805.00,A,4506.08593,N,06839.76580,W,2.108,124.32,180924,,,A*79
$GPVTG,124.32,T,,M,2.108,N,3.903,K,A*39
$GPGGA,182805.00,4506.08593,N,06839.76580,W,1,08,0.97,33.4,M,-29.0,M,,*54
$GPGSA,A,3,24,12,25,21,23,10,28,32,,,,,1.91,0.97,1.64*0C
$GPGSV,3,1,12,02,09,327,09,10,80,260,33,12,32,101,29,15,02,096,*71
$GPGSV,3,2,12,21,18,312,31,23,50,150,37,24,34,054,35,25,26,144,25*74
$GPGSV,3,3,12,28,26,222,27,32,56,292,42,46,12,248,,48,15,245,35*7C
$GPGLL,4506.08593,N,06839.76580,W,182805.00,A,A*75
$RDENS,8004,5208326,PC
$RDENS,8005,5208405,PC
$GPRMC,182806.00,A,4506.08559,N,06839.76511,W,2.112,124.76,180924,,,A*7F
$GPVTG,124.76,T,,M,2.112,N,3.911,K,A*31
$GPGGA,182806.00,4506.08559,N,06839.76511,W,1,08,0.97,33.4,M,-29.0,M,,*59
$GPGSA,A,3,24,12,25,21,23,10,28,32,,,,,1.91,0.97,1.64*0C
$GPGSV,3,1,12,02,09,327,08,10,80,260,34,12,32,101,29,15,02,096,*77
$GPGSV,3,2,12,21,18,312,32,23,50,150,36,24,34,054,35,25,26,144,26*75
$GPGSV,3,3,12,28,26,222,28,32,56,292,41,46,12,248,,48,15,245,35*70
$GPGLL,4506.08559,N,06839.76511,W,182806.00,A,A*78
$RDENS,8006,5208483,PC
$GPRMC,182807.00,A,4506.08525,N,06839.76441,W,2.165,124.15,180924,,,A*74
$GPVTG,124.15,T,,M,2.165,N,4.010,K,A*3B
$GPGGA,182807.00,4506.08525,N,06839.76441,W,1,08,0.97,33.4,M,-29.0,M,,*57
$GPGSA,A,3,24,12,25,21,23,10,28,32,,,,,1.91,0.97,1.64*0C
$GPGSV,3,1,12,02,09,327,08,10,80,260,34,12,32,101,29,15,02,096,*77
$GPGSV,3,2,12,21,18,312,33,23,50,150,38,24,34,054,35,25,26,144,25*79
$GPGSV,3,3,12,28,26,222,27,32,56,292,42,46,12,248,,48,15,245,34*7D
$GPGLL,4506.08525,N,06839.76441,W,182807.00,A,A*76
$RDENS,8007,5208561,PC
$GPRMC,182808.00,A,4506.08492,N,06839.76371,W,2.138,123.53,180924,,,A*7F
$GPVTG,123.53,T,,M,2.138,N,3.960,K,A*3F
$GPGGA,182808.00,4506.08492,N,06839.76371,W,1,08,0.97,33.3,M,-29.0,M,,*56
$GPGSA,A,3,24,12,25,21,23,10,28,32,,,,,1.91,0.97,1.64*0C
$GPGSV,3,1,12,02,09,327,12,10,80,260,34,12,32,101,29,15,02,096,*7C
$GPGSV,3,2,12,21,18,312,32,23,50,150,37,24,34,054,35,25,26,144,25*77
$GPGSV,3,3,12,28,26,222,27,32,56,293,42,46,12,248,,48,15,245,34*7C
$GPGLL,4506.08492,N,06839.76371,W,182808.00,A,A*70
$RDENS,8008,5208640,PC
$RDENS,8009,5208719,PC
$GPRMC,182809.00,A,4506.08459,N,06839.76301,W,2.162,123.31,180924,,,A*75
$GPVTG,123.31,T,,M,2.162,N,4.005,K,A*39
$GPGGA,182809.00,4506.08459,N,06839.76301,W,1,08,0.97,33.2,M,-29.0,M,,*56
$GPGSA,A,3,24,12,25,21,23,10,28,32,,,,,1.91,0.97,1.64*0C
$GPGSV,3,1,12,02,09,327,12,10,80,260,34,12,32,101,30,15,02,096,*74
$GPGSV,3,2,12,21,18,312,31,23,50,150,38,24,34,054,35,25,26,144,25*7B
$GPGSV,3,3,12,28,26,222,26,32,56,293,42,46,12,248,,48,15,245,33*7A
$GPGLL,4506.08459,N,06839.76301,W,182809.00,A,A*71
$RDENS,8010,5208798,PC
$GPRMC,182810.00,A,4506.08426,N,06839.76229,W,2.164,122.71,180924,,,A*7D
$GPVTG,122.71,T,,M,2.164,N,4.008,K,A*37
$GPGGA,182810.00,4506.08426,N,06839.76229,W,1,08,0.97,33.1,M,-29.0,M,,*5E
$GPGSA,A,3,24,12,25,21,23,10,28,32,,,,,1.91,0.97,1.65*0D
$GPGSV,3,1,12,02,09,327,12,10,80,260,35,12,32,101,30,15,02,096,*75
$GPGSV,3,2,12,21,18,312,32,23,50,150,38,24,34,054,35,25,26,144,26*7B
$GPGSV,3,3,12,28,26,222,25,32,56,293,41,46,12,248,,48,15,245,33*7A
$GPGLL,4506.08426,N,06839.76229,W,182810.00,A,A*7A
$RDENS,8011,5208876,PC
$GPRMC,182811.00,A,4506.08392,N,06839.76157,W,2.203,122.24,180924,,,A*7C
$GPVTG,122.24,T,,M,2.203,N,4.079,K,A*33
$GPGGA,182811.00,4506.08392,N,06839.76157,W,1,08,0.97,33.0,M,-29.0,M,,*5C
$GPGSA,A,3,24,12,25,21,23,10,28,32,,,,,1.91,0.97,1.65*0D
$GPGSV,3,1,12,02,09,327,12,10,80,260,35,12,32,101,29,15,02,096,*7D
$GPGSV,3,2,12,21,18,312,33,23,50,150,38,24,34,054,35,25,26,144,26*7A
$GPGSV,3,3,12,28,26,222,25,32,56,293,41,46,12,248,,48,15,245,33*7A
$GPGLL,4506.08392,N,06839.76157,W,182811.00,A,A*79
$RDENS,8012,5208955,PC
$GPRMC,182812.00,A,4506.08359,N,06839.76087,W,2.140,121.81,180924,,,A*7C
$GPVTG,121.81,T,,M,2.140,N,3.964,K,A*39
$GPGGA,182812.00,4506.08359,N,06839.76087,W,1,08,0.97,33.0,M,-29.0,M,,*54
$GPGSA,A,3,24,12,25,21,23,10,28,32,,,,,1.91,0.97,1.65*0D
$GPGSV,3,1,12,02,09,327,12,10,80,260,35,12,32,101,29,15,02,096,*7D
$GPGSV,3,2,12,21,18,312,33,23,50,150,37,24,34,054,35,25,26,144,26*75
$GPGSV,3,3,12,28,26,222,26,32,56,293,42,46,12,248,,48,15,245,34*7D
$GPGLL,4506.08359,N,06839.76087,W,182812.00,A,A*71
$RDENS,8013,5209033,PC
$RDENS,8014,5209112,PC
$GPRMC,182813.00,A,4506.08326,N,06839.76016,W,2.144,122.52,180924,,,A*74
$GPVTG,122.52,T,,M,2.144,N,3.970,K,A*35
$GPGGA,182813.00,4506.08326,N,06839.76016,W,1,08,0.97,33.0,M,-29.0,M,,*55
$GPGSA,A,3,24,12,25,21,23,10,28,32,,,,,1.91,0.97,1.65*0D
$GPGSV,3,1,12,02,09,327,12,10,80,260,34,12,32,101,30,15,02,096,*74
$GPGSV,3,2,12,21,18,312,32,23,50,150,37,24,34,054,35,25,26,144,25*77
$GPGSV,3,3,12,28,26,222,26,32,56,293,40,46,12,248,,48,15,245,34*7F
$GPGLL,4506.08326,N,06839.76016,W,182813.00,A,A*70
$RDENS,8015,5209191,PC
$GPRMC,182814.00,A,4506.08293,N,06839.75945,W,2.170,122.22,180924,,,A*70
$GPVTG,122.22,T,,M,2.170,N,4.020,K,A*3E
$GPGGA,182814.00,4506.08293,N,06839.75945,W,1,08,0.97,33.0,M,-29.0,M,,*51
$GPGSA,A,3,24,12,25,21,23,10,28,32,,,,,1.91,0.97,1.65*0D
$GPGSV,3,1,12,02,09,327,14,10,80,260,34,12,32,101,30,15,02,096,*72
$GPGSV,3,2,12,21,18,312,32,23,50,150,37,24,34,054,35,25,26,144,25*77
$GPGSV,3,3,12,28,26,222,26,32,56,293,41,46,12,248,,48,15,245,34*7E
$GPGLL,4506.08293,N,06839.75945,W,182814.00,A,A*74
$RDENS,8016,5209270,PC
$GPRMC,182815.00,A,4506.08260,N,06839.75873,W,2.155,122.53,180924,,,A*78
$GPVTG,122.53,T,,M,2.155,N,3.990,K,A*3A
$GPGGA,182815.00,4506.08260,N,06839.75873,W,1,08,0.97,33.0,M,-29.0,M,,*58
$GPGSA,A,3,24,12,25,21,23,10,28,32,,,,,1.91,0.97,1.65*0D
$GPGSV,3,1,12,02,09,327,14,10,80,260,35,12,32,101,30,15,02,096,*73
$GPGSV,3,2,12,21,18,312,32,23,50,150,37,24,34,054,35,25,26,144,25*77
$GPGSV,3,3,12,28,26,222,26,32,56,293,41,46,12,248,,48,15,245,35*7F
$GPGLL,4506.08260,N,06839.75873,W,182815.00,A,A*7D
$RDENS,8017,5209349,PC
$GPRMC,182816.00,A,4506.08224,N,06839.75802,W,2.212,123.93,180924,,,A*70
$GPVTG,123.93,T,,M,2.212,N,4.097,K,A*3E
$GPGGA,182816.00,4506.08224,N,06839.75802,W,1,08,0.97,32.9,M,-29.0,M,,*55
$GPGSA,A,3,24,12,25,21,23,10,28,32,,,,,1.91,0.97,1.65*0D
$GPGSV,3,1,12,02,09,327,,10,80,260,35,12,32,101,30,15,02,096,*76
$GPGSV,3,2,12,21,18,312,32,23,50,150,38,24,34,054,35,25,26,144,25*78
$GPGSV,3,3,12,28,26,222,26,32,56,293,41,46,12,248,,48,15,245,34*7E
$GPGLL,4506.08224,N,06839.75802,W,182816.00,A,A*78
$RDENS,8018,5209427,PC
$RDENS,8019,5209506,PC
$GPRMC,182817.00,A,4506.08189,N,06839.75730,W,2.179,124.08,180924,,,A*70
$GPVTG,124.08,T,,M,2.179,N,4.036,K,A*3E
$GPGGA,182817.00,4506.08189,N,06839.75730,W,1,08,0.97,32.9,M,-29.0,M,,*5E
$GPGSA,A,3,24,12,25,21,23,10,28,32,,,,,1.91,0.97,1.65*0D
$GPGSV,3,1,12,02,09,327,20,10,80,260,37,12,32,101,30,15,02,096,*76
$GPGSV,3,2,12,21,18,312,32,23,50,150,38,24,34,054,34,25,26,144,25*79
$GPGSV,3,3,12,28,26,222,27,32,56,293,42,46,12,248,,48,15,245,35*7D
$GPGLL,4506.08189,N,06839.75730,W,182817.00,A,A*73
$RDENS,8020,5209584,PC
$GPRMC,182818.00,A,4506.08157,N,06839.75658,W,2.153,123.77,180924,,,A*74
$GPVTG,123.77,T,,M,2.153,N,3.987,K,A*3D
$GPGGA,182818.00,4506.08157,N,06839.75658,W,1,08,0.97,32.9,M,-29.0,M,,*5D
$GPGSA,A,3,24,12,25,21,23,10,28,32,,,,,1.91,0.97,1.65*0D
$GPGSV,3,1,12,02,09,327,22,10,80,260,37,12,32,101,31,15,02,096,*75
$GPGSV,3,2,12,21,18,312,31,23,50,150,39,24,34,054,34,25,26,144,26*78
$GPGSV,3,3,12,28,26,222,26,32,56,293,42,46,12,248,,48,15,245,34*7D
$GPGLL,4506.08157,N,06839.75658,W,182818.00,A,A*70
$RDENS,8021,5209663,PC
$GPRMC,182819.00,A,4506.08124,N,06839.75586,W,2.215,123.33,180924,,,A*70
$GPVTG,123.33,T,,M,2.215,N,4.103,K,A*3F
$GPGGA,182819.00,4506.08124,N,06839.75586,W,1,08,0.97,32.9,M,-29.0,M,,*58
$GPGSA,A,3,24,12,25,21,23,10,28,32,,,,,1.91,0.97,1.65*0D
$GPGSV,3,1,12,02,09,327,23,10,80,260,34,12,32,101,30,15,02,096,*76
$GPGSV,3,2,12,21,18,312,31,23,50,150,38,24,34,054,35,25,26,144,27*79
$GPGSV,3,3,12,28,26,222,27,32,56,293,41,46,12,248,,48,15,245,34*7F
$GPGLL,4506.08124,N,06839.75586,W,182819.00,A,A*75
$RDENS,8022,5209742,PC
$RDENS,8023,5209821,PC
$GPRMC,182820.00,A,4506.08088,N,06839.75512,W,2.243,124.22,180924,,,A*74
$GPVTG,124.22,T,,M,2.243,N,4.154,K,A*39
$GPGGA,182820.00,4506.08088,N,06839.75512,W,1,08,0.97,32.9,M,-29.0,M,,*58
$GPGSA,A,3,24,12,25,21,23,10,28,32,,,,,1.91,0.97,1.65*0D
$GPGSV,3,1,12,02,09,327,23,10,80,260,34,12,32,101,30,15,02,096,*76
$GPGSV,3,2,12,21,18,312,30,23,50,150,39,24,34,054,35,25,26,144,27*79
$GPGSV,3,3,12,28,26,222,29,32,56,293,41,46,12,248,,48,15,245,35*70
$GPGLL,4506.08088,N,06839.75512,W,182820.00,A,A*75
$RDENS,8024,5209900,PC
$GPRMC,182821.00,A,4506.08055,N,06839.75437,W,2.228,125.07,180924,,,A*78
$GPVTG,125.07,T,,M,2.228,N,4.126,K,A*37
$GPGGA,182821.00,4506.08055,N,06839.75437,W,1,08,0.97,32.9,M,-29.0,M,,*5F
$GPGSA,A,3,24,12,25,21,23,10,28,32,,,,,1.91,0.97,1.65*0D
$GPGSV,3,1,12,02,09,327,25,10,80,260,34,12,32,101,30,15,02,096,*70
$GPGSV,3,2,12,21,18,312,30,23,50,150,38,24,34,054,34,25,26,144,27*79
$GPGSV,3,3,12,28,26,222,29,32,56,293,42,46,12,248,,48,15,245,35*73
$GPGLL,4506.08055,N,06839.75437,W,182821.00,A,A*72
$RDENS,8025,5209978,PC
$GPRMC,182822.00,A,4506.08021,N,06839.75364,W,2.233,125.58,180924,,,A*79
$GPVTG,125.58,T,,M,2.233,N,4.136,K,A*36
$GPGGA,182822.00,4506.08021,N,06839.75364,W,1,08,0.97,32.9,M,-29.0,M,,*5E
$GPGSA,A,3,24,12,25,21,23,10,28,32,,,,,1.91,0.97,1.65*0D
$GPGSV,3,1,12,02,09,327,24,10,80,260,34,12,32,101,30,15,02,096,*71
$GPGSV,3,2,12,21,18,312,31,23,50,150,38,24,34,054,35,25,26,144,27*79
$GPGSV,3,3,12,28,26,222,29,32,56,293,42,46,12,248,,48,15,245,36*70
$GPGLL,4506.08021,N,06839.75364,W,182822.00,A,A*73
$RDENS,8026,5210057,PC
$GPRMC,182823.00,A,4506.07987,N,06839.75289,W,2.204,125.43,180924,,,A*7E
$GPVTG,125.43,T,,M,2.204,N,4.082,K,A*36
$GPGGA,182823.00,4506.07987,N,06839.75289,W,1,08,0.97,33.1,M,-29.0,M,,*5E
