$GPRMC,183254.00,A,4506.01617,N,06839.65287,W,1.129,195.71,180924,,,A*7F
$GPVTG,195.71,T,,M,1.129,N,2.091,K,A*37
$GPGGA,183254.00,4506.01617,N,06839.65287,W,1,09,0.93,36.6,M,-29.0,M,,*5D
$GPGSA,A,3,24,12,25,21,23,10,02,28,32,,,,1.76,0.93,1.50*04
$GPGSV,3,1,12,02,10,326,29,10,81,245,35,12,33,099,32,15,00,097,*72
$GPGSV,3,2,12,21,19,310,33,23,48,151,40,24,32,054,37,25,28,143,25*70
$GPGSV,3,3,12,28,28,223,25,32,58,295,38,46,12,248,,48,15,245,*73
$GPGLL,4506.01617,N,06839.65287,W,183254.00,A,A*7E
$GPRMC,183255.00,A,4506.01587,N,06839.65307,W,1.225,199.70,180924,,,A*7F
$GPVTG,199.70,T,,M,1.225,N,2.269,K,A*30
$GPGGA,183255.00,4506.01587,N,06839.65307,W,1,09,0.93,36.6,M,-29.0,M,,*5F
$GPGSA,A,3,24,12,25,21,23,10,02,28,32,,,,1.76,0.93,1.50*04
$GPGSV,3,1,12,02,10,326,28,10,81,245,35,12,33,099,30,15,00,097,*71
$GPGSV,3,2,12,21,19,310,32,23,48,151,38,24,32,054,36,25,28,143,25*7F
$GPGSV,3,3,12,28,28,223,28,32,58,295,37,46,12,248,,48,15,245,*71
$GPGLL,4506.01587,N,06839.65307,W,183255.00,A,A*7C
$RDENS,8373,5237362,PC
$GPRMC,183256.00,A,4506.01553,N,06839.65334,W,1.257,204.13,180924,,,A*72
$GPVTG,204.13,T,,M,1.257,N,2.328,K,A*33
$GPGGA,183256.00,4506.01553,N,06839.65334,W,1,09,0.93,36.6,M,-29.0,M,,*55
$GPGSA,A,3,24,12,25,21,23,10,02,28,32,,,,1.76,0.93,1.50*04
$GPGSV,3,1,12,02,10,326,28,10,81,245,35,12,33,099,30,15,00,097,*71
$GPGSV,3,2,12,21,19,310,30,23,48,151,35,24,32,054,31,25,28,143,26*74
$GPGSV,3,3,12,28,28,223,33,32,58,295,34,46,12,248,,48,15,245,*78
$GPGLL,4506.01553,N,06839.65334,W,183256.00,A,A*76
$RDENS,8374,5237441,PC
$RDENS,8375,5237520,PC
$GPRMC,183257.00,A,4506.01520,N,06839.65365,W,1.430,208.27,180924,,,A*7F
$GPVTG,208.27,T,,M,1.430,N,2.649,K,A*3D
$GPGGA,183257.00,4506.01520,N,06839.65365,W,1,09,0.93,36.6,M,-29.0,M,,*54
$GPGSA,A,3,24,12,25,21,23,10,02,28,32,,,,1.76,0.93,1.50*04
$GPGSV,3,1,12,02,10,326,29,10,81,245,35,12,33,099,23,15,00,097,*72
$GPGSV,3,2,12,21,19,310,31,23,48,151,35,24,32,054,28,25,28,143,33*79
$GPGSV,3,3,12,28,28,223,32,32,58,295,33,46,12,248,,48,15,245,*7E
$GPGLL,4506.01520,N,06839.65365,W,183257.00,A,A*77
$RDENS,8376,5237599,PC
$GPRMC,183258.00,A,4506.01486,N,06839.65406,W,1.655,215.05,180924,,,A*72
$GPVTG,215.05,T,,M,1.655,N,3.066,K,A*3A
$GPGGA,183258.00,4506.01486,N,06839.65406,W,1,09,0.93,36.6,M,-29.0,M,,*54
$GPGSA,A,3,24,12,25,21,23,10,02,28,32,,,,1.76,0.93,1.50*04
$GPGSV,3,1,12,02,10,326,28,10,81,245,36,12,33,099,30,15,00,097,*72
$GPGSV,3,2,12,21,19,310,29,23,48,151,35,24,32,054,29,25,28,143,28*7B
$GPGSV,3,3,12,28,28,223,33,32,58,295,33,46,12,248,,48,15,245,28*75
$GPGLL,4506.01486,N,06839.65406,W,183258.00,A,A*77
$RDENS,8377,5237677,PC
$GPRMC,183259.00,A,4506.01453,N,06839.65454,W,1.757,221.49,180924,,,A*70
$GPVTG,221.49,T,,M,1.757,N,3.255,K,A*34
$GPGGA,183259.00,4506.01453,N,06839.65454,W,1,09,0.93,36.6,M,-29.0,M,,*5A
$GPGSA,A,3,24,12,25,21,23,10,02,28,32,,,,1.76,0.93,1.50*04
$GPGSV,3,1,12,02,10,326,28,10,81,245,39,12,33,099,35,15,00,097,*78
$GPGSV,3,2,12,21,19,310,26,23,48,151,37,24,32,054,33,25,28,143,29*7C
$GPGSV,3,3,12,28,28,223,33,32,58,295,34,46,12,248,,48,15,245,*78
$GPGLL,4506.01453,N,06839.65454,W,183259.00,A,A*79
$RDENS,8378,5237756,PC
$GPRMC,183300.00,A,4506.01424,N,06839.65510,W,1.819,227.65,180924,,,A*71
$GPVTG,227.65,T,,M,1.819,N,3.369,K,A*37
$GPGGA,183300.00,4506.01424,N,06839.65510,W,1,09,0.93,36.6,M,-29.0,M,,*56
$GPGSA,A,3,24,12,25,21,23,10,02,28,32,,,,1.76,0.93,1.50*04
$GPGSV,3,1,12,02,10,326,29,10,81,245,38,12,33,099,35,15,00,097,*78
$GPGSV,3,2,12,21,19,310,22,23,48,151,39,24,32,054,33,25,28,143,27*78
$GPGSV,3,3,12,28,28,223,32,32,58,295,34,46,12,248,,48,15,245,*79
$GPGLL,4506.01424,N,06839.65510,W,183300.00,A,A*75
$RDENS,8379,5237835,PC
$RDENS,8380,5237914,PC
$GPRMC,183301.00,A,4506.01391,N,06839.65572,W,1.983,233.19,180924,,,A*71
$GPVTG,233.19,T,,M,1.983,N,3.673,K,A*35
$GPGGA,183301.00,4506.01391,N,06839.65572,W,1,09,0.93,36.5,M,-29.0,M,,*59
$GPGSA,A,3,24,12,25,21,23,10,02,28,32,,,,1.76,0.93,1.50*04
$GPGSV,3,1,12,02,10,326,29,10,81,245,38,12,33,099,37,15,00,097,*7A
$GPGSV,3,2,12,21,19,310,17,23,48,151,39,24,32,054,32,25,28,143,27*7F
$GPGSV,3,3,12,28,28,223,33,32,58,295,35,46,12,248,,48,15,245,*79
$GPGLL,4506.01391,N,06839.65572,W,183301.00,A,A*79
$RDENS,8381,5237992,PC
$GPRMC,183302.00,A,4506.01359,N,06839.65638,W,2.083,235.23,180924,,,A*7E
$GPVTG,235.23,T,,M,2.083,N,3.857,K,A*38
$GPGGA,183302.00,4506.01359,N,06839.65638,W,1,09,0.93,36.5,M,-29.0,M,,*53
$GPGSA,A,3,24,12,25,21,23,10,02,28,32,,,,1.76,0.93,1.50*04
$GPGSV,3,1,12,02,10,326,29,10,81,245,38,12,33,099,34,15,00,097,*79
$GPGSV,3,2,12,21,19,310,18,23,48,151,39,24,32,054,32,25,28,143,25*72
$GPGSV,3,3,12,28,28,223,33,32,58,295,35,46,12,248,,48,15,245,*79
$GPGLL,4506.01359,N,06839.65638,W,183302.00,A,A*73
$RDENS,8382,5238071,PC
$GPRMC,183303.00,A,4506.01328,N,06839.65713,W,2.331,238.04,180924,,,A*73
$GPVTG,238.04,T,,M,2.331,N,4.317,K,A*32
$GPGGA,183303.00,4506.01328,N,06839.65713,W,1,09,0.93,36.5,M,-29.0,M,,*5C
$GPGSA,A,3,24,12,25,21,23,10,02,28,32,,,,1.76,0.93,1.50*04
$GPGSV,3,1,12,02,10,326,29,10,81,245,39,12,33,099,33,15,00,097,*7F
$GPGSV,3,2,12,21,19,310,22,23,48,151,38,24,32,054,34,25,28,143,26*7F
$GPGSV,3,3,12,28,28,223,34,32,58,295,34,46,12,248,,48,15,245,27*7A
$GPGLL,4506.01328,N,06839.65713,W,183303.00,A,A*7C
$RDENS,8383,5238149,PC
$GPRMC,183304.00,A,4506.01295,N,06839.65793,W,2.354,239.93,180924,,,A*77
$GPVTG,239.93,T,,M,2.354,N,4.360,K,A*3E
$GPGGA,183304.00,4506.01295,N,06839.65793,W,1,09,0.93,36.4,M,-29.0,M,,*55
$GPGSA,A,3,24,12,25,21,23,10,02,28,32,,,,1.76,0.93,1.50*04
$GPGSV,3,1,12,02,10,326,29,10,81,245,39,12,33,099,36,15,00,097,*7A
$GPGSV,3,2,12,21,19,310,25,23,48,151,38,24,32,054,33,25,28,143,25*7C
$GPGSV,3,3,12,28,28,223,36,32,58,295,34,46,12,248,,48,15,245,27*78
$GPGLL,4506.01295,N,06839.65793,W,183304.00,A,A*74
$RDENS,8384,5238228,PC
$RDENS,8385,5238307,PC
$GPRMC,183305.00,A,4506.01262,N,06839.65874,W,2.353,242.21,180924,,,A*7A
$GPVTG,242.21,T,,M,2.353,N,4.357,K,A*38
$GPGGA,183305.00,4506.01262,N,06839.65874,W,1,09,0.93,36.4,M,-29.0,M,,*5A
$GPGSA,A,3,24,12,25,21,23,10,02,28,32,,,,1.76,0.93,1.50*04
$GPGSV,3,1,12,02,10,326,29,10,81,245,39,12,33,099,36,15,00,097,*7A
$GPGSV,3,2,12,21,19,310,26,23,48,151,38,24,32,054,31,25,28,143,24*7C
$GPGSV,3,3,12,28,28,223,36,32,58,295,35,46,12,248,,48,15,245,28*76
$GPGLL,4506.01262,N,06839.65874,W,183305.00,A,A*7B
$RDENS,8386,5238386,PC
$GPRMC,183306.00,A,4506.01234,N,06839.65957,W,2.279,244.58,180924,,,A*7B
$GPVTG,244.58,T,,M,2.279,N,4.221,K,A*39
$GPGGA,183306.00,4506.01234,N,06839.65957,W,1,09,0.93,36.3,M,-29.0,M,,*5D
$GPGSA,A,3,24,12,25,21,23,10,02,28,32,,,,1.77,0.93,1.50*05
$GPGSV,3,1,12,02,10,326,26,10,81,245,40,12,33,099,34,15,00,097,*79
$GPGSV,3,2,12,21,19,310,27,23,48,151,35,24,32,054,31,25,28,143,22*76
$GPGSV,3,3,12,28,28,223,36,32,58,295,35,46,12,248,,48,15,245,29*77
$GPGLL,4506.01234,N,06839.65957,W,183306.00,A,A*7B
$RDENS,8387,5238465,PC
$GPRMC,183307.00,A,4506.01209,N,06839.66040,W,2.162,246.34,180924,,,A*79
$GPVTG,246.34,T,,M,2.162,N,4.004,K,A*3D
$GPGGA,183307.00,4506.01209,N,06839.66040,W,1,09,0.93,36.2,M,-29.0,M,,*5F
$GPGSA,A,3,24,12,25,21,23,10,02,28,32,,,,1.77,0.93,1.50*05
$GPGSV,3,1,12,02,10,326,24,10,81,245,40,12,33,099,39,15,00,097,*76
$GPGSV,3,2,12,21,19,310,28,23,48,151,36,24,32,054,31,25,28,143,21*79
$GPGSV,3,3,12,28,28,223,36,32,58,295,36,46,12,248,,48,15,245,29*74
$GPGLL,4506.01209,N,06839.66040,W,183307.00,A,A*78
$RDENS,8388,5238544,PC
$RDENS,8389,5238622,PC
$GPRMC,183308.00,A,4506.01186,N,06839.66118,W,2.152,247.90,180924,,,A*72
$GPVTG,247.90,T,,M,2.152,N,3.985,K,A*36
$GPGGA,183308.00,4506.01186,N,06839.66118,W,1,09,0.93,36.0,M,-29.0,M,,*5A
$GPGSA,A,3,24,12,25,21,23,10,02,28,32,,,,1.77,0.93,1.50*05
$GPGSV,3,1,12,02,10,326,21,10,81,245,40,12,33,099,36,15,00,097,*7C
$GPGSV,3,2,12,21,19,310,29,23,48,151,36,24,31,054,31,25,28,143,25*7F
$GPGSV,3,3,12,28,28,223,36,32,58,295,36,46,12,248,,48,15,245,28*75
$GPGLL,4506.01186,N,06839.66118,W,183308.00,A,A*7F
$RDENS,8390,5238701,PC
$GPRMC,183309.00,A,4506.01164,N,06839.66196,W,2.133,249.38,180924,,,A*72
$GPVTG,249.38,T,,M,2.133,N,3.951,K,A*34
$GPGGA,183309.00,4506.01164,N,06839.66196,W,1,09,0.93,35.9,M,-29.0,M,,*5B
$GPGSA,A,3,24,12,25,21,23,10,02,28,32,,,,1.77,0.93,1.50*05
$GPGSV,3,1,12,02,10,326,19,10,81,245,40,12,33,099,33,15,00,097,*72
$GPGSV,3,2,12,21,19,310,29,23,48,151,36,24,31,054,31,25,28,142,26*7D
$GPGSV,3,3,12,28,28,223,36,32,58,295,36,46,12,248,,48,15,245,28*75
$GPGLL,4506.01164,N,06839.66196,W,183309.00,A,A*74
$RDENS,8391,5238779,PC
$GPRMC,183310.00,A,4506.01140,N,06839.66278,W,2.108,249.34,180924,,,A*7B
$GPVTG,249.34,T,,M,2.108,N,3.905,K,A*31
$GPGGA,183310.00,4506.01140,N,06839.66278,W,1,09,0.93,35.8,M,-29.0,M,,*57
$GPGSA,A,3,24,12,25,21,23,10,02,28,32,,,,1.77,0.93,1.50*05
$GPGSV,3,1,12,02,10,326,18,10,81,245,40,12,33,099,34,15,00,097,*74
$GPGSV,3,2,12,21,19,310,30,23,48,151,36,24,31,054,32,25,28,142,26*76
$GPGSV,3,3,12,28,28,223,36,32,58,295,36,46,12,248,,48,15,245,28*75
$GPGLL,4506.01140,N,06839.66278,W,183310.00,A,A*79
$RDENS,8392,5238858,PC
$GPRMC,183311.00,A,4506.01115,N,06839.66357,W,2.119,248.91,180924,,,A*78
$GPVTG,248.91,T,,M,2.119,N,3.925,K,A*3D
$GPGGA,183311.00,4506.01115,N,06839.66357,W,1,09,0.93,35.8,M,-29.0,M,,*5A
$GPGSA,A,3,24,12,25,21,23,10,02,28,32,,,,1.77,0.93,1.50*05
$GPGSV,3,1,12,02,10,326,18,10,81,245,40,12,33,099,30,15,00,097,*70
$GPGSV,3,2,12,21,19,310,30,23,48,151,36,24,31,054,31,25,28,142,26*75
$GPGSV,3,3,12,28,28,223,36,32,58,295,36,46,12,248,,48,15,245,29*74
$GPGLL,4506.01115,N,06839.66357,W,183311.00,A,A*74
$RDENS,8393,5238937,PC
$RDENS,8394,5239015,PC
$GPRMC,183312.00,A,4506.01092,N,06839.66432,W,2.024,249.63,180924,,,A*72
$GPVTG,249.63,T,,M,2.024,N,3.748,K,A*3B
$GPGGA,183312.00,4506.01092,N,06839.66432,W,1,09,0.93,35.8,M,-29.0,M,,*53
$GPGSA,A,3,24,12,25,21,23,10,02,28,32,,,,1.77,0.93,1.50*05
$GPGSV,3,1,12,02,10,326,19,10,81,245,40,12,33,099,31,15,00,097,*70
$GPGSV,3,2,12,21,19,310,30,23,48,151,35,24,31,054,31,25,28,142,27*77
$GPGSV,3,3,12,28,29,223,36,32,58,295,36,46,12,248,,48,15,245,27*7B
$GPGLL,4506.01092,N,06839.66432,W,183312.00,A,A*7D
$RDENS,8395,5239094,PC
$GPRMC,183313.00,A,4506.01071,N,06839.66509,W,2.047,250.36,180924,,,A*7A
$GPVTG,250.36,T,,M,2.047,N,3.790,K,A*33
$GPGGA,183313.00,4506.01071,N,06839.66509,W,1,09,0.93,35.8,M,-29.0,M,,*56
$GPGSA,A,3,24,12,25,21,23,10,02,28,32,,,,1.77,0.93,1.50*05
$GPGSV,3,1,12,02,10,326,21,10,81,245,40,12,33,099,30,15,00,097,*7A
$GPGSV,3,2,12,21,19,310,30,23,48,151,35,24,31,054,31,25,28,142,24*74
$GPGSV,3,3,12,28,29,223,36,32,58,295,39,46,12,248,,48,15,245,*71
$GPGLL,4506.01071,N,06839.66509,W,183313.00,A,A*78
$RDENS,8396,5239173,PC
$GPRMC,183314.00,A,4506.01051,N,06839.66583,W,1.980,250.16,180924,,,A*7E
$GPVTG,250.16,T,,M,1.980,N,3.668,K,A*36
$GPGGA,183314.00,4506.01051,N,06839.66583,W,1,09,0.93,35.8,M,-29.0,M,,*51
$GPGSA,A,3,24,12,25,21,23,10,02,28,32,,,,1.77,0.93,1.50*05
$GPGSV,3,1,12,02,10,326,21,10,81,245,39,12,33,099,32,15,00,097,*76
$GPGSV,3,2,12,21,19,310,30,23,48,151,35,24,31,054,29,25,28,142,25*7C
$GPGSV,3,3,12,28,29,223,36,32,58,295,38,46,12,248,,48,15,245,*70
$GPGLL,4506.01051,N,06839.66583,W,183314.00,A,A*7F
$RDENS,8397,5239252,PC
$GPRMC,183315.00,A,4506.01034,N,06839.66654,W,1.908,251.60,180924,,,A*75
$GPVTG,251.60,T,,M,1.908,N,3.533,K,A*3B
$GPGGA,183315.00,4506.01034,N,06839.66654,W,1,09,0.93,35.7,M,-29.0,M,,*55
$GPGSA,A,3,24,12,25,21,23,10,02,28,32,,,,1.77,0.93,1.50*05
$GPGSV,3,1,12,02,10,326,20,10,81,245,39,12,33,099,33,15,00,097,19*7E
$GPGSV,3,2,12,21,19,310,31,23,48,151,34,24,31,054,28,25,28,142,27*7F
$GPGSV,3,3,12,28,29,223,35,32,58,295,38,46,12,248,,48,15,245,*73
$GPGLL,4506.01034,N,06839.66654,W,183315.00,A,A*74
$RDENS,8398,5239331,PC
$RDENS,8399,5239409,PC
$GPRMC,183316.00,A,4506.01017,N,06839.66725,W,1.893,250.84,180924,,,A*78
$GPVTG,250.84,T,,M,1.893,N,3.505,K,A*36
$GPGGA,183316.00,4506.01017,N,06839.66725,W,1,09,0.93,35.8,M,-29.0,M,,*5F
$GPGSA,A,3,24,12,25,21,23,10,02,28,32,,,,1.77,0.93,1.50*05
$GPGSV,3,1,12,02,10,326,19,10,81,245,38,12,33,099,31,15,00,097,16*78
$GPGSV,3,2,12,21,19,310,31,23,48,151,34,24,31,054,27,25,28,142,28*7F
$GPGSV,3,3,12,28,29,223,35,32,58,295,38,46,12,248,,48,15,245,*73
$GPGLL,4506.01017,N,06839.66725,W,183316.00,A,A*71
$RDENS,8400,5239488,PC
$GPRMC,183317.00,A,4506.00998,N,06839.66799,W,1.977,250.98,180924,,,A*77
$GPVTG,250.98,T,,M,1.977,N,3.661,K,A*31
$GPGGA,183317.00,4506.00998,N,06839.66799,W,1,09,0.93,35.8,M,-29.0,M,,*56
$GPGSA,A,3,24,12,25,21,23,10,02,28,32,,,,1.77,0.93,1.50*05
$GPGSV,3,1,12,02,10,326,19,10,81,245,38,12,33,099,31,15,00,097,15*7B
$GPGSV,3,2,12,21,19,310,30,23,48,151,33,24,31,054,27,25,28,142,29*78
$GPGSV,3,3,12,28,29,223,35,32,58,295,38,46,12,248,,48,15,245,*73
$GPGLL,4506.00998,N,06839.66799,W,183317.00,A,A*78
$RDENS,8401,5239567,PC
$GPRMC,183318.00,A,4506.00980,N,06839.66872,W,1.891,251.34,180924,,,A*75
$GPVTG,251.34,T,,M,1.891,N,3.502,K,A*39
$GPGGA,183318.00,4506.00980,N,06839.66872,W,1,09,0.93,35.9,M,-29.0,M,,*5B
$GPGSA,A,3,24,12,25,21,23,10,02,28,32,,,,1.77,0.93,1.50*05
$GPGSV,3,1,12,02,10,326,19,10,81,245,38,12,33,099,32,15,00,097,14*79
$GPGSV,3,2,12,21,19,310,30,23,48,151,34,24,31,054,27,25,28,142,29*7F
$GPGSV,3,3,12,28,29,223,35,32,58,295,38,46,12,248,,48,15,245,*73
$GPGLL,4506.00980,N,06839.66872,W,183318.00,A,A*74
$RDENS,8402,5239646,PC
$GPRMC,183319.00,A,4506.00962,N,06839.66945,W,1.939,251.35,180924,,,A*7F
$GPVTG,251.35,T,,M,1.939,N,3.590,K,A*30
$GPGGA,183319.00,4506.00962,N,06839.66945,W,1,09,0.93,35.8,M,-29.0,M,,*52
$GPGSA,A,3,24,12,25,21,23,10,02,28,32,,,,1.77,0.93,1.50*05
$GPGSV,3,1,12,02,10,326,19,10,81,245,38,12,33,099,32,15,00,097,14*79
$GPGSV,3,2,12,21,19,310,30,23,48,151,34,24,31,054,27,25,28,142,28*7E
$GPGSV,3,3,12,28,29,223,35,32,58,295,38,46,12,248,,48,15,245,*73
$GPGLL,4506.00962,N,06839.66945,W,183319.00,A,A*7C
$RDENS,8403,5239725,PC
$RDENS,8404,5239803,PC
$GPRMC,183320.00,A,4506.00946,N,06839.67018,W,2.002,251.52,180924,,,A*70
$GPVTG,251.52,T,,M,2.002,N,3.708,K,A*30
$GPGGA,183320.00,4506.00946,N,06839.67018,W,1,09,0.93,35.9,M,-29.0,M,,*5F
$GPGSA,A,3,24,12,25,21,23,10,02,28,32,,,,1.77,0.93,1.50*05
$GPGSV,3,1,12,02,10,326,20,10,81,245,38,12,33,099,35,15,00,097,05*74
$GPGSV,3,2,12,21,19,310,30,23,48,151,35,24,31,054,32,25,28,142,28*7B
$GPGSV,3,3,12,28,29,223,37,32,58,295,38,46,12,248,,48,15,245,*71
$GPGLL,4506.00946,N,06839.67018,W,183320.00,A,A*70
$RDENS,8405,5239882,PC
$GPRMC,183321.00,A,4506.00927,N,06839.67093,W,1.994,250.40,180924,,,A*72
$GPVTG,250.40,T,,M,1.994,N,3.694,K,A*33
$GPGGA,183321.00,4506.00927,N,06839.67093,W,1,09,0.93,35.9,M,-29.0,M,,*5A
$GPGSA,A,3,24,12,25,21,23,10,02,28,32,,,,1.77,0.93,1.50*05
$GPGSV,3,1,12,02,10,326,22,10,81,245,40,12,33,099,34,15,00,097,05*78
$GPGSV,3,2,12,21,19,310,30,23,48,151,35,24,31,054,31,25,28,142,26*76
$GPGSV,3,3,12,28,29,223,37,32,58,295,37,46,12,248,,48,15,245,*7E
$GPGLL,4506.00927,N,06839.67093,W,183321.00,A,A*75
$RDENS,8406,5239961,PC
$GPRMC,183322.00,A,4506.00904,N,06839.67170,W,2.073,248.33,180924,,,A*72
$GPVTG,248.33,T,,M,2.073,N,3.839,K,A*34
$GPGGA,183322.00,4506.00904,N,06839.67170,W,1,09,0.93,35.9,M,-29.0,M,,*54
$GPGSA,A,3,24,12,25,21,23,10,02,28,32,,,,1.77,0.93,1.50*05
$GPGSV,3,1,12,02,10,326,22,10,81,245,37,12,33,099,34,15,00,097,05*78
$GPGSV,3,2,12,21,19,310,31,23,48,151,35,24,31,054,30,25,28,142,26*76
$GPGSV,3,3,12,28,29,223,37,32,58,295,38,46,12,248,,48,15,245,*71
$GPGLL,4506.00904,N,06839.67170,W,183322.00,A,A*7B
$RDENS,8407,5240039,PC
$RDENS,8408,5240118,PC
$GPRMC,183323.00,A,4506.00886,N,06839.67249,W,2.046,250.30,180924,,,A*7D
$GPVTG,250.30,T,,M,2.046,N,3.789,K,A*3C
$GPGGA,183323.00,4506.00886,N,06839.67249,W,1,09,0.93,35.9,M,-29.0,M,,*57
$GPGSA,A,3,24,12,25,21,23,10,02,28,32,,,,1.77,0.93,1.50*05
$GPGSV,3,1,12,02,10,326,21,10,81,245,37,12,33,099,34,15,00,097,05*7B
$GPGSV,3,2,12,21,19,310,30,23,48,151,34,24,31,054,30,25,28,142,30*71
$GPGSV,3,3,12,28,29,223,36,32,58,295,38,46,12,248,,48,15,245,*70
$GPGLL,4506.00886,N,06839.67249,W,183323.00,A,A*78
$RDENS,8409,5240197,PC
$GPRMC,183324.00,A,4506.00871,N,06839.67330,W,2.117,252.39,180924,,,A*73
$GPVTG,252.39,T,,M,2.117,N,3.920,K,A*3F
$GPGGA,183324.00,4506.00871,N,06839.67330,W,1,09,0.93,35.9,M,-29.0,M,,*57
$GPGSA,A,3,24,12,25,21,23,10,02,28,32,,,,1.77,0.93,1.50*05
$GPGSV,3,1,12,02,10,326,22,10,81,245,37,12,33,099,32,15,00,097,05*7E
$GPGSV,3,2,12,21,19,310,29,23,48,151,35,24,31,054,31,25,28,142,28*70
$GPGSV,3,3,12,28,29,223,38,32,58,295,35,46,12,248,,48,15,245,*73
$GPGLL,4506.00871,N,06839.67330,W,183324.00,A,A*78
$RDENS,8410,5240275,PC
$GPRMC,183325.00,A,4506.00854,N,06839.67412,W,2.230,252.50,180924,,,A*7B
$GPVTG,252.50,T,,M,2.230,N,4.130,K,A*38
$GPGGA,183325.00,4506.00854,N,06839.67412,W,1,09,0.93,35.8,M,-29.0,M,,*57
$GPGSA,A,3,24,12,25,21,23,10,02,28,32,,,,1.77,0.93,1.50*05
$GPGSV,3,1,12,02,10,326,26,10,81,245,36,12,33,099,33,15,00,097,*7F
$GPGSV,3,2,12,21,19,310,28,23,48,151,33,24,31,054,31,25,28,142,27*78
$GPGSV,3,3,12,28,29,223,37,32,58,295,32,46,12,248,,48,15,245,*7B
$GPGLL,4506.00854,N,06839.67412,W,183325.00,A,A*79
$RDENS,8411,5240354,PC
$GPRMC,183326.00,A,4506.00837,N,06839.67497,W,2.241,252.32,180924,,,A*72
$GPVTG,252.32,T,,M,2.241,N,4.150,K,A*3C
$GPGGA,183326.00,4506.00837,N,06839.67497,W,1,09,0.93,35.8,M,-29.0,M,,*5C
$GPGSA,A,3,24,12,25,21,23,10,02,28,32,,,,1.77,0.93,1.50*05
$GPGSV,3,1,12,02,10,326,26,10,81,245,38,12,33,099,33,15,00,097,*71
$GPGSV,3,2,12,21,19,310,28,23,48,151,32,24,31,054,30,25,28,142,26*79
$GPGSV,3,3,12,28,29,223,34,32,58,295,33,46,12,248,,48,15,245,*79
$GPGLL,4506.00837,N,06839.67497,W,183326.00,A,A*72
$RDENS,8412,5240433,PC
$RDENS,8413,5240511,PC
$GPRMC,183327.00,A,4506.00816,N,06839.67585,W,2.349,251.83,180924,,,A*72
$GPVTG,251.83,T,,M,2.349,N,4.350,K,A*3E
$GPGGA,183327.00,4506.00816,N,06839.67585,W,1,09,0.93,35.8,M,-29.0,M,,*5C
$GPGSA,A,3,24,12,25,21,23,10,02,28,32,,,,1.77,0.93,1.50*05
$GPGSV,3,1,12,02,10,326,25,10,81,245,37,12,33,099,35,15,00,097,*7B
$GPGSV,3,2,12,21,19,310,29,23,48,151,33,24,31,054,30,25,28,142,27*78
$GPGSV,3,3,12,28,29,223,35,32,58,295,33,46,12,248,,48,15,245,29*73
$GPGLL,4506.00816,N,06839.67585,W,183327.00,A,A*72
$RDENS,8414,5240589,PC
$GPRMC,183328.00,A,4506.00795,N,06839.67675,W,2.393,251.50,180924,,,A*7C
$GPVTG,251.50,T,,M,2.393,N,4.431,K,A*37
$GPGGA,183328.00,4506.00795,N,06839.67675,W,1,09,0.93,35.8,M,-29.0,M,,*5B
$GPGSA,A,3,24,12,25,21,23,10,02,28,32,,,,1.77,0.93,1.50*05
$GPGSV,3,1,12,02,10,326,22,10,81,245,37,12,33,099,34,15,00,097,*7D
$GPGSV,3,2,12,21,19,310,30,23,48,151,36,24,31,054,31,25,28,142,28*7B
$GPGSV,3,3,12,28,29,223,35,32,58,295,36,46,12,248,,48,15,245,28*77
$GPGLL,4506.00795,N,06839.67675,W,183328.00,A,A*75
$RDENS,8415,5240668,PC
$GPRMC,183329.00,A,4506.00775,N,06839.67766,W,2.442,252.94,180924,,,A*70
$GPVTG,252.94,T,,M,2.442,N,4.522,K,A*34
$GPGGA,183329.00,4506.00775,N,06839.67766,W,1,09,0.93,35.9,M,-29.0,M,,*56
$GPGSA,A,3,24,12,25,21,23,10,02,28,32,,,,1.77,0.93,1.51*04
$GPGSV,3,1,12,02,10,326,20,10,81,245,37,12,33,099,34,15,00,097,*7F
$GPGSV,3,2,12,21,19,310,31,23,48,151,34,24,31,054,30,25,28,142,28*79
$GPGSV,3,3,12,28,29,223,35,32,58,295,35,46,12,248,,48,15,245,28*74
$GPGLL,4506.00775,N,06839.67766,W,183329.00,A,A*79
$RDENS,8416,5240747,PC
$GPRMC,183330.00,A,4506.00755,N,06839.67861,W,2.466,253.02,180924,,,A*7A
$GPVTG,253.02,T,,M,2.466,N,4.566,K,A*3C
$GPGGA,183330.00,4506.00755,N,06839.67861,W,1,09,0.93,35.9,M,-29.0,M,,*54
$GPGSA,A,3,24,12,25,21,23,10,02,28,32,,,,1.77,0.93,1.51*04
$GPGSV,3,1,12,02,10,326,18,10,81,245,37,12,33,099,33,15,00,097,*73
$GPGSV,3,2,12,21,19,310,31,23,48,151,33,24,31,054,29,25,28,142,28*76
$GPGSV,3,3,12,28,29,223,36,32,58,295,36,46,12,248,,48,15,245,27*7B
$GPGLL,4506.00755,N,06839.67861,W,183330.00,A,A*7B
$RDENS,8417,5240826,PC
$RDENS,8418,5240904,PC
$GPRMC,183331.00,A,4506.00735,N,06839.67954,W,2.451,252.77,180924,,,A*7D
$GPVTG,252.77,T,,M,2.451,N,4.540,K,A*3F
$GPGGA,183331.00,4506.00735,N,06839.67954,W,1,09,0.93,35.9,M,-29.0,M,,*54
$GPGSA,A,3,24,12,25,21,23,10,02,28,32,,,,1.77,0.93,1.51*04
$GPGSV,3,1,12,02,10,326,16,10,81,245,37,12,33,099,32,15,00,097,*7C
$GPGSV,3,2,12,21,19,310,31,23,48,151,33,24,31,054,29,25,28,142,28*76
$GPGSV,3,3,12,28,29,223,36,32,58,295,36,46,12,248,,48,15,245,26*7A
$GPGLL,4506.00735,N,06839.67954,W,183331.00,A,A*7B
$RDENS,8419,5240983,PC
$GPRMC,183332.00,A,4506.00716,N,06839.68047,W,2.424,253.10,180924,,,A*79
$GPVTG,253.10,T,,M,2.424,N,4.489,K,A*39
$GPGGA,183332.00,4506.00716,N,06839.68047,W,1,09,0.93,35.9,M,-29.0,M,,*52
$GPGSA,A,3,24,12,25,21,23,10,02,28,32,,,,1.77,0.93,1.51*04
$GPGSV,3,1,12,02,10,326,15,10,81,245,37,12,33,099,32,15,00,097,*7F
$GPGSV,3,2,12,21,19,310,31,23,48,151,32,24,31,054,28,25,28,142,28*76
$GPGSV,3,3,12,28,29,223,36,32,58,295,36,46,12,248,,48,15,245,*7E
$GPGLL,4506.00716,N,06839.68047,W,183332.00,A,A*7D
$RDENS,8420,5241062,PC
$GPRMC,183333.00,A,4506.00695,N,06839.68136,W,2.337,252.25,180924,,,A*77
$GPVTG,252.25,T,,M,2.337,N,4.329,K,A*36
$GPGGA,183333.00,4506.00695,N,06839.68136,W,1,09,0.93,36.0,M,-29.0,M,,*54
$GPGSA,A,3,24,12,25,21,23,10,02,28,32,,,,1.77,0.93,1.51*04
$GPGSV,3,1,12,02,10,326,15,10,81,245,37,12,33,099,32,15,00,097,*7F
$GPGSV,3,2,12,21,19,310,31,23,48,151,31,24,31,054,26,25,28,142,28*7B
$GPGSV,3,3,12,28,29,223,37,32,58,295,36,46,12,248,,48,15,245,*7F
$GPGLL,4506.00695,N,06839.68136,W,183333.00,A,A*71
$RDENS,8421,5241141,PC
$RDENS,8422,5241220,PC
$GPRMC,183334.00,A,4506.00675,N,06839.68222,W,2.202,251.88,180924,,,A*7B
$GPVTG,251.88,T,,M,2.202,N,4.078,K,A*32
$GPGGA,183334.00,4506.00675,N,06839.68222,W,1,09,0.93,35.9,M,-29.0,M,,*51
$GPGSA,A,3,24,12,25,21,23,10,02,28,32,,,,1.77,0.93,1.51*04
$GPGSV,3,1,12,02,10,326,16,10,81,245,37,12,33,099,31,15,00,097,*7F
$GPGSV,3,2,12,21,19,310,30,23,48,151,32,24,31,054,27,25,28,142,28*78
$GPGSV,3,3,12,28,29,223,37,32,58,295,35,46,12,248,,48,15,245,27*79
$GPGLL,4506.00675,N,06839.68222,W,183334.00,A,A*7E
$RDENS,8423,5241298,PC
$GPRMC,183335.00,A,4506.00654,N,06839.68307,W,2.161,251.23,180924,,,A*78
$GPVTG,251.23,T,,M,2.161,N,4.002,K,A*38
$GPGGA,183335.00,4506.00654,N,06839.68307,W,1,09,0.93,35.9,M,-29.0,M,,*55
$GPGSA,A,3,24,12,25,21,23,10,02,28,32,,,,1.77,0.93,1.51*04
$GPGSV,3,1,12,02,10,326,18,10,81,245,38,12,33,099,32,15,00,097,*7D
$GPGSV,3,2,12,21,19,310,29,23,48,151,32,24,31,054,27,25,28,142,27*7F
$GPGSV,3,3,12,28,29,223,37,32,58,295,36,46,12,248,,48,15,245,*7F
$GPGLL,4506.00654,N,06839.68307,W,183335.00,A,A*7A
$RDENS,8424,5241376,PC
$GPRMC,183336.00,A,4506.00633,N,06839.68390,W,2.120,251.05,180924,,,A*75
$GPVTG,251.05,T,,M,2.120,N,3.925,K,A*32
$GPGGA,183336.00,4506.00633,N,06839.68390,W,1,09,0.93,35.8,M,-29.0,M,,*58
$GPGSA,A,3,24,12,25,21,23,10,02,28,32,,,,1.77,0.93,1.51*04
$GPGSV,3,1,12,02,10,326,21,10,81,245,38,12,33,099,32,15,00,097,*77
$GPGSV,3,2,12,21,19,310,29,23,48,151,33,24,31,054,27,25,28,142,26*7F
$GPGSV,3,3,12,28,29,223,37,32,58,295,36,46,12,248,,48,15,245,*7F
$GPGLL,4506.00633,N,06839.68390,W,183336.00,A,A*76
$RDENS,8425,5241456,PC
$GPRMC,183337.00,A,4506.00614,N,06839.68472,W,2.127,251.46,180924,,,A*7A
$GPVTG,251.46,T,,M,2.127,N,3.940,K,A*31
$GPGGA,183337.00,4506.00614,N,06839.68472,W,1,09,0.93,35.6,M,-29.0,M,,*59
$GPGSA,A,3,24,12,25,21,23,10,02,28,32,,,,1.77,0.93,1.51*04
$GPGSV,3,1,12,02,10,326,21,10,81,245,35,12,33,099,32,15,00,097,*7A
$GPGSV,3,2,12,21,19,310,29,23,48,151,32,24,31,054,26,25,28,142,26*7F
$GPGSV,3,3,12,28,29,223,37,32,58,295,33,46,12,248,,48,15,245,*7A
$GPGLL,4506.00614,N,06839.68472,W,183337.00,A,A*79
$RDENS,8426,5241534,PC
$RDENS,8427,5241613,PC
$GPRMC,183338.00,A,4506.00594,N,06839.68553,W,2.037,251.01,180924,,,A*7F
$GPVTG,251.01,T,,M,2.037,N,3.772,K,A*3D
$GPGGA,183338.00,4506.00594,N,06839.68553,W,1,09,0.93,35.6,M,-29.0,M,,*5F
$GPGSA,A,3,24,12,25,21,23,10,02,28,32,,,,1.77,0.93,1.51*04
$GPGSV,3,1,12,02,10,326,20,10,81,243,38,12,33,099,31,15,00,097,*73
$GPGSV,3,2,12,21,19,310,28,23,48,151,32,24,31,054,27,25,28,142,26*7F
$GPGSV,3,3,12,28,29,223,37,32,58,295,36,46,12,248,,48,15,245,*7F
$GPGLL,4506.00594,N,06839.68553,W,183338.00,A,A*7F
$RDENS,8428,5241692,PC
$GPRMC,183339.00,A,4506.00574,N,06839.68629,W,2.025,250.73,180924,,,A*79
$GPVTG,250.73,T,,M,2.025,N,3.750,K,A*3A
$GPGGA,183339.00,4506.00574,N,06839.68629,W,1,09,0.93,35.6,M,-29.0,M,,*5E
$GPGSA,A,3,24,12,25,21,23,10,02,28,32,,,,1.77,0.93,1.51*04
$GPGSV,3,1,12,02,10,326,20,10,81,243,37,12,33,099,27,15,00,097,*7B
$GPGSV,3,2,12,21,19,310,26,23,48,151,32,24,31,054,26,25,28,142,24*72
$GPGSV,3,3,12,28,29,223,37,32,58,295,36,46,12,248,,48,15,245,28*75
$GPGLL,4506.00574,N,06839.68629,W,183339.00,A,A*7E
$RDENS,8429,5241771,PC
$GPRMC,183340.00,A,4506.00556,N,06839.68707,W,2.002,252.59,180924,,,A*75
$GPVTG,252.59,T,,M,2.002,N,3.708,K,A*38
$GPGGA,183340.00,4506.00556,N,06839.68707,W,1,09,0.93,35.5,M,-29.0,M,,*5E
$GPGSA,A,3,24,12,25,21,23,10,02,28,32,,,,1.77,0.93,1.51*04
$GPGSV,3,1,12,02,10,326,19,10,81,243,38,12,33,098,29,15,00,097,*71
$GPGSV,3,2,12,21,19,310,24,23,48,151,33,24,31,054,26,25,28,142,24*71
$GPGSV,3,3,12,28,29,223,37,32,58,295,36,46,12,248,,48,15,245,30*7C
$GPGLL,4506.00556,N,06839.68707,W,183340.00,A,A*7D
$RDENS,8430,5241850,PC
$GPRMC,183341.00,A,4506.00536,N,06839.68780,W,1.888,251.09,180924,,,A*72
$GPVTG,251.09,T,,M,1.888,N,3.497,K,A*32
$GPGGA,183341.00,4506.00536,N,06839.68780,W,1,09,0.93,35.5,M,-29.0,M,,*56
$GPGSA,A,3,24,12,25,21,23,10,02,28,32,,,,1.77,0.93,1.51*04
$GPGSV,3,1,12,02,10,326,20,10,81,243,37,12,33,098,30,15,00,097,*7C
$GPGSV,3,2,12,21,19,310,21,23,48,151,33,24,31,054,26,25,28,142,23*73
$GPGSV,3,3,12,28,29,223,37,32,58,295,36,46,12,248,,48,15,245,31*7D
$GPGLL,4506.00536,N,06839.68780,W,183341.00,A,A*75
$RDENS,8431,5241928,PC
$RDENS,8432,5242006,PC
$GPRMC,183342.00,A,4506.00519,N,06839.68853,W,1.943,252.34,180924,,,A*76
$GPVTG,252.34,T,,M,1.943,N,3.598,K,A*37
$GPGGA,183342.00,4506.00519,N,06839.68853,W,1,09,0.93,35.4,M,-29.0,M,,*58
$GPGSA,A,3,24,12,25,21,23,10,02,28,32,,,,1.77,0.93,1.51*04
$GPGSV,3,1,12,02,10,326,20,10,81,243,37,12,33,098,30,15,00,097,*7C
$GPGSV,3,2,12,21,19,310,19,23,48,151,33,24,31,054,28,25,28,142,24*71
$GPGSV,3,3,12,28,29,223,37,32,58,295,36,46,12,248,,48,15,245,31*7D
$GPGLL,4506.00519,N,06839.68853,W,183342.00,A,A*7A
$RDENS,8433,5242085,PC
$GPRMC,183343.00,A,4506.00506,N,06839.68932,W,2.058,255.72,180924,,,A*7A
$GPVTG,255.72,T,,M,2.058,N,3.812,K,A*3D
$GPGGA,183343.00,4506.00506,N,06839.68932,W,1,09,0.93,35.3,M,-29.0,M,,*56
$GPGSA,A,3,24,12,25,21,23,10,02,28,32,,,,1.77,0.93,1.51*04
$GPGSV,3,1,12,02,10,326,20,10,81,243,37,12,33,098,30,15,00,097,*7C
$GPGSV,3,2,12,21,19,310,16,23,48,151,33,24,31,054,28,25,28,142,23*79
$GPGSV,3,3,12,28,29,223,37,32,58,295,36,46,12,248,,48,15,245,31*7D
$GPGLL,4506.00506,N,06839.68932,W,183343.00,A,A*73
$RDENS,8434,5242164,PC
$GPRMC,183344.00,A,4506.00493,N,06839.69012,W,2.086,255.98,180924,,,A*7D
$GPVTG,255.98,T,,M,2.086,N,3.864,K,A*3B
$GPGGA,183344.00,4506.00493,N,06839.69012,W,1,09,0.93,35.3,M,-29.0,M,,*56
$GPGSA,A,3,24,12,25,21,23,10,02,28,32,,,,1.77,0.93,1.51*04
$GPGSV,3,1,12,02,10,326,19,10,81,243,38,12,33,098,30,15,00,097,*79
$GPGSV,3,2,12,21,19,310,15,23,48,151,33,24,31,054,28,25,28,142,24*7D
$GPGSV,3,3,12,28,29,223,37,32,58,295,35,46,12,248,,48,15,245,31*7E
$GPGLL,4506.00493,N,06839.69012,W,183344.00,A,A*73
$RDENS,8435,5242242,PC
$RDENS,8436,5242321,PC
$GPRMC,183345.00,A,4506.00479,N,06839.69092,W,2.130,256.73,180924,,,A*7A
$GPVTG,256.73,T,,M,2.130,N,3.945,K,A*33
$GPGGA,183345.00,4506.00479,N,06839.69092,W,1,09,0.93,35.3,M,-29.0,M,,*5B
$GPGSA,A,3,24,12,25,21,23,10,02,28,32,,,,1.77,0.93,1.51*04
$GPGSV,3,1,12,02,10,326,19,10,81,243,37,12,33,098,29,15,00,097,*7E
$GPGSV,3,2,12,21,19,310,12,23,48,151,34,24,31,054,28,25,28,142,24*7D
$GPGSV,3,3,12,28,29,223,37,32,58,295,34,46,12,248,,48,15,245,31*7F
$GPGLL,4506.00479,N,06839.69092,W,183345.00,A,A*7E
$RDENS,8437,5242399,PC
$GPRMC,183346.00,A,4506.00465,N,06839.69171,W,2.131,257.37,180924,,,A*78
$GPVTG,257.37,T,,M,2.131,N,3.947,K,A*31
$GPGGA,183346.00,4506.00465,N,06839.69171,W,1,09,0.93,35.3,M,-29.0,M,,*59
$GPGSA,A,3,24,12,25,21,23,10,02,28,32,,,,1.77,0.93,1.51*04
$GPGSV,3,1,12,02,10,326,19,10,81,243,37,12,33,098,29,15,00,097,*7E
$GPGSV,3,2,12,21,19,310,11,23,48,151,34,24,31,054,28,25,28,142,25*7F
$GPGSV,3,3,12,28,29,223,37,32,58,295,35,46,12,248,33,48,15,245,31*7E
$GPGLL,4506.00465,N,06839.69171,W,183346.00,A,A*7C
$RDENS,8438,5242479,PC
$GPRMC,183347.00,A,4506.00454,N,06839.69254,W,2.205,259.22,180924,,,A*71
$GPVTG,259.22,T,,M,2.205,N,4.084,K,A*3E
$GPGGA,183347.00,4506.00454,N,06839.69254,W,1,09,0.93,35.2,M,-29.0,M,,*5F
$GPGSA,A,3,24,12,25,21,23,10,02,28,32,,,,1.77,0.93,1.51*04
$GPGSV,3,1,12,02,10,326,19,10,81,243,37,12,33,098,29,15,00,097,*7E
$GPGSV,3,2,12,21,19,310,10,23,48,151,34,24,31,054,29,25,28,142,26*7C
$GPGSV,3,3,12,28,29,223,37,32,58,295,34,46,12,248,32,48,15,245,31*7E
$GPGLL,4506.00454,N,06839.69254,W,183347.00,A,A*7B
$RDENS,8439,5242557,PC
$GPRMC,183348.00,A,4506.00446,N,06839.69338,W,2.249,260.61,180924,,,A*73
$GPVTG,260.61,T,,M,2.249,N,4.166,K,A*36
$GPGGA,183348.00,4506.00446,N,06839.69338,W,1,09,0.93,35.0,M,-29.0,M,,*5A
$GPGSA,A,3,24,12,25,21,23,10,02,28,32,,,,1.77,0.93,1.51*04
$GPGSV,3,1,12,02,10,326,20,10,81,243,37,12,33,098,29,15,00,097,*74
$GPGSV,3,2,12,21,19,310,10,23,48,151,34,24,31,054,28,25,28,142,26*7D
$GPGSV,3,3,12,28,29,223,37,32,58,295,34,46,12,248,32,48,15,245,31*7E
$GPGLL,4506.00446,N,06839.69338,W,183348.00,A,A*7C
$RDENS,8440,5242636,PC
$RDENS,8441,5242714,PC
$GPRMC,183349.00,A,4506.00434,N,06839.69424,W,2.214,260.11,180924,,,A*72
$GPVTG,260.11,T,,M,2.214,N,4.100,K,A*39
$GPGGA,183349.00,4506.00434,N,06839.69424,W,1,09,0.93,35.0,M,-29.0,M,,*54
$GPGSA,A,3,24,12,25,21,23,10,02,28,32,,,,1.77,0.93,1.51*04
$GPGSV,3,1,12,02,10,326,20,10,81,243,37,12,33,098,29,15,00,097,*74
$GPGSV,3,2,12,21,19,310,10,23,48,151,34,24,31,054,28,25,28,142,25*7E
$GPGSV,3,3,12,28,29,223,37,32,58,295,34,46,12,248,31,48,15,245,31*7D
$GPGLL,4506.00434,N,06839.69424,W,183349.00,A,A*72
$RDENS,8442,5242793,PC
$GPRMC,183350.00,A,4506.00421,N,06839.69510,W,2.267,259.49,180924,,,A*7B
$GPVTG,259.49,T,,M,2.267,N,4.198,K,A*3B
$GPGGA,183350.00,4506.00421,N,06839.69510,W,1,09,0.93,35.1,M,-29.0,M,,*5F
$GPGSA,A,3,24,12,25,21,23,10,02,28,32,,,,1.77,0.93,1.51*04
$GPGSV,3,1,12,02,10,326,20,10,81,243,37,12,33,098,30,15,00,097,*7C
$GPGSV,3,2,12,21,19,310,11,23,48,151,34,24,31,054,27,25,28,142,24*71
$GPGSV,3,3,12,28,29,223,37,32,58,295,35,46,12,248,30,48,15,245,30*7C
$GPGLL,4506.00421,N,06839.69510,W,183350.00,A,A*78
$RDENS,8443,5242872,PC
$GPRMC,183351.00,A,4506.00410,N,06839.69597,W,2.279,259.66,180924,,,A*75
$GPVTG,259.66,T,,M,2.279,N,4.221,K,A*38
$GPGGA,183351.00,4506.00410,N,06839.69597,W,1,09,0.93,35.0,M,-29.0,M,,*52
$GPGSA,A,3,24,12,25,21,23,10,02,28,32,,,,1.77,0.93,1.51*04
$GPGSV,3,1,12,02,10,326,21,10,81,243,37,12,33,098,32,15,00,097,*7F
$GPGSV,3,2,12,21,19,310,11,23,47,151,33,24,31,054,26,25,28,142,23*7F
$GPGSV,3,3,12,28,29,223,36,32,58,295,36,46,12,248,29,48,15,245,29*7E
$GPGLL,4506.00410,N,06839.69597,W,183351.00,A,A*74
$RDENS,8444,5242951,PC
$GPRMC,183352.00,A,4506.00395,N,06839.69686,W,2.263,258.57,180924,,,A*77
$GPVTG,258.57,T,,M,2.263,N,4.191,K,A*38
$GPGGA,183352.00,4506.00395,N,06839.69686,W,1,09,0.93,35.1,M,-29.0,M,,*59
$GPGSA,A,3,24,12,25,21,23,10,02,28,32,,,,1.77,0.93,1.51*04
$GPGSV,3,1,12,02,10,326,21,10,81,243,37,12,33,098,32,15,00,097,*7F
$GPGSV,3,2,12,21,19,310,11,23,47,151,33,24,31,054,26,25,28,142,23*7F
$GPGSV,3,3,12,28,29,223,37,32,58,295,36,46,12,248,29,48,15,245,28*7E
$GPGLL,4506.00395,N,06839.69686,W,183352.00,A,A*7E
$RDENS,8445,5243030,PC
$RDENS,8446,5243108,PC
$GPRMC,183353.00,A,4506.00383,N,06839.69775,W,2.294,259.81,180924,,,A*7E
$GPVTG,259.81,T,,M,2.294,N,4.248,K,A*3D
$GPGGA,183353.00,4506.00383,N,06839.69775,W,1,09,0.93,35.0,M,-29.0,M,,*53
$GPGSA,A,3,24,12,25,21,23,10,02,28,32,,,,1.77,0.93,1.51*04
$GPGSV,3,1,12,02,10,326,20,10,81,243,37,12,33,098,32,15,00,097,*7E
$GPGSV,3,2,12,21,19,310,11,23,47,151,33,24,31,054,27,25,28,142,22*7F
$GPGSV,3,3,12,28,29,223,36,32,58,295,35,46,12,248,29,48,15,245,29*7D
$GPGLL,4506.00383,N,06839.69775,W,183353.00,A,A*75
$RDENS,8447,5243186,PC
$GPRMC,183354.00,A,4506.00372,N,06839.69862,W,2.310,260.14,180924,,,A*75
$GPVTG,260.14,T,,M,2.310,N,4.279,K,A*34
$GPGGA,183354.00,4506.00372,N,06839.69862,W,1,09,0.93,35.0,M,-29.0,M,,*53
$GPGSA,A,3,24,12,25,21,23,10,02,28,32,,,,1.77,0.93,1.51*04
$GPGSV,3,1,12,02,10,326,20,10,81,243,38,12,33,098,31,15,00,097,*72
$GPGSV,3,2,12,21,19,310,10,23,47,151,33,24,31,054,26,25,28,142,23*7E
$GPGSV,3,3,12,28,29,223,36,32,58,295,35,46,12,248,30,48,15,245,30*7D
$GPGLL,4506.00372,N,06839.69862,W,183354.00,A,A*75
$RDENS,8448,5243265,PC
$GPRMC,183355.00,A,4506.00357,N,06839.69948,W,2.253,258.81,180924,,,A*7B
$GPVTG,258.81,T,,M,2.253,N,4.173,K,A*3C
$GPGGA,183355.00,4506.00357,N,06839.69948,W,1,09,0.93,35.2,M,-29.0,M,,*5E
$GPGSA,A,3,24,12,25,21,23,10,02,28,32,,,,1.78,0.93,1.51*0B
$GPGSV,3,1,12,02,10,326,20,10,81,243,37,12,33,098,30,15,00,097,*7C
$GPGSV,3,2,12,21,19,310,13,23,47,151,34,24,31,054,27,25,28,142,22*7A
$GPGSV,3,3,12,28,29,223,36,32,58,295,35,46,12,248,30,48,15,245,30*7D
$GPGLL,4506.00357,N,06839.69948,W,183355.00,A,A*7A
$RDENS,8449,5243344,PC
$RDENS,8450,5243422,PC
$GPRMC,183356.00,A,4506.00340,N,06839.70034,W,2.249,257.39,180924,,,A*73
$GPVTG,257.39,T,,M,2.249,N,4.166,K,A*3F
$GPGGA,183356.00,4506.00340,N,06839.70034,W,1,09,0.93,35.3,M,-29.0,M,,*50
$GPGSA,A,3,24,12,25,21,23,10,02,28,32,,,,1.78,0.93,1.51*0B
$GPGSV,3,1,12,02,10,326,20,10,81,243,37,12,33,098,30,15,00,097,*7C
$GPGSV,3,2,12,21,19,310,15,23,47,151,34,24,31,054,27,25,28,142,21*7F
$GPGSV,3,3,12,28,29,223,36,32,58,295,35,46,12,248,30,48,15,245,31*7C
$GPGLL,4506.00340,N,06839.70034,W,183356.00,A,A*75
$RDENS,8451,5243501,PC
$GPRMC,183357.00,A,4506.00323,N,06839.70118,W,2.282,257.39,180924,,,A*7F
$GPVTG,257.39,T,,M,2.282,N,4.226,K,A*3F
$GPGGA,183357.00,4506.00323,N,06839.70118,W,1,09,0.93,35.4,M,-29.0,M,,*5C
$GPGSA,A,3,24,12,25,21,23,10,02,28,32,,,,1.78,0.93,1.51*0B
$GPGSV,3,1,12,02,10,326,20,10,81,243,37,12,33,098,30,15,00,097,*7C
$GPGSV,3,2,12,21,19,310,16,23,47,151,33,24,31,054,27,25,28,142,21*7B
$GPGSV,3,3,12,28,29,223,37,32,58,295,35,46,12,248,30,48,15,245,30*7C
$GPGLL,4506.00323,N,06839.70118,W,183357.00,A,A*7E
$RDENS,8452,5243580,PC
$GPRMC,183358.00,A,4506.00310,N,06839.70208,W,2.329,259.21,180924,,,A*75
$GPVTG,259.21,T,,M,2.329,N,4.314,K,A*38
$GPGGA,183358.00,4506.00310,N,06839.70208,W,1,09,0.93,35.4,M,-29.0,M,,*51
$GPGSA,A,3,24,12,25,21,23,10,02,28,32,,,,1.78,0.93,1.51*0B
$GPGSV,3,1,12,02,10,326,21,10,81,243,37,12,33,098,30,15,00,097,*7D
$GPGSV,3,2,12,21,19,310,19,23,47,151,33,24,31,054,27,25,28,142,20*75
$GPGSV,3,3,12,28,29,223,37,32,58,295,36,46,12,248,30,48,15,245,29*77
$GPGLL,4506.00310,N,06839.70208,W,183358.00,A,A*73
$RDENS,8453,5243658,PC
$GPRMC,183359.00,A,4506.00298,N,06839.70295,W,2.250,259.28,180924,,,A*77
$GPVTG,259.28,T,,M,2.250,N,4.167,K,A*38
$GPGGA,183359.00,4506.00298,N,06839.70295,W,1,09,0.93,35.4,M,-29.0,M,,*55
$GPGSA,A,3,24,12,25,21,23,10,02,28,32,,,,1.78,0.93,1.51*0B
$GPGSV,3,1,12,02,10,326,22,10,81,243,37,12,33,098,30,15,00,097,*7E
$GPGSV,3,2,12,21,19,310,22,23,47,151,32,24,31,054,28,25,28,142,20*73
$GPGSV,3,3,12,28,29,223,37,32,58,295,36,46,12,248,30,48,15,245,29*77
$GPGLL,4506.00298,N,06839.70295,W,183359.00,A,A*77
$RDENS,8454,5243737,PC
$RDENS,8455,5243815,PC
$GPRMC,183400.00,A,4506.00283,N,06839.70382,W,2.267,258.75,180924,,,A*7C
$GPVTG,258.75,T,,M,2.267,N,4.199,K,A*34
$GPGGA,183400.00,4506.00283,N,06839.70382,W,1,09,0.93,35.4,M,-29.0,M,,*53
$GPGSA,A,3,24,12,25,21,23,10,02,28,32,,,,1.78,0.93,1.51*0B
$GPGSV,3,1,12,02,10,326,23,10,81,243,37,12,33,098,30,15,00,097,*7F
$GPGSV,3,2,12,21,19,310,23,23,47,151,33,24,31,054,28,25,28,142,20*73
$GPGSV,3,3,12,28,29,223,37,32,58,295,35,46,12,248,29,48,15,245,29*7C
$GPGLL,4506.00283,N,06839.70382,W,183400.00,A,A*71
$RDENS,8456,5243895,PC
$GPRMC,183401.00,A,4506.00272,N,06839.70469,W,2.342,260.94,180924,,,A*73
$GPVTG,260.94,T,,M,2.342,N,4.338,K,A*3F
$GPGGA,183401.00,4506.00272,N,06839.70469,W,1,09,0.93,35.3,M,-29.0,M,,*59
$GPGSA,A,3,24,12,25,21,23,10,02,28,32,,,,1.78,0.93,1.51*0B
$GPGSV,3,1,12,02,10,326,24,10,81,243,37,12,33,098,30,15,00,097,*78
$GPGSV,3,2,12,21,19,310,22,23,47,151,33,24,31,054,27,25,28,142,20*7D
$GPGSV,3,3,12,28,29,223,37,32,58,295,35,46,12,248,30,48,15,245,31*7D
$GPGLL,4506.00272,N,06839.70469,W,183401.00,A,A*7C
$RDENS,8457,5243973,PC
$GPRMC,183402.00,A,4506.00262,N,06839.70561,W,2.352,261.69,180924,,,A*7A
$GPVTG,261.69,T,,M,2.352,N,4.355,K,A*36
$GPGGA,183402.00,4506.00262,N,06839.70561,W,1,09,0.93,35.3,M,-29.0,M,,*52
$GPGSA,A,3,24,12,25,21,23,10,02,28,32,,,,1.78,0.93,1.51*0B
$GPGSV,3,1,12,02,10,326,24,10,81,243,37,12,33,098,29,15,00,097,*70
$GPGSV,3,2,12,21,19,310,20,23,47,151,34,24,31,054,27,25,28,142,22*7A
$GPGSV,3,3,12,28,29,223,37,32,58,295,35,46,12,248,30,48,15,245,31*7D
$GPGLL,4506.00262,N,06839.70561,W,183402.00,A,A*77
$RDENS,8458,5244052,PC
$GPRMC,183403.00,A,4506.00251,N,06839.70649,W,2.284,260.94,180924,,,A*7B
$GPVTG,260.94,T,,M,2.284,N,4.230,K,A*3D
$GPGGA,183403.00,4506.00251,N,06839.70649,W,1,09,0.93,35.2,M,-29.0,M,,*5B
$GPGSA,A,3,24,12,25,21,23,10,02,28,32,,,,1.78,0.93,1.51*0B
$GPGSV,3,1,12,02,10,326,23,10,81,243,37,12,33,098,30,15,00,097,*7F
$GPGSV,3,2,12,21,19,310,20,23,47,151,34,24,31,054,27,25,28,142,24*7C
$GPGSV,3,3,12,28,29,223,37,32,58,295,34,46,12,248,31,48,15,245,31*7D
$GPGLL,4506.00251,N,06839.70649,W,183403.00,A,A*7F
$RDENS,8459,5244130,PC
$RDENS,8460,5244209,PC
$GPRMC,183404.00,A,4506.00239,N,06839.70739,W,2.279,261.23,180924,,,A*7B
$GPVTG,261.23,T,,M,2.279,N,4.220,K,A*33
$GPGGA,183404.00,4506.00239,N,06839.70739,W,1,09,0.93,35.2,M,-29.0,M,,*54
$GPGSA,A,3,24,12,25,21,23,10,02,28,32,,,,1.78,0.93,1.51*0B
$GPGSV,3,1,12,02,10,326,22,10,81,243,37,12,33,098,30,15,00,097,*7E
$GPGSV,3,2,12,21,19,310,20,23,47,151,34,24,31,054,27,25,28,142,26*7E
$GPGSV,3,3,12,28,29,223,37,32,58,295,34,46,12,248,32,48,15,245,31*7E
$GPGLL,4506.00239,N,06839.70739,W,183404.00,A,A*70
$RDENS,8461,5244287,PC
$GPRMC,183405.00,A,4506.00231,N,06839.70832,W,2.357,263.03,180924,,,A*7B
$GPVTG,263.03,T,,M,2.357,N,4.364,K,A*3F
$GPGGA,183405.00,4506.00231,N,06839.70832,W,1,09,0.93,35.1,M,-29.0,M,,*5A
$GPGSA,A,3,24,12,25,21,23,10,02,28,32,,,,1.78,0.93,1.51*0B
$GPGSV,3,1,12,02,10,326,21,10,81,243,37,12,33,098,31,15,00,097,*7C
$GPGSV,3,2,12,21,19,310,21,23,47,151,34,24,31,054,28,25,28,142,27*71
$GPGSV,3,3,12,28,29,223,37,32,58,295,35,46,12,248,33,48,15,245,31*7E
$GPGLL,4506.00231,N,06839.70832,W,183405.00,A,A*7D
$RDENS,8462,5244367,PC
$GPRMC,183406.00,A,4506.00222,N,06839.70917,W,2.250,262.55,180924,,,A*78
$GPVTG,262.55,T,,M,2.250,N,4.167,K,A*3A
$GPGGA,183406.00,4506.00222,N,06839.70917,W,1,09,0.93,35.1,M,-29.0,M,,*5D
$GPGSA,A,3,24,12,25,21,23,10,02,28,32,,,,1.78,0.93,1.51*0B
$GPGSV,3,1,12,02,10,326,20,10,81,243,37,12,33,098,32,15,00,097,*7E
$GPGSV,3,2,12,21,19,310,22,23,47,151,34,24,31,054,29,25,28,142,28*7C
$GPGSV,3,3,12,28,29,223,37,32,58,295,35,46,12,248,33,48,15,245,31*7E
$GPGLL,4506.00222,N,06839.70917,W,183406.00,A,A*7A
$RDENS,8463,5244445,PC
$GPRMC,183407.00,A,4506.00216,N,06839.71001,W,2.212,263.41,180924,,,A*73
$GPVTG,263.41,T,,M,2.212,N,4.096,K,A*37
$GPGGA,183407.00,4506.00216,N,06839.71001,W,1,09,0.93,35.1,M,-29.0,M,,*54
$GPGSA,A,3,24,12,25,21,23,10,02,28,32,,,,1.78,0.93,1.51*0B
$GPGSV,3,1,12,02,10,326,20,10,81,243,37,12,33,098,31,15,00,097,*7D
$GPGSV,3,2,12,21,19,310,21,23,47,151,35,24,31,054,30,25,28,142,29*77
$GPGSV,3,3,12,28,29,223,37,32,58,295,36,46,12,248,33,48,15,245,30*7C
$GPGLL,4506.00216,N,06839.71001,W,183407.00,A,A*73
$RDENS,8464,5244524,PC
$RDENS,8465,5244602,PC
$GPRMC,183408.00,A,4506.00209,N,06839.71085,W,2.227,264.33,180924,,,A*7A
$GPVTG,264.33,T,,M,2.227,N,4.125,K,A*3A
$GPGGA,183408.00,4506.00209,N,06839.71085,W,1,09,0.93,35.1,M,-29.0,M,,*59
$GPGSA,A,3,24,12,25,21,23,10,02,28,32,,,,1.78,0.93,1.51*0B
$GPGSV,3,1,12,02,10,326,20,10,81,243,37,12,33,098,31,15,00,097,*7D
$GPGSV,3,2,12,21,19,310,21,23,47,151,35,24,31,054,30,25,28,142,29*77
$GPGSV,3,3,12,28,29,223,38,32,58,295,36,46,12,248,33,48,15,245,29*7B
$GPGLL,4506.00209,N,06839.71085,W,183408.00,A,A*7E
$RDENS,8466,5244682,PC
$GPRMC,183409.00,A,4506.00203,N,06839.71171,W,2.273,263.87,180924,,,A*72
$GPVTG,263.87,T,,M,2.273,N,4.210,K,A*36
$GPGGA,183409.00,4506.00203,N,06839.71171,W,1,09,0.93,35.2,M,-29.0,M,,*5B
$GPGSA,A,3,24,12,25,21,23,10,02,28,32,,,,1.78,0.93,1.51*0B
$GPGSV,3,1,12,02,10,326,20,10,81,243,37,12,33,098,32,15,00,097,*7E
$GPGSV,3,2,12,21,19,310,21,23,47,151,35,24,31,054,30,25,28,142,29*77
$GPGSV,3,3,12,28,29,223,37,32,58,295,35,46,12,248,33,48,15,245,30*7F
$GPGLL,4506.00203,N,06839.71171,W,183409.00,A,A*7F
$RDENS,8467,5244760,PC
$GPRMC,183410.00,A,4506.00201,N,06839.71260,W,2.257,264.73,180924,,,A*71
$GPVTG,264.73,T,,M,2.257,N,4.179,K,A*30
$GPGGA,183410.00,4506.00201,N,06839.71260,W,1,09,0.93,35.1,M,-29.0,M,,*51
$GPGSA,A,3,24,12,25,21,23,10,02,28,32,,,,1.78,0.93,1.51*0B
$GPGSV,3,1,12,02,10,326,19,10,81,243,37,12,33,098,31,15,00,097,*77
$GPGSV,3,2,12,21,19,310,20,23,47,151,35,24,31,054,30,25,28,142,28*77
$GPGSV,3,3,12,28,29,223,37,32,58,295,36,46,12,248,33,48,15,245,31*7D
$GPGLL,4506.00201,N,06839.71260,W,183410.00,A,A*76
$RDENS,8468,5244839,PC
$RDENS,8469,5244918,PC
$GPRMC,183411.00,A,4506.00194,N,06839.71344,W,2.142,263.09,180924,,,A*75
$GPVTG,263.09,T,,M,2.142,N,3.967,K,A*3D
$GPGGA,183411.00,4506.00194,N,06839.71344,W,1,09,0.93,35.2,M,-29.0,M,,*5B
$GPGSA,A,3,24,12,25,21,23,10,02,28,32,,,,1.78,0.93,1.51*0B
$GPGSV,3,1,12,02,10,326,19,10,81,243,37,12,33,098,31,15,00,097,*77
$GPGSV,3,2,12,21,19,310,20,23,47,151,35,24,31,054,30,25,28,142,28*77
$GPGSV,3,3,12,28,29,223,38,32,58,295,36,46,12,248,33,48,15,245,31*72
$GPGLL,4506.00194,N,06839.71344,W,183411.00,A,A*7F
$RDENS,8470,5244995,PC
$GPRMC,183412.00,A,4506.00187,N,06839.71426,W,2.092,262.01,180924,,,A*72
$GPVTG,262.01,T,,M,2.092,N,3.874,K,A*3B
$GPGGA,183412.00,4506.00187,N,06839.71426,W,1,09,0.93,35.2,M,-29.0,M,,*59
$GPGSA,A,3,24,12,25,21,23,10,02,28,32,,,,1.78,0.93,1.51*0B
$GPGSV,3,1,12,02,10,326,19,10,81,243,37,12,33,098,31,15,00,097,*77
$GPGSV,3,2,12,21,19,310,20,23,47,151,35,24,31,054,30,25,28,142,28*77
$GPGSV,3,3,12,28,29,223,37,32,58,295,36,46,12,248,33,48,15,245,31*7D
$GPGLL,4506.00187,N,06839.71426,W,183412.00,A,A*7D
$RDENS,8471,5245075,PC
$GPRMC,183413.00,A,4506.00183,N,06839.71507,W,2.071,262.92,180924,,,A*72
$GPVTG,262.92,T,,M,2.071,N,3.836,K,A*3A
$GPGGA,183413.00,4506.00183,N,06839.71507,W,1,09,0.93,35.0,M,-29.0,M,,*5C
$GPGSA,A,3,24,12,25,21,23,10,02,28,32,,,,1.78,0.93,1.51*0B
$GPGSV,3,1,12,02,10,326,19,10,81,243,37,12,33,098,30,15,00,097,*76
$GPGSV,3,2,12,21,19,310,19,23,47,151,35,24,31,054,29,25,28,142,28*75
$GPGSV,3,3,12,28,29,223,37,32,58,295,36,46,12,248,32,48,15,245,30*7D
$GPGLL,4506.00183,N,06839.71507,W,183413.00,A,A*7A
$RDENS,8472,5245153,PC
$GPRMC,183414.00,A,4506.00175,N,06839.71584,W,1.944,262.45,180924,,,A*71
$GPVTG,262.45,T,,M,1.944,N,3.601,K,A*36
$GPGGA,183414.00,4506.00175,N,06839.71584,W,1,09,0.93,35.0,M,-29.0,M,,*59
$GPGSA,A,3,24,12,25,21,23,10,02,28,32,,,,1.78,0.93,1.51*0B
$GPGSV,3,1,12,02,10,325,19,10,81,243,37,12,33,098,30,15,00,097,*75
$GPGSV,3,2,12,21,19,310,19,23,47,151,34,24,31,054,29,25,28,142,28*74
$GPGSV,3,3,12,28,29,223,37,32,58,295,36,46,12,248,32,48,15,245,30*7D
$GPGLL,4506.00175,N,06839.71584,W,183414.00,A,A*7F
$RDENS,8473,5245232,PC
$RDENS,8474,5245311,PC
$GPRMC,183415.00,A,4506.00166,N,06839.71657,W,1.899,261.22,180924,,,A*7C
$GPVTG,261.22,T,,M,1.899,N,3.517,K,A*31
$GPGGA,183415.00,4506.00166,N,06839.71657,W,1,09,0.93,35.0,M,-29.0,M,,*57
$GPGSA,A,3,24,12,25,21,23,10,02,28,32,,,,1.78,0.93,1.52*08
$GPGSV,3,1,12,02,10,325,18,10,81,243,37,12,33,098,30,15,00,097,*74
$GPGSV,3,2,12,21,19,310,19,23,47,151,34,24,31,054,30,25,28,142,29*7D
$GPGSV,3,3,12,28,29,223,37,32,58,295,36,46,12,248,33,48,15,245,30*7C
$GPGLL,4506.00166,N,06839.71657,W,183415.00,A,A*71
$RDENS,8475,5245390,PC
$GPRMC,183416.00,A,4506.00160,N,06839.71726,W,1.854,261.71,180924,,,A*79
$GPVTG,261.71,T,,M,1.854,N,3.434,K,A*36
$GPGGA,183416.00,4506.00160,N,06839.71726,W,1,09,0.93,34.9,M,-29.0,M,,*5D
$GPGSA,A,3,24,12,25,21,23,10,02,28,32,,,,1.78,0.93,1.52*08
$GPGSV,3,1,12,02,10,325,17,10,81,243,37,12,33,098,30,15,00,097,*7B
$GPGSV,3,2,12,21,19,310,19,23,47,151,34,24,31,054,31,25,28,142,30*74
$GPGSV,3,3,12,28,29,223,37,32,58,295,35,46,12,248,33,48,15,245,30*7F
$GPGLL,4506.00160,N,06839.71726,W,183416.00,A,A*73
$RDENS,8476,5245468,PC
$GPRMC,183417.00,A,4506.00157,N,06839.71799,W,1.887,262.60,180924,,,A*75
$GPVTG,262.60,T,,M,1.887,N,3.494,K,A*31
$GPGGA,183417.00,4506.00157,N,06839.71799,W,1,08,0.98,34.9,M,-29.0,M,,*56
$GPGSA,A,3,24,12,25,21,23,10,28,32,,,,,1.98,0.98,1.72*0D
$GPGSV,3,1,12,02,10,325,,10,81,243,37,12,33,098,31,15,00,097,*7C
$GPGSV,3,2,12,21,19,310,21,23,47,151,34,24,31,054,31,25,28,142,31*7E
$GPGSV,3,3,12,28,29,223,37,32,58,295,38,46,12,248,33,48,15,245,29*7A
$GPGLL,4506.00157,N,06839.71799,W,183417.00,A,A*72
$RDENS,8477,5245547,PC
$GPRMC,183418.00,A,4506.00151,N,06839.71868,W,1.861,262.59,180924,,,A*7F
$GPVTG,262.59,T,,M,1.861,N,3.447,K,A*3D
$GPGGA,183418.00,4506.00151,N,06839.71868,W,1,08,0.98,34.9,M,-29.0,M,,*5E
$GPGSA,A,3,24,12,25,21,23,10,28,32,,,,,1.98,0.98,1.72*0D
$GPGSV,3,1,12,02,10,325,20,10,81,243,36,12,33,098,33,15,00,097,*7D
$GPGSV,3,2,12,21,19,310,19,23,47,151,34,24,31,054,31,25,28,142,31*75
$GPGSV,3,3,12,28,29,223,38,32,58,295,37,46,12,248,31,48,15,245,28*79
$GPGLL,4506.00151,N,06839.71868,W,183418.00,A,A*7A
$RDENS,8478,5245626,PC
$RDENS,8479,5245705,PC
$GPRMC,183419.00,A,4506.00149,N,06839.71937,W,1.753,262.78,180924,,,A*71
$GPVTG,262.78,T,,M,1.753,N,3.246,K,A*37
$GPGGA,183419.00,4506.00149,N,06839.71937,W,1,08,0.98,34.8,M,-29.0,M,,*5C
$GPGSA,A,3,24,12,25,21,23,10,28,32,,,,,1.98,0.98,1.72*0D
$GPGSV,3,1,12,02,10,325,19,10,81,243,37,12,33,098,33,15,00,097,*76
$GPGSV,3,2,12,21,19,310,16,23,47,151,34,24,31,054,31,25,28,142,31*7A
$GPGSV,3,3,12,28,29,223,38,32,58,295,37,46,12,248,31,48,15,245,29*78
$GPGLL,4506.00149,N,06839.71937,W,183419.00,A,A*79
$RDENS,8480,5245783,PC
$GPRMC,183420.00,A,4506.00142,N,06839.72003,W,1.755,262.67,180924,,,A*75
$GPVTG,262.67,T,,M,1.755,N,3.251,K,A*39
$GPGGA,183420.00,4506.00142,N,06839.72003,W,1,08,0.98,34.8,M,-29.0,M,,*50
$GPGSA,A,3,24,12,25,21,23,10,28,32,,,,,1.98,0.98,1.72*0D
$GPGSV,3,1,12,02,10,325,21,10,81,243,37,12,33,098,33,15,00,097,*7D
$GPGSV,3,2,12,21,19,310,14,23,47,151,34,24,31,054,30,25,28,142,31*79
$GPGSV,3,3,12,28,29,223,38,32,58,295,37,46,12,248,32,48,15,245,29*7B
$GPGLL,4506.00142,N,06839.72003,W,183420.00,A,A*75
$RDENS,8481,5245863,PC
$GPRMC,183421.00,A,4506.00140,N,06839.72072,W,1.750,262.74,180924,,,A*77
$GPVTG,262.74,T,,M,1.750,N,3.241,K,A*3F
$GPGGA,183421.00,4506.00140,N,06839.72072,W,1,09,0.93,34.8,M,-29.0,M,,*5F
$GPGSA,A,3,24,12,25,21,23,10,02,28,32,,,,1.78,0.93,1.52*08
$GPGSV,3,1,12,02,10,325,20,10,81,243,37,12,33,098,33,15,00,097,*7C
$GPGSV,3,2,12,21,19,310,14,23,47,151,34,24,31,054,31,25,28,142,31*78
$GPGSV,3,3,12,28,29,223,38,32,58,295,37,46,12,248,32,48,15,245,29*7B
$GPGLL,4506.00140,N,06839.72072,W,183421.00,A,A*70
$RDENS,8482,5245941,PC
$RDENS,8483,5246020,PC
$GPRMC,183422.00,A,4506.00134,N,06839.72139,W,1.744,261.72,180924,,,A*79
$GPVTG,261.72,T,,M,1.744,N,3.230,K,A*39
$GPGGA,183422.00,4506.00134,N,06839.72139,W,1,09,0.93,34.8,M,-29.0,M,,*51
$GPGSA,A,3,24,12,25,21,23,10,02,28,32,,,,1.78,0.93,1.52*08
$GPGSV,3,1,12,02,10,325,20,10,81,240,37,12,33,098,33,15,00,097,*7F
$GPGSV,3,2,12,21,19,310,16,23,47,151,34,24,31,054,31,25,28,142,31*7A
$GPGSV,3,3,12,28,29,223,38,32,58,295,37,46,12,248,33,48,15,245,29*7A
$GPGLL,4506.00134,N,06839.72139,W,183422.00,A,A*7E
$RDENS,8484,5246098,PC
$GPRMC,183423.00,A,4506.00130,N,06839.72210,W,1.787,263.36,180924,,,A*79
$GPVTG,263.36,T,,M,1.787,N,3.310,K,A*37
$GPGGA,183423.00,4506.00130,N,06839.72210,W,1,09,0.93,34.7,M,-29.0,M,,*53
$GPGSA,A,3,24,12,25,21,23,10,02,28,32,,,,1.78,0.93,1.52*08
$GPGSV,3,1,12,02,10,325,21,10,81,240,37,12,33,098,32,15,00,097,*7F
$GPGSV,3,2,12,21,19,310,16,23,47,151,34,24,31,054,32,25,28,142,30*78
$GPGSV,3,3,12,28,29,223,37,32,58,295,36,46,12,248,33,48,15,245,29*74
$GPGLL,4506.00130,N,06839.72210,W,183423.00,A,A*73
$RDENS,8485,5246177,PC
$GPRMC,183424.00,A,4506.00128,N,06839.72280,W,1.844,263.18,180924,,,A*72
$GPVTG,263.18,T,,M,1.844,N,3.416,K,A*3A
$GPGGA,183424.00,4506.00128,N,06839.72280,W,1,09,0.93,34.6,M,-29.0,M,,*55
$GPGSA,A,3,24,12,25,21,23,10,02,28,32,,,,1.78,0.93,1.52*08
$GPGSV,3,1,12,02,10,325,19,10,81,240,37,12,34,098,31,15,00,097,*70
$GPGSV,3,2,12,21,19,310,17,23,47,151,35,24,31,054,32,25,28,142,29*70
$GPGSV,3,3,12,28,29,223,37,32,58,295,36,46,12,248,33,48,15,245,30*7C
$GPGLL,4506.00128,N,06839.72280,W,183424.00,A,A*74
$RDENS,8486,5246255,PC
$GPRMC,183425.00,A,4506.00123,N,06839.72358,W,2.042,263.60,180924,,,A*7E
$GPVTG,263.60,T,,M,2.042,N,3.782,K,A*36
$GPGGA,183425.00,4506.00123,N,06839.72358,W,1,09,0.93,34.5,M,-29.0,M,,*58
$GPGSA,A,3,24,12,25,21,23,10,02,28,32,,,,1.78,0.93,1.52*08
$GPGSV,3,1,12,02,10,325,18,10,81,240,37,12,34,098,30,15,00,097,*70
$GPGSV,3,2,12,21,19,310,17,23,47,151,35,24,31,054,30,25,28,142,29*72
$GPGSV,3,3,12,28,29,223,37,32,58,295,36,46,12,248,32,48,15,245,31*7C
$GPGLL,4506.00123,N,06839.72358,W,183425.00,A,A*7A
$RDENS,8487,5246334,PC
$RDENS,8488,5246413,PC
$GPRMC,183426.00,A,4506.00115,N,06839.72437,W,2.071,262.61,180924,,,A*76
$GPVTG,262.61,T,,M,2.071,N,3.835,K,A*35
$GPGGA,183426.00,4506.00115,N,06839.72437,W,1,09,0.93,34.5,M,-29.0,M,,*50
$GPGSA,A,3,24,12,25,21,23,10,02,28,32,,,,1.78,0.93,1.52*08
$GPGSV,3,1,12,02,10,325,18,10,81,240,38,12,34,098,29,15,00,097,*77
$GPGSV,3,2,12,21,19,310,15,23,47,151,35,24,31,054,30,25,28,142,28*71
$GPGSV,3,3,12,28,29,223,37,32,58,295,35,46,12,248,31,48,15,245,31*7C
$GPGLL,4506.00115,N,06839.72437,W,183426.00,A,A*72
$RDENS,8489,5246491,PC
$GPRMC,183427.00,A,4506.00108,N,06839.72519,W,2.154,263.74,180924,,,A*75
$GPVTG,263.74,T,,M,2.154,N,3.990,K,A*38
$GPGGA,183427.00,4506.00108,N,06839.72519,W,1,09,0.93,34.6,M,-29.0,M,,*53
$GPGSA,A,3,24,12,25,21,23,10,02,28,32,,,,1.78,0.93,1.52*08
$GPGSV,3,1,12,02,10,325,17,10,81,240,37,12,34,098,29,15,00,098,*78
$GPGSV,3,2,12,21,19,310,16,23,47,151,35,24,31,054,29,25,28,142,28*7A
$GPGSV,3,3,12,28,29,223,37,32,58,295,35,46,12,248,32,48,15,245,31*7F
$GPGLL,4506.00108,N,06839.72519,W,183427.00,A,A*72
$RDENS,8490,5246571,PC
$GPRMC,183428.00,A,4506.00105,N,06839.72605,W,2.188,265.61,180924,,,A*7A
$GPVTG,265.61,T,,M,2.188,N,4.052,K,A*3B
$GPGGA,183428.00,4506.00105,N,06839.72605,W,1,09,0.93,34.4,M,-29.0,M,,*5D
$GPGSA,A,3,24,12,25,21,23,10,02,28,32,,,,1.78,0.93,1.52*08
$GPGSV,3,1,12,02,10,325,17,10,81,240,37,12,34,098,29,15,00,098,*78
$GPGSV,3,2,12,21,19,310,17,23,47,151,34,24,31,054,30,25,28,142,29*73
$GPGSV,3,3,12,28,29,223,37,32,58,295,35,46,12,248,32,48,15,245,31*7F
$GPGLL,4506.00105,N,06839.72605,W,183428.00,A,A*7E
$RDENS,8491,5246650,PC
$GPRMC,183429.00,A,4506.00101,N,06839.72686,W,2.185,266.15,180924,,,A*79
$GPVTG,266.15,T,,M,2.185,N,4.048,K,A*3D
$GPGGA,183429.00,4506.00101,N,06839.72686,W,1,09,0.93,34.3,M,-29.0,M,,*54
$GPGSA,A,3,24,12,25,21,23,10,02,28,32,,,,1.78,0.93,1.52*08
$GPGSV,3,1,12,02,10,325,18,10,81,240,37,12,34,098,30,15,00,098,*7F
$GPGSV,3,2,12,21,19,310,18,23,47,151,34,24,31,054,31,25,28,142,30*75
$GPGSV,3,3,12,28,29,223,37,32,58,295,35,46,12,248,33,48,15,245,29*77
$GPGLL,4506.00101,N,06839.72686,W,183429.00,A,A*70
$RDENS,8492,5246728,PC
$RDENS,8493,5246807,PC
$GPRMC,183430.00,A,4506.00101,N,06839.72773,W,2.206,267.61,180924,,,A*70
$GPVTG,267.61,T,,M,2.206,N,4.086,K,A*35
$GPGGA,183430.00,4506.00101,N,06839.72773,W,1,09,0.93,34.2,M,-29.0,M,,*56
$GPGSA,A,3,24,12,25,21,23,10,02,28,32,,,,1.78,0.93,1.52*08
$GPGSV,3,1,12,02,10,325,18,10,81,240,37,12,34,098,31,15,00,098,*7E
$GPGSV,3,2,12,21,19,310,19,23,47,151,34,24,31,054,31,25,28,142,31*75
$GPGSV,3,3,12,28,29,223,37,32,58,295,36,46,12,248,33,48,15,245,29*74
$GPGLL,4506.00101,N,06839.72773,W,183430.00,A,A*73
$RDENS,8494,5246886,PC
$GPRMC,183431.00,A,4506.00103,N,06839.72863,W,2.281,270.20,180924,,,A*71
$GPVTG,270.20,T,,M,2.281,N,4.225,K,A*32
$GPGGA,183431.00,4506.00103,N,06839.72863,W,1,09,0.93,34.1,M,-29.0,M,,*58
$GPGSA,A,3,24,12,25,21,23,10,02,28,32,,,,1.78,0.93,1.52*08
$GPGSV,3,1,12,02,10,325,18,10,81,240,37,12,34,098,31,15,00,098,*7E
$GPGSV,3,2,12,21,19,310,19,23,47,151,34,24,31,054,31,25,28,142,30*74
$GPGSV,3,3,12,28,29,223,38,32,58,295,36,46,12,248,33,48,15,245,29*7B
$GPGLL,4506.00103,N,06839.72863,W,183431.00,A,A*7E
$RDENS,8495,5246964,PC
$GPRMC,183432.00,A,4506.00104,N,06839.72953,W,2.257,270.20,180924,,,A*7C
$GPVTG,270.20,T,,M,2.257,N,4.181,K,A*34
$GPGGA,183432.00,4506.00104,N,06839.72953,W,1,09,0.93,34.1,M,-29.0,M,,*5E
$GPGSA,A,3,24,12,25,21,23,10,02,28,32,,,,1.78,0.93,1.52*08
$GPGSV,3,1,12,02,10,325,19,10,81,240,37,12,34,098,32,15,00,098,*7C
$GPGSV,3,2,12,21,19,310,18,23,47,151,34,24,31,054,31,25,28,142,30*75
$GPGSV,3,3,12,28,29,223,38,32,58,295,35,46,12,248,33,48,15,245,29*78
$GPGLL,4506.00104,N,06839.72953,W,183432.00,A,A*78
$RDENS,8496,5247043,PC
$RDENS,8497,5247121,PC
$GPRMC,183433.00,A,4506.00107,N,06839.73045,W,2.293,270.88,180924,,,A*7B
$GPVTG,270.88,T,,M,2.293,N,4.246,K,A*36
$GPGGA,183433.00,4506.00107,N,06839.73045,W,1,09,0.93,33.9,M,-29.0,M,,*5C
$GPGSA,A,3,24,12,25,21,23,10,02,28,32,,,,1.78,0.93,1.52*08
$GPGSV,3,1,12,02,10,325,20,10,81,240,37,12,34,098,31,15,00,098,*75
$GPGSV,3,2,12,21,19,309,19,23,47,151,34,24,31,054,30,25,28,142,30*7D
$GPGSV,3,3,12,28,29,223,38,32,58,295,35,46,12,248,33,48,15,245,29*78
$GPGLL,4506.00107,N,06839.73045,W,183433.00,A,A*75
$RDENS,8498,5247201,PC
$GPRMC,183434.00,A,4506.00104,N,06839.73134,W,2.281,269.14,180924,,,A*76
$GPVTG,269.14,T,,M,2.281,N,4.225,K,A*3D
$GPGGA,183434.00,4506.00104,N,06839.73134,W,1,09,0.93,34.0,M,-29.0,M,,*51
$GPGSA,A,3,24,12,25,21,23,10,02,28,32,,,,1.78,0.93,1.52*08
$GPGSV,3,1,12,02,10,325,20,10,81,240,37,12,34,098,31,15,00,098,*75
$GPGSV,3,2,12,21,19,309,19,23,47,151,34,24,31,054,30,25,28,142,30*7D
$GPGSV,3,3,12,28,29,223,37,32,58,295,35,46,12,248,33,48,15,245,29*77
$GPGLL,4506.00104,N,06839.73134,W,183434.00,A,A*76
$RDENS,8499,5247280,PC
$GPRMC,183435.00,A,4506.00104,N,06839.73220,W,2.264,269.65,180924,,,A*7C
$GPVTG,269.65,T,,M,2.264,N,4.192,K,A*3F
$GPGGA,183435.00,4506.00104,N,06839.73220,W,1,09,0.93,34.0,M,-29.0,M,,*56
$GPGSA,A,3,24,12,25,21,23,10,02,28,32,,,,1.78,0.93,1.52*08
$GPGSV,3,1,12,02,10,325,21,10,81,240,37,12,34,098,32,15,00,098,*77
$GPGSV,3,2,12,21,19,309,19,23,47,152,34,24,31,054,30,25,28,142,30*7E
$GPGSV,3,3,12,28,29,223,38,32,58,295,36,46,12,248,33,48,15,245,28*7A
$GPGLL,4506.00104,N,06839.73220,W,183435.00,A,A*71
$RDENS,8500,5247358,PC
$GPRMC,183436.00,A,4506.00104,N,06839.73309,W,2.283,270.40,180924,,,A*73
$GPVTG,270.40,T,,M,2.283,N,4.228,K,A*3B
$GPGGA,183436.00,4506.00104,N,06839.73309,W,1,09,0.93,34.0,M,-29.0,M,,*5F
$GPGSA,A,3,24,12,25,21,23,10,02,28,32,,,,1.78,0.93,1.52*08
$GPGSV,3,1,12,02,10,325,21,10,81,240,37,12,34,098,33,15,00,098,*76
$GPGSV,3,2,12,21,19,309,21,23,47,152,33,24,31,054,30,25,28,142,31*73
$GPGSV,3,3,12,28,29,223,38,32,58,295,36,46,12,248,32,48,15,245,29*7A
$GPGLL,4506.00104,N,06839.73309,W,183436.00,A,A*78
$RDENS,8501,5247437,PC
$RDENS,8502,5247515,PC
$GPRMC,183437.00,A,4506.00102,N,06839.73397,W,2.255,269.94,180924,,,A*79
$GPVTG,269.94,T,,M,2.255,N,4.176,K,A*39
$GPGGA,183437.00,4506.00102,N,06839.73397,W,1,09,0.93,34.0,M,-29.0,M,,*5F
$GPGSA,A,3,24,12,25,21,23,10,02,28,32,,,,1.78,0.93,1.52*08
$GPGSV,3,1,12,02,10,325,21,10,81,240,38,12,34,098,33,15,00,098,*79
$GPGSV,3,2,12,21,19,309,21,23,47,152,33,24,31,054,29,25,29,142,31*7A
$GPGSV,3,3,12,28,29,223,37,32,58,295,36,46,12,248,32,48,15,245,29*75
$GPGLL,4506.00102,N,06839.73397,W,183437.00,A,A*78
$RDENS,8503,5247595,PC
$GPRMC,183438.00,A,4506.00103,N,06839.73486,W,2.301,270.45,180924,,,A*74
$GPVTG,270.45,T,,M,2.301,N,4.262,K,A*3B
$GPGGA,183438.00,4506.00103,N,06839.73486,W,1,09,0.93,34.0,M,-29.0,M,,*56
$GPGSA,A,3,24,12,25,21,23,10,02,28,32,,,,1.78,0.93,1.52*08
$GPGSV,3,1,12,02,10,325,21,10,81,240,37,12,34,098,32,15,00,098,*77
$GPGSV,3,2,12,21,19,309,21,23,47,152,33,24,31,054,30,25,29,142,31*72
$GPGSV,3,3,12,28,29,223,38,32,58,295,36,46,12,248,32,48,15,245,28*7B
$GPGLL,4506.00103,N,06839.73486,W,183438.00,A,A*71
$RDENS,8504,5247673,PC
$GPRMC,183439.00,A,4506.00101,N,06839.73575,W,2.290,270.07,180924,,,A*75
$GPVTG,270.07,T,,M,2.290,N,4.240,K,A*34
$GPGGA,183439.00,4506.00101,N,06839.73575,W,1,09,0.93,34.1,M,-29.0,M,,*59
$GPGSA,A,3,24,12,25,21,23,10,02,28,32,,,,1.78,0.93,1.52*08
$GPGSV,3,1,12,02,10,325,22,10,81,240,37,12,34,098,33,15,00,098,*75
$GPGSV,3,2,12,21,19,309,21,23,47,152,33,24,31,054,30,25,29,142,31*72
$GPGSV,3,3,12,28,29,223,38,32,58,295,35,46,12,248,32,48,15,245,29*79
$GPGLL,4506.00101,N,06839.73575,W,183439.00,A,A*7F
$RDENS,8505,5247752,PC
$GPRMC,183440.00,A,4506.00102,N,06839.73667,W,2.335,271.05,180924,,,A*75
$GPVTG,271.05,T,,M,2.335,N,4.324,K,A*3A
$GPGGA,183440.00,4506.00102,N,06839.73667,W,1,09,0.93,34.1,M,-29.0,M,,*54
$GPGSA,A,3,24,12,25,21,23,10,02,28,32,,,,1.78,0.93,1.52*08
$GPGSV,3,1,12,02,10,325,22,10,81,240,37,12,34,098,33,15,00,098,*75
$GPGSV,3,2,12,21,19,309,21,23,47,152,33,24,31,054,30,25,29,142,31*72
$GPGSV,3,3,12,28,29,224,39,32,58,295,36,46,12,248,31,48,15,245,29*7F
$GPGLL,4506.00102,N,06839.73667,W,183440.00,A,A*72
$RDENS,8506,5247831,PC
$RDENS,8507,5247909,PC
$GPRMC,183441.00,A,4506.00109,N,06839.73759,W,2.370,272.93,180924,,,A*7E
$GPVTG,272.93,T,,M,2.370,N,4.389,K,A*30
$GPGGA,183441.00,4506.00109,N,06839.73759,W,1,09,0.93,34.0,M,-29.0,M,,*53
$GPGSA,A,3,24,12,25,21,23,10,02,28,32,,,,1.78,0.93,1.52*08
$GPGSV,3,1,12,02,10,325,20,10,81,240,37,12,34,098,34,15,00,098,*70
$GPGSV,3,2,12,21,19,309,21,23,47,152,33,24,31,054,31,25,29,142,30*72
$GPGSV,3,3,12,28,29,224,38,32,58,295,36,46,12,248,31,48,15,245,29*7E
$GPGLL,4506.00109,N,06839.73759,W,183441.00,A,A*74
$RDENS,8508,5247988,PC
$GPRMC,183442.00,A,4506.00116,N,06839.73846,W,2.268,273.42,180924,,,A*77
$GPVTG,273.42,T,,M,2.268,N,4.201,K,A*34
$GPGGA,183442.00,4506.00116,N,06839.73846,W,1,09,0.93,33.9,M,-29.0,M,,*51
$GPGSA,A,3,24,12,25,21,23,10,02,28,32,,,,1.78,0.93,1.52*08
$GPGSV,3,1,12,02,10,325,18,10,81,240,36,12,34,098,35,15,00,098,*7B
$GPGSV,3,2,12,21,19,309,22,23,47,152,33,24,31,054,31,25,29,142,30*71
$GPGSV,3,3,12,28,29,224,38,32,58,295,36,46,12,248,32,48,15,245,29*7D
$GPGLL,4506.00116,N,06839.73846,W,183442.00,A,A*78
$RDENS,8509,5248066,PC
$GPRMC,183443.00,A,4506.00121,N,06839.73931,W,2.246,274.00,180924,,,A*7E
$GPVTG,274.00,T,,M,2.246,N,4.159,K,A*37
$GPGGA,183443.00,4506.00121,N,06839.73931,W,1,09,0.93,33.9,M,-29.0,M,,*55
$GPGSA,A,3,24,12,25,21,23,10,02,28,32,,,,1.78,0.93,1.52*08
$GPGSV,3,1,12,02,10,325,17,10,81,240,36,12,34,098,35,15,00,098,*74
$GPGSV,3,2,12,21,19,309,22,23,47,152,33,24,31,054,30,25,29,142,29*78
$GPGSV,3,3,12,28,29,224,38,32,58,295,36,46,12,248,31,48,15,245,29*7E
$GPGLL,4506.00121,N,06839.73931,W,183443.00,A,A*7C
$RDENS,8510,5248146,PC
$GPRMC,183444.00,A,4506.00130,N,06839.74017,W,2.286,275.38,180924,,,A*75
$GPVTG,275.38,T,,M,2.286,N,4.234,K,A*39
$GPGGA,183444.00,4506.00130,N,06839.74017,W,1,09,0.93,33.6,M,-29.0,M,,*57
$GPGSA,A,3,24,12,25,21,23,10,02,28,32,,,,1.79,0.93,1.52*09
$GPGSV,3,1,12,02,10,325,17,10,81,240,36,12,34,098,36,15,00,098,*77
$GPGSV,3,2,12,21,19,309,21,23,47,152,33,24,31,054,30,25,29,142,30*73
$GPGSV,3,3,12,28,29,224,38,32,58,296,36,46,12,248,31,48,15,245,29*7D
$GPGLL,4506.00130,N,06839.74017,W,183444.00,A,A*71
$RDENS,8511,5248224,PC
$RDENS,8512,5248303,PC
$GPRMC,183445.00,A,4506.00140,N,06839.74103,W,2.247,276.23,180924,,,A*73
$GPVTG,276.23,T,,M,2.247,N,4.161,K,A*3E
